     3.02           OBSERVATION DATA    M (MIXED)           RINEX VERSION / TYPE
Assistant 1.0       StaticToRinex       20200827 161059 LCL PGM / RUN BY / DATE 
       G = GPS       R = GLONASS       C = COMPASS          COMMENT             
       S = SBAS      J = QZSS          E = GALILEO          COMMENT             
0000                                                        MARKER NAME         
1                                                           MARKER NUMBER       
                                                            MARKER TYPE         
                                                            OBSERVER / AGENCY
                                                            REC # / TYPE / VERS 
0                                                           ANT # / TYPE        
 -2272573.8172  5008166.8642  3219432.9202                  APPROX POSITION XYZ 
        0.0000        0.0000        0.0000                  ANTENNA: DELTA H/E/N
C   12 C1I L1I D1I S1I C7I L7I D7I S7I C6I L6I D6I S6I      SYS / # / OBS TYPES 
DBHZ                                                        COMMENT             
     1.000                                                  INTERVAL            
  2020    08    27    07    55   21.0000000     GPS         TIME OF FIRST OBS   
  2020    08    27    08    10    7.0000000     GPS         TIME OF LAST OBS    
     0                                                      RCV CLOCK OFFS APPL 
C L1I  0.00000                                              SYS / PHASE SHIFT   
C L7I  0.00000                                              SYS / PHASE SHIFT   
C L6I  0.00000                                              SYS / PHASE SHIFT   
    18                                                      LEAP SECONDS        
*** Above antenna height is from mark to PHASE CENTER.      COMMENT             
     0     0        0.0000        ANT MEASURE TYPE/HEIGT    COMMENT             
    0.0000    0.0000    0.0000    0.0000    0.0000          COMMENT             
                    BASE STATION                            COMMENT             
                                                            END OF HEADER       
> 2020 08 27 07 55 21.0000000  0  7       0.000000000000
C06  36198816.500 7 188496735.126 7        76.430 7        42.936 7                                                                  36198813.434 5 153169027.968 5        60.563 5        35.785 5
C08  36069431.211 6 187822989.650 6         9.418 6        38.795 6  36069426.348 6 145236628.089 6         8.063 6        36.231 6                                                                
C13  35676781.648 6 185778367.072 6       407.465 6        36.335 6  35676783.402 5 143655622.130 5       314.938 5        32.407 5  35676782.184 5 150960145.550 5       331.891 5        35.154 5
C16  36410426.523 5 189598644.518 5       252.543 5        35.785 5                                                                                                                                
C20  23059517.785 5 120076951.367 5     -1232.457 5        35.785 5                                                                  23059513.828 7  97572348.909 7     -1001.037 7        43.701 7
C32  26786713.527 7 139485438.293 7     -2115.855 7        42.728 7                                                                  26786717.805 6 113343367.067 6     -1719.104 6        38.795 6
C37  25125780.840 7 130836535.927 7       793.617 7        46.888 7                                                                  25125783.559 7 106315411.991 7       645.230 7        44.682 7
> 2020 08 27 07 55 22.0000000  0  7       0.000000000000
C06  36198801.926 7 188496659.090 7        76.240 7        42.981 7                                                                  36198798.980 5 153168966.171 5        61.006 5        35.785 5
C08  36069429.191 6 187822980.063 6         9.326 6        38.736 6  36069424.898 6 145236620.703 6         7.432 6        36.438 6                                                                
C13  35676703.074 6 185777959.470 6       407.607 6        36.335 6  35676705.008 5 143655306.985 5       314.541 5        32.407 5  35676703.648 5 150959814.337 5       330.635 5        35.017 5
C16  36410377.535 5 189598392.357 5       252.275 5        35.418 5                                                                                                                                
C20  23059754.227 5 120078183.093 5     -1231.885 5        35.901 5                                                                  23059750.422 7  97573349.767 7     -1000.889 7        43.567 7
C32  26787119.715 7 139487553.908 7     -2115.732 7        42.775 7                                                                  26787124.078 6 113345086.190 6     -1719.814 6        38.795 6
C37  25125628.684 7 130835742.428 7       793.291 7        46.796 7                                                                  25125631.266 7 106314767.221 7       644.521 7        44.712 7
> 2020 08 27 07 55 23.0000000  0  7       0.000000000000
C06  36198787.281 7 188496583.243 7        75.469 7        42.845 7                                                                  36198784.262 5 153168904.519 5        61.676 5        35.666 5
C08  36069427.250 6 187822970.703 6         9.492 6        38.554 6  36069422.992 6 145236613.446 6         7.807 6        36.124 6                                                                
C13  35676624.504 6 185777552.037 6       407.109 6        36.231 6  35676626.148 5 143654991.907 5       315.189 5        32.144 5  35676625.512 5 150959483.274 5       331.168 5        35.154 5
C16  36410329.441 5 189598140.451 5       251.074 5        35.666 5                                                                                                                                
C20  23059990.852 5 120079414.937 5     -1232.109 5        35.544 5                                                                  23059987.148 7  97574350.732 7     -1000.629 7        43.448 7
C32  26787526.332 7 139489669.531 7     -2115.508 7        42.656 7                                                                  26787530.188 6 113346805.324 6     -1719.867 6        38.616 6
C37  25125476.422 7 130834949.435 7       792.656 7        46.547 7                                                                  25125478.988 7 106314122.842 7       644.078 7        44.772 7
> 2020 08 27 07 55 24.0000000  0  7       0.000000000000
C06  36198772.895 7 188496507.456 7        75.889 7        42.959 7                                                                  36198769.637 5 153168842.975 5        60.832 5        35.785 5
C08  36069425.414 6 187822961.465 6         8.721 6        38.616 6  36069421.121 6 145236606.286 6         8.035 6        36.014 6                                                                
C13  35676546.188 6 185777144.682 6       405.986 6        36.635 6  35676548.266 5 143654676.886 5       315.203 5        31.864 5  35676547.297 5 150959152.279 5       329.973 5        34.727 5
C16  36410281.035 5 189597888.556 5       251.748 5        35.666 5                                                                                                                                
C20  23060227.664 5 120080646.816 5     -1232.119 5        35.418 5                                                                  23060223.742 7  97575351.774 7     -1001.668 7        43.387 7
C32  26787932.633 7 139491785.083 7     -2115.281 7        42.868 7                                                                  26787936.410 6 113348524.372 6     -1719.168 6        38.676 6
C37  25125323.910 7 130834156.854 7       792.393 7        46.557 7                                                                  25125326.746 7 106313478.808 7       644.016 7        44.874 7
> 2020 08 27 07 55 25.0000000  0  7       0.000000000000
C06  36198758.438 7 188496431.834 7        75.525 7        43.003 7                                                                  36198755.316 5 153168781.507 5        60.344 5        35.785 5
C08  36069423.695 6 187822952.349 6         8.768 6        38.616 6  36069419.508 6 145236599.274 6         6.668 6        36.014 6                                                                
C13  35676467.770 6 185776737.377 6       407.420 6        36.731 6  35676470.059 5 143654362.031 5       313.055 5        32.407 5  35676469.051 5 150958821.334 5       330.207 5        35.017 5
C16  36410232.809 5 189597636.893 5       251.521 5        35.666 5                                                                                                                                
C20  23060464.152 5 120081878.814 5     -1232.170 5        35.154 5                                                                  23060460.273 7  97576352.854 7     -1001.238 7        43.663 7
C32  26788339.262 7 139493900.620 7     -2115.529 7        42.891 7                                                                  26788342.559 6 113350243.411 6     -1719.637 6        38.795 6
C37  25125171.871 7 130833364.731 7       791.736 7        46.335 7                                                                  25125174.625 7 106312835.159 7       643.234 7        44.845 7
> 2020 08 27 07 55 26.0000000  0  7       0.000000000000
C06  36198743.836 7 188496356.315 7        75.002 7        43.026 7                                                                  36198740.672 5 153168720.104 5        62.023 5        35.785 5
C08  36069421.863 6 187822943.417 6         7.678 6        38.676 6  36069417.680 6 145236592.363 6         6.098 6        36.231 6                                                                
C13  35676389.352 6 185776330.264 6       406.740 6        36.438 6  35676392.105 5 143654047.194 5       314.477 5        32.144 5  35676390.902 5 150958490.495 5       330.344 5        34.874 5
C16  36410184.473 5 189597385.298 5       251.584 5        35.544 5                                                                                                                                
C20  23060700.570 5 120083110.823 5     -1231.053 5        35.785 5                                                                  23060696.906 7  97577353.992 7     -1001.297 7        43.701 7
C32  26788745.672 7 139496016.088 7     -2116.111 7        43.092 7                                                                  26788748.887 6 113351962.393 6     -1719.285 6        38.854 6
C37  25125020.297 7 130832573.033 7       791.350 7        46.377 7                                                                  25125022.449 7 106312191.829 7       643.293 7        45.031 7
> 2020 08 27 07 55 27.0000000  0  7       0.000000000000
C06  36198729.434 7 188496280.938 7        74.969 7        43.026 7                                                                  36198726.234 5 153168658.869 5        60.615 5        35.785 5
C08  36069420.270 6 187822934.629 6         8.484 6        38.676 6  36069416.191 6 145236585.547 6         6.840 6        36.231 6                                                                
C13  35676311.059 6 185775923.276 6       406.434 6        36.635 6  35676313.848 5 143653732.448 5       313.832 5        31.864 5  35676312.766 5 150958159.776 5       329.697 5        34.727 5
C16  36410135.977 5 189597133.896 5       251.395 5        35.785 5                                                                                                                                
C20  23060937.188 5 120084343.011 5     -1231.242 5        35.288 5                                                                  23060933.551 7  97578355.224 7     -1001.553 7        43.605 7
C32  26789152.031 7 139498131.526 7     -2115.793 7        42.913 7                                                                  26789155.113 6 113353681.348 6     -1719.053 6        38.736 6
C37  25124868.273 7 130831781.804 7       790.516 7        46.156 7                                                                  25124870.516 7 106311548.894 7       642.510 7        44.989 7
> 2020 08 27 07 55 28.0000000  0  7       0.000000000000
C06  36198715.035 7 188496205.584 7        75.508 7        43.003 7                                                                  36198711.699 5 153168597.600 5        62.227 5        35.785 5
C08  36069418.711 6 187822925.902 6         9.023 6        38.968 6  36069414.242 6 145236578.816 6         6.355 6        36.335 6                                                                
C13  35676232.945 6 185775516.213 6       407.051 6        36.635 6  35676235.559 5 143653417.679 5       314.910 5        31.564 5  35676234.570 5 150957829.028 5       329.980 5        34.727 5
C16  36410087.953 5 189596882.528 5       250.625 5        35.154 5                                                                                                                                
C20  23061173.664 5 120085575.111 5     -1231.758 5        35.154 5                                                                  23061170.117 7  97579356.404 7     -1001.191 7        43.739 7
C32  26789558.250 7 139500246.796 7     -2115.566 7        42.959 7                                                                  26789561.344 6 113355400.191 6     -1719.121 6        38.911 6
C37  25124716.043 7 130830990.900 7       790.605 7        45.889 7                                                                  25124718.539 7 106310906.218 7       642.520 7        45.154 7
> 2020 08 27 07 55 29.0000000  0  7       0.000000000000
C06  36198700.406 7 188496130.410 7        74.449 7        42.936 7                                                                  36198697.133 5 153168536.549 5        61.334 5        35.901 5
C08  36069417.180 6 187822917.407 6         7.379 6        38.854 6  36069412.742 6 145236572.224 6         6.148 6        36.231 6                                                                
C13  35676154.895 6 185775109.354 6       406.654 6        36.231 6  35676157.293 5 143653103.063 5       314.527 5        31.564 5  35676156.496 5 150957498.390 5       330.807 5        35.154 5
C16  36410040.023 5 189596631.339 5       250.309 5        35.154 5                                                                                                                                
C20  23061410.164 5 120086807.386 5     -1232.738 5        35.666 5                                                                  23061406.652 7  97580357.714 7     -1001.498 7        43.701 7
C32  26789964.281 7 139502362.090 7     -2116.254 7        42.728 7                                                                  26789967.684 6 113357119.022 6     -1718.959 6        39.024 6
C37  25124564.047 7 130830200.492 7       789.799 7        45.832 7                                                                  25124566.766 7 106310263.949 7       641.861 7        45.154 7
> 2020 08 27 07 55 30.0000000  0  7       0.000000000000
C06  36198685.898 7 188496055.251 7        74.986 7        42.891 7                                                                  36198682.805 5 153168475.516 5        60.078 5        35.785 5
C08  36069415.508 6 187822908.897 6         8.502 6        38.911 6  36069411.180 6 145236565.703 6         5.686 6        36.731 6                                                                
C13  35676076.672 6 185774702.589 6       406.080 6        36.014 6  35676079.105 5 143652788.512 5       313.654 5        31.242 5  35676078.297 5 150957167.794 5       331.133 5        34.874 5
C16  36409991.742 5 189596380.177 5       251.002 5        35.154 5                                                                                                                                
C20  23061647.246 5 120088039.654 5     -1233.744 5        35.017 5                                                                  23061643.289 7  97581359.019 7     -1001.641 7        43.720 7
C32  26790370.457 7 139504477.213 7     -2115.443 7        42.728 7                                                                  26790373.852 6 113358837.746 6     -1718.691 6        38.795 6
C37  25124412.563 7 130829410.436 7       789.830 7        45.773 7                                                                  25124415.004 7 106309621.961 7       641.797 7        45.182 7
> 2020 08 27 07 55 31.0000000  0  7       0.000000000000
C06  36198671.500 7 188495980.092 7        75.363 7        42.891 7                                                                  36198668.273 5 153168414.402 5        61.047 5        35.901 5
C08  36069413.813 6 187822900.427 6         9.074 6        38.968 6  36069409.695 6 145236559.138 6         6.477 6        36.231 6                                                                
C13  35675998.563 5 185774295.618 5       407.688 5        35.901 5  35676000.781 5 143652473.820 5       316.105 5        31.564 5  35676000.234 5 150956837.176 5       332.160 5        35.154 5
C16  36409943.430 5 189596129.084 5       249.816 5        35.017 5                                                                                                                                
C20  23061883.793 5 120089271.810 5     -1232.801 5        34.727 5                                                                  23061879.871 7  97582360.252 7     -1001.492 7        43.605 7
C32  26790776.859 7 139506592.162 7     -2114.891 7        42.656 7                                                                  26790780.113 6 113360556.334 6     -1719.461 6        38.736 6
C37  25124260.902 7 130828620.669 7       789.875 7        45.581 7                                                                  25124263.316 7 106308980.225 7       642.004 7        45.379 7
> 2020 08 27 07 55 32.0000000  0  7       0.000000000000
C06  36198657.266 7 188495905.304 7        74.982 7        42.845 7                                                                  36198653.848 5 153168353.635 5        60.816 5        35.785 5
C08  36069412.207 6 187822892.375 6         9.025 6        38.676 6  36069408.094 6 145236552.939 6         5.803 6        36.335 6                                                                
C13  35675920.441 6 185773889.097 6       407.170 6        36.014 6  35675922.730 5 143652159.509 5       314.768 5        31.564 5  35675922.156 5 150956506.870 5       330.016 5        35.017 5
C16  36409895.070 5 189595878.300 5       251.232 5        34.874 5                                                                                                                                
C20  23062120.367 5 120090504.329 5     -1233.846 5        34.417 5                                                                  23062116.488 7  97583361.759 7     -1001.664 7        43.448 7
C32  26791183.031 7 139508707.320 7     -2115.252 7        42.751 7                                                                  26791186.465 6 113362275.075 6     -1718.910 6        38.676 6
C37  25124109.230 7 130827831.642 7       788.830 7        45.340 7                                                                  25124111.828 7 106308339.073 7       641.285 7        45.314 7
> 2020 08 27 07 55 33.0000000  0  7       0.000000000000
C06  36198643.160 7 188495830.663 7        74.508 7        42.798 7                                                                  36198639.492 5 153168292.979 5        60.805 5        35.901 5
C08  36069410.586 6 187822884.482 6         8.785 6        38.676 6  36069406.543 6 145236546.790 6         6.770 6        36.124 6                                                                
C13  35675842.336 6 185773482.721 6       406.129 6        36.231 6  35675843.875 5 143651845.274 5       313.938 5        30.895 5  35675844.082 5 150956176.684 5       329.242 5        34.874 5
C16  36409847.055 5 189595627.707 5       250.035 5        34.727 5                                                                                                                                
C20  23062357.066 5 120091736.883 5     -1232.777 5        34.727 5                                                                  23062353.254 7  97584363.326 7     -1001.344 7        43.567 7
C32  26791588.973 7 139510822.446 7     -2115.004 7        42.607 7                                                                  26791592.828 6 113363993.787 6     -1718.727 6        38.736 6
C37  25123957.723 7 130827043.035 7       788.688 7        44.903 7                                                                  25123960.285 7 106307698.274 7       640.648 7        45.182 7
> 2020 08 27 07 55 34.0000000  0  7       0.000000000000
C06  36198628.895 7 188495756.039 7        74.627 7        42.936 7                                                                  36198625.152 5 153168232.355 5        60.992 5        35.666 5
C08  36069408.984 6 187822876.688 6         7.322 6        38.968 6  36069404.727 6 145236540.759 6         5.621 6        36.014 6                                                                
C13  35675764.324 5 185773076.378 5       406.326 5        35.901 5  35675765.863 5 143651531.014 5       314.156 5        31.564 5  35675766.012 5 150955846.377 5       331.031 5        35.017 5
C16  36409798.910 5 189595377.177 5       250.506 5        34.874 5                                                                                                                                
C20  23062593.711 5 120092969.496 5     -1233.283 5        34.575 5                                                                  23062589.969 7  97585364.898 7     -1001.371 7        43.547 7
C32  26791995.004 7 139512937.439 7     -2115.119 7        42.680 7                                                                  26791998.973 6 113365712.391 6     -1718.891 6        38.676 6
C37  25123806.090 7 130826254.810 7       787.635 7        44.960 7                                                                  25123808.973 7 106307057.773 7       640.035 7        45.327 7
> 2020 08 27 07 55 35.0000000  0  7       0.000000000000
C06  36198614.547 7 188495681.313 7        74.555 7        43.070 7                                                                  36198610.805 5 153168171.602 5        62.025 5        35.666 5
C08  36069407.301 6 187822868.770 6         7.172 6        38.854 6  36069403.543 5 145236534.598 5         6.881 5        35.901 5                                                                
C13  35675686.371 5 185772669.818 5       407.875 5        35.785 5  35675687.371 5 143651216.746 5       312.818 5        31.564 5  35675687.836 5 150955516.093 5       331.166 5        34.727 5
C16  36409750.328 5 189595126.535 5       249.145 5        34.727 5                                                                                                                                
C20  23062830.203 5 120094201.897 5     -1233.063 5        34.575 5                                                                  23062826.539 7  97586366.334 7     -1001.803 7        43.488 7
C32  26792401.023 7 139515052.142 7     -2114.742 7        42.583 7                                                                  26792404.992 6 113367430.760 6     -1718.697 6        38.736 6
C37  25123654.730 7 130825466.757 7       787.504 7        44.874 7                                                                  25123657.777 7 106306417.420 7       640.363 7        45.506 7
> 2020 08 27 07 55 36.0000000  0  7       0.000000000000
C06  36198600.285 7 188495606.729 7        74.447 7        43.178 7                                                                  36198596.543 5 153168111.065 5        59.578 5        35.666 5
C08  36069405.773 6 187822861.013 6         7.670 6        38.911 6  36069401.910 6 145236528.622 6         5.820 6        36.124 6                                                                
C13  35675608.539 6 185772263.489 6       406.166 6        36.014 6  35675609.434 5 143650902.465 5       313.633 5        31.564 5  35675609.750 5 150955185.869 5       330.613 5        34.874 5
C16  36409702.117 5 189594876.073 5       248.002 5        35.154 5                                                                                                                                
C20  23063066.461 5 120095434.405 5     -1232.721 5        34.417 5                                                                  23063063.176 7  97587367.842 7     -1001.555 7        43.468 7
C32  26792807.164 7 139517166.813 7     -2115.416 7        42.704 7                                                                  26792811.098 6 113369149.079 6     -1718.098 6        38.968 6
C37  25123503.242 7 130824679.181 7       787.279 7        44.742 7                                                                  25123506.555 7 106305777.445 7       639.715 7        45.443 7
> 2020 08 27 07 55 37.0000000  0  7       0.000000000000
C06  36198585.938 7 188495532.182 7        74.689 7        43.070 7                                                                  36198582.086 5 153168050.457 5        59.789 5        35.418 5
C08  36069404.336 6 187822853.291 6         8.225 6        38.795 6  36069400.082 6 145236522.642 6         6.770 6        36.231 6                                                                
C13  35675530.301 6 185771857.115 6       406.721 6        36.124 6  35675531.375 5 143650588.186 5       313.449 5        31.242 5  35675531.781 5 150954855.710 5       330.043 5        35.017 5
C16  36409654.035 5 189594625.555 5       251.174 5        34.874 5                                                                                                                                
C20  23063302.949 5 120096666.874 5     -1231.600 5        33.905 5                                                                  23063299.840 7  97588369.361 7     -1001.404 7        43.527 7
C32  26793213.363 7 139519281.347 7     -2114.393 7        42.680 7                                                                  26793217.113 6 113370867.302 6     -1717.381 6        38.616 6
C37  25123351.918 7 130823891.961 7       787.424 7        44.590 7                                                                  25123355.426 7 106305137.783 7       639.359 7        45.456 7
> 2020 08 27 07 55 38.0000000  0  7       0.000000000000
C06  36198571.551 7 188495458.034 7        74.258 7        43.135 7                                                                  36198567.781 5 153167990.197 5        59.686 5        35.666 5
C08  36069402.867 6 187822846.033 6         7.637 6        38.795 6  36069398.934 6 145236517.076 6         4.971 6        36.231 6                                                                
C13  35675452.063 6 185771451.159 6       406.426 6        36.231 6  35675453.813 5 143650274.302 5       314.482 5        31.564 5  35675453.828 5 150954525.811 5       329.432 5        35.017 5
C16  36409605.844 5 189594375.595 5       249.453 5        35.017 5                                                                                                                                
C20  23063539.297 5 120097899.771 5     -1233.281 5        34.082 5                                                                  23063536.438 7  97589371.157 7     -1001.779 7        43.701 7
C32  26793619.203 7 139521396.103 7     -2114.453 7        42.656 7                                                                  26793623.289 6 113372585.739 6     -1718.398 6        38.968 6
C37  25123200.738 7 130823105.473 7       786.309 7        44.417 7                                                                  25123204.465 7 106304498.676 7       639.119 7        45.544 7
> 2020 08 27 07 55 39.0000000  0  7       0.000000000000
C06  36198557.406 7 188495383.840 7        74.092 7        42.981 7                                                                  36198553.695 5 153167929.875 5        61.119 5        35.666 5
C08  36069401.602 6 187822838.759 6         6.787 6        38.911 6  36069397.738 6 145236511.433 6         4.387 6        36.231 6                                                                
C13  35675374.242 6 185771045.098 6       406.748 6        36.124 6  35675375.992 5 143649960.372 5       313.059 5        31.564 5  35675375.988 5 150954195.916 5       328.736 5        34.727 5
C16  36409557.680 5 189594125.521 5       249.873 5        34.874 5                                                                                                                                
C20  23063775.637 5 120099132.519 5     -1232.434 5        34.082 5                                                                  23063773.117 7  97590372.874 7     -1001.791 7        43.567 7
C32  26794024.996 7 139523510.639 7     -2114.211 7        42.728 7                                                                  26794029.332 6 113374303.973 6     -1717.982 6        38.616 6
C37  25123049.691 7 130822319.235 7       785.869 7        44.417 7                                                                  25123053.273 7 106303859.804 7       638.639 7        45.494 7
> 2020 08 27 07 55 40.0000000  0  7       0.000000000000
C06  36198543.180 7 188495309.868 7        73.568 7        43.003 7                                                                  36198539.523 5 153167869.791 5        60.443 5        35.901 5
C08  36069400.180 6 187822831.677 6         7.416 6        38.795 6  36069396.352 6 145236505.984 6         4.824 6        36.124 6                                                                
C13  35675296.371 5 185770639.308 5       405.150 5        35.666 5  35675297.695 5 143649646.524 5       313.674 5        31.242 5  35675298.016 5 150953866.127 5       329.584 5        34.727 5
C16  36409509.645 5 189593875.678 5       249.584 5        34.727 5                                                                                                                                
C20  23064012.535 5 120100365.438 5     -1232.584 5        34.253 5                                                                  23064009.945 7  97591374.721 7     -1001.939 7        43.507 7
C32  26794431.207 7 139525625.237 7     -2114.771 7        42.775 7                                                                  26794435.410 6 113376022.258 6     -1718.814 6        38.736 6
C37  25122899.059 7 130821533.529 7       785.619 7        44.286 7                                                                  25122902.422 7 106303221.383 7       637.943 7        45.443 7
> 2020 08 27 07 55 41.0000000  0  7       0.000000000000
C06  36198528.898 7 188495235.848 7        73.686 7        42.936 7                                                                  36198525.270 5 153167809.649 5        59.703 5        35.666 5
C08  36069398.742 6 187822824.653 6         6.361 6        38.795 6  36069394.949 6 145236500.501 6         5.277 6        36.538 6                                                                
C13  35675218.559 5 185770233.393 5       405.893 5        35.901 5  35675219.523 5 143649332.648 5       313.400 5        31.242 5  35675220.152 5 150953536.292 5       329.293 5        34.874 5
C16  36409461.879 5 189593625.905 5       249.350 5        34.874 5                                                                                                                                
C20  23064249.379 5 120101598.297 5     -1232.389 5        34.253 5                                                                  23064246.668 7  97592376.523 7     -1001.898 7        43.586 7
C32  26794836.938 7 139527739.635 7     -2114.615 7        42.798 7                                                                  26794841.359 6 113377740.384 6     -1718.910 6        38.854 6
C37  25122747.980 7 130820748.137 7       785.111 7        44.202 7                                                                  25122751.723 7 106302583.177 7       637.691 7        45.605 7
> 2020 08 27 07 55 42.0000000  0  7       0.000000000000
C06  36198514.746 7 188495162.127 7        73.459 7        42.891 7                                                                  36198511.117 5 153167749.750 5        59.633 5        35.666 5
C08  36069397.609 6 187822817.896 6         7.268 6        38.854 6  36069393.996 6 145236495.311 6         4.500 6        36.231 6                                                                
C13  35675140.516 5 185769827.779 5       405.529 5        35.666 5  35675141.625 5 143649019.000 5       313.738 5        30.895 5  35675142.324 5 150953206.723 5       328.871 5        34.727 5
C16  36409413.777 5 189593376.309 5       249.826 5        34.874 5                                                                                                                                
C20  23064485.496 5 120102831.376 5     -1231.854 5        34.575 5                                                                  23064483.496 7  97593378.510 7     -1002.398 7        43.488 7
C32  26795242.797 7 139529854.127 7     -2114.668 7        42.704 7                                                                  26795247.469 6 113379458.540 6     -1717.379 6        38.795 6
C37  25122597.285 7 130819963.330 7       784.709 7        44.030 7                                                                  25122600.820 7 106301945.473 7       636.938 7        45.605 7
> 2020 08 27 07 55 43.0000000  0  7       0.000000000000
C06  36198500.629 7 188495088.421 7        74.096 7        42.798 7                                                                  36198496.785 5 153167689.837 5        60.412 5        35.666 5
C08  36069396.336 6 187822811.188 6         7.084 6        38.795 6  36069392.867 6 145236490.134 6         4.484 6        36.124 6                                                                
C13  35675062.758 5 185769422.179 5       405.795 5        35.666 5  35675064.047 5 143648705.396 5       314.289 5        30.517 5  35675064.426 5 150952877.182 5       328.498 5        34.874 5
C16  36409365.965 5 189593126.835 5       250.170 5        34.575 5                                                                                                                                
C20  23064722.434 5 120104064.452 5     -1232.096 5        34.727 5                                                                  23064720.301 7  97594380.462 7     -1001.795 7        43.488 7
C32  26795648.762 7 139531968.463 7     -2113.971 7        42.407 7                                                                  26795653.508 6 113381176.633 6     -1717.496 6        38.795 6
C37  25122446.371 7 130819178.886 7       784.057 7        43.887 7                                                                  25122450.105 7 106301308.024 7       637.424 7        45.506 7
> 2020 08 27 07 55 44.0000000  0  7       0.000000000000
C06  36198486.578 7 188495015.045 7        72.061 7        42.798 7                                                                  36198482.664 5 153167630.232 5        59.025 5        35.544 5
C08  36069394.844 6 187822804.837 6         5.498 6        38.676 6  36069391.371 6 145236485.180 6         4.844 6        36.335 6                                                                
C13  35674984.816 5 185769016.880 5       405.029 5        35.901 5  35674985.961 5 143648391.981 5       313.105 5        30.517 5  35674986.613 5 150952547.790 5       328.322 5        34.874 5
C16  36409318.324 5 189592877.626 5       249.131 5        34.253 5                                                                                                                                
C20  23064959.367 5 120105297.814 5     -1234.715 5        34.727 5                                                                  23064957.125 7  97595382.625 7     -1002.479 7        43.488 7
C32  26796054.543 7 139534082.937 7     -2114.930 7        42.433 7                                                                  26796059.531 6 113382894.813 6     -1717.264 6        38.616 6
C37  25122296.098 7 130818395.052 7       783.193 7        44.012 7                                                                  25122299.660 7 106300671.094 7       636.330 7        45.666 7
> 2020 08 27 07 55 45.0000000  0  7       0.000000000000
C06  36198472.727 7 188494941.772 7        73.453 7        42.845 7                                                                  36198468.680 5 153167570.712 5        58.895 5        35.544 5
C08  36069393.512 6 187822798.664 6         5.836 6        38.736 6  36069390.328 6 145236480.410 6         4.533 6        36.231 6                                                                
C13  35674907.148 6 185768611.729 6       404.273 6        36.124 6  35674908.113 5 143648078.608 5       314.633 5        30.895 5  35674908.777 5 150952218.479 5       329.305 5        35.017 5
C16  36409270.344 5 189592628.645 5       248.883 5        34.575 5                                                                                                                                
C20  23065196.141 5 120106531.212 5     -1233.227 5        34.727 5                                                                  23065194.043 7  97596384.892 7     -1002.414 7        43.527 7
C32  26796460.703 7 139536197.398 7     -2114.418 7        42.508 7                                                                  26796465.668 6 113384613.012 6     -1718.586 6        38.795 6
C37  25122145.629 7 130817611.690 7       782.965 7        43.777 7                                                                  25122149.242 7 106300034.563 7       635.926 7        45.642 7
> 2020 08 27 07 55 46.0000000  0  7       0.000000000000
C06  36198458.523 7 188494868.660 7        72.895 7        42.913 7                                                                  36198454.652 5 153167511.285 5        58.654 5        35.785 5
C08  36069392.398 6 187822792.599 6         5.766 6        38.554 6  36069389.215 6 145236475.741 6         4.664 6        36.014 6                                                                
C13  35674829.340 5 185768206.639 5       405.082 5        35.785 5  35674830.520 5 143647765.480 5       312.145 5        30.895 5  35674830.934 5 150951889.387 5       328.574 5        34.575 5
C16  36409222.551 5 189592379.739 5       249.301 5        34.082 5                                                                                                                                
C20  23065432.992 5 120107764.693 5     -1233.512 5        34.874 5                                                                  23065430.773 7  97597387.214 7     -1002.244 7        43.488 7
C32  26796866.797 7 139538311.811 7     -2114.410 7        42.278 7                                                                  26796871.695 6 113386331.148 6     -1718.572 6        38.676 6
C37  25121995.309 7 130816828.762 7       782.953 7        43.488 7                                                                  25121998.930 7 106299398.366 7       636.113 7        45.654 7
> 2020 08 27 07 55 47.0000000  0  7       0.000000000000
C06  36198444.430 7 188494795.551 7        73.334 7        42.704 7                                                                  36198440.738 5 153167451.915 5        57.801 5        35.901 5
C08  36069391.398 6 187822786.610 6         6.186 6        38.554 6  36069387.855 6 145236471.086 6         5.176 6        36.014 6                                                                
C13  35674751.320 6 185767801.568 6       404.721 6        36.014 6  35674752.605 5 143647452.212 5       314.023 5        31.242 5  35674753.086 5 150951560.205 5       330.066 5        34.727 5
C16  36409174.938 5 189592130.914 5       249.252 5        34.253 5                                                                                                                                
C20  23065669.918 5 120108998.185 5     -1233.639 5        35.154 5                                                                  23065667.539 7  97598389.509 7     -1002.316 7        43.507 7
C32  26797273.141 7 139540426.078 7     -2114.869 7        42.251 7                                                                  26797277.605 6 113388049.118 6     -1717.043 6        38.795 6
C37  25121845.102 7 130816046.187 7       782.436 7        43.304 7                                                                  25121848.785 7 106298762.457 7       635.965 7        45.666 7
> 2020 08 27 07 55 48.0000000  0  7       0.000000000000
C06  36198430.328 7 188494722.769 7        73.420 7        42.891 7                                                                  36198426.793 5 153167392.780 5        58.908 5        35.666 5
C08  36069390.426 6 187822781.015 6         4.787 6        38.676 6  36069386.602 6 145236466.748 6         4.822 6        36.124 6                                                                
C13  35674673.113 5 185767396.811 5       404.787 5        35.785 5  35674674.758 5 143647139.207 5       313.045 5        31.242 5  35674675.488 5 150951231.343 5       328.830 5        34.727 5
C16  36409127.102 5 189591882.417 5       249.006 5        34.727 5                                                                                                                                
C20  23065906.621 5 120110231.928 5     -1232.166 5        35.017 5                                                                  23065904.617 7  97599392.032 7     -1002.010 7        43.644 7
C32  26797679.195 7 139542540.492 7     -2114.549 7        42.407 7                                                                  26797683.723 6 113389767.288 6     -1718.240 6        38.736 6
C37  25121694.957 7 130815264.242 7       782.736 7        43.427 7                                                                  25121698.684 7 106298127.082 7       635.686 7        45.738 7
> 2020 08 27 07 55 49.0000000  0  7       0.000000000000
C06  36198416.199 7 188494650.086 7        72.563 7        42.891 7                                                                  36198412.824 5 153167333.633 5        60.262 5        35.666 5
C08  36069389.465 6 187822775.468 6         5.199 6        38.676 6  36069385.566 6 145236462.468 6         4.910 6        36.014 6                                                                
C13  35674595.453 6 185766992.103 6       405.121 6        36.014 6  35674596.957 5 143646826.269 5       313.699 5        31.242 5  35674597.770 5 150950902.481 5       329.500 5        35.017 5
C16  36409079.063 5 189591633.996 5       248.480 5        34.417 5                                                                                                                                
C20  23066143.512 5 120111465.778 5     -1234.430 5        35.017 5                                                                  23066141.535 7  97600394.579 7     -1002.512 7        43.625 7
C32  26798084.828 7 139544654.799 7     -2113.922 7        42.198 7                                                                  26798089.750 6 113391485.340 6     -1718.645 6        38.795 6
C37  25121544.641 7 130814482.729 7       781.000 7        43.199 7                                                                  25121548.488 7 106297492.036 7       634.734 7        45.761 7
> 2020 08 27 07 55 50.0000000  0  7       0.000000000000
C06  36198402.453 7 188494577.517 7        71.492 7        43.026 7                                                                  36198399.039 5 153167274.701 5        58.480 5        35.785 5
C08  36069388.199 6 187822770.073 6         4.891 6        38.736 6  36069383.906 5 145236458.320 5         4.242 5        35.901 5                                                                
C13  35674517.957 6 185766587.530 6       405.086 6        36.335 6  35674519.352 5 143646513.430 5       311.820 5        30.895 5  35674520.109 5 150950573.726 5       328.910 5        34.575 5
C16  36409031.438 5 189591385.746 5       246.785 5        34.575 5                                                                                                                                
C20  23066380.602 5 120112699.628 5     -1235.168 5        35.154 5                                                                  23066378.535 7  97601397.179 7     -1003.121 7        43.547 7
C32  26798491.234 7 139546769.063 7     -2114.445 7        42.225 7                                                                  26798495.676 6 113393203.357 6     -1718.414 6        38.911 6
C37  25121394.523 7 130813701.636 7       780.027 7        43.113 7                                                                  25121398.352 7 106296857.319 7       634.125 7        45.654 7
> 2020 08 27 07 55 51.0000000  0  7       0.000000000000
C06  36198388.383 7 188494505.038 7        72.641 7        42.891 7                                                                  36198385.293 5 153167215.817 5        58.787 5        35.785 5
C08  36069387.117 6 187822764.813 6         5.766 6        38.616 6  36069383.324 6 145236454.271 6         3.686 6        36.124 6                                                                
C13  35674440.320 6 185766183.063 6       404.477 6        36.124 6  35674441.430 5 143646200.668 5       312.514 5        31.242 5  35674442.379 5 150950245.067 5       328.592 5        35.017 5
C16  36408983.883 5 189591137.590 5       248.773 5        34.417 5                                                                                                                                
C20  23066617.301 5 120113933.490 5     -1232.633 5        35.017 5                                                                  23066615.406 7  97602399.845 7     -1002.482 7        43.625 7
C32  26798896.961 7 139548883.257 7     -2113.824 7        42.251 7                                                                  26798901.652 6 113394921.341 6     -1718.068 6        38.676 6
C37  25121244.410 7 130812920.960 7       781.215 7        43.157 7                                                                  25121248.598 7 106296222.981 7       634.256 7        45.678 7
> 2020 08 27 07 55 52.0000000  0  7       0.000000000000
C06  36198374.285 7 188494432.690 7        72.697 7        42.845 7                                                                  36198371.410 5 153167157.028 5        58.531 5        35.666 5
C08  36069386.504 6 187822759.720 6         5.725 6        38.554 6  36069382.391 6 145236450.320 6         3.756 6        36.014 6                                                                
C13  35674362.867 6 185765778.688 6       403.635 6        36.335 6  35674363.902 5 143645887.965 5       313.287 5        31.564 5  35674364.770 5 150949916.468 5       329.840 5        34.874 5
C16  36408935.980 5 189590889.563 5       248.654 5        34.253 5                                                                                                                                
C20  23066854.438 5 120115167.546 5     -1234.314 5        35.154 5                                                                  23066852.414 7  97603402.576 7     -1002.797 7        43.427 7
C32  26799303.016 7 139550997.404 7     -2113.377 7        42.433 7                                                                  26799307.680 6 113396639.248 6     -1717.541 6        38.676 6
C37  25121094.520 7 130812140.747 7       780.490 7        43.113 7                                                                  25121098.652 7 106295588.988 7       633.902 7        45.738 7
> 2020 08 27 07 55 53.0000000  0  7       0.000000000000
C06  36198360.480 7 188494360.317 7        72.721 7        42.680 7                                                                  36198357.426 5 153167098.227 5        58.100 5        35.544 5
C08  36069385.258 6 187822754.622 6         5.260 6        38.554 6  36069381.609 5 145236446.359 5         4.322 5        35.666 5                                                                
C13  35674285.137 5 185765374.229 5       404.439 5        35.901 5  35674286.066 5 143645575.267 5       312.018 5        31.564 5  35674287.195 5 150949587.831 5       329.037 5        34.575 5
C16  36408888.336 5 189590641.587 5       246.803 5        34.082 5                                                                                                                                
C20  23067091.402 5 120116401.408 5     -1233.021 5        35.418 5                                                                  23067089.398 7  97604405.229 7     -1002.508 7        43.387 7
C32  26799709.184 7 139553111.400 7     -2114.350 7        42.304 7                                                                  26799713.691 6 113398357.036 6     -1718.211 6        38.298 6
C37  25120944.563 7 130811360.832 7       779.713 7        42.981 7                                                                  25120948.789 7 106294955.242 7       633.588 7        45.654 7
> 2020 08 27 07 55 54.0000000  0  7       0.000000000000
C06  36198346.840 7 188494288.197 7        72.051 7        42.728 7                                                                  36198343.508 5 153167039.596 5        59.385 5        35.785 5
C08  36069384.066 6 187822749.791 6         3.984 6        38.364 6  36069380.559 5 145236442.631 5         3.051 5        35.785 5                                                                
C13  35674207.285 5 185764970.045 5       402.891 5        35.785 5  35674208.285 5 143645262.690 5       312.211 5        31.564 5  35674209.523 5 150949259.396 5       327.627 5        34.253 5
C16  36408840.781 5 189590393.787 5       248.418 5        34.253 5                                                                                                                                
C20  23067328.672 5 120117635.555 5     -1234.590 5        35.901 5                                                                  23067326.328 7  97605408.038 7     -1002.881 7        43.304 7
C32  26800115.199 7 139555225.416 7     -2114.063 7        42.330 7                                                                  26800119.750 6 113400074.842 6     -1717.705 6        38.736 6
C37  25120794.770 7 130810581.466 7       778.496 7        43.092 7                                                                  25120799.070 7 106294321.942 7       632.822 7        45.531 7
> 2020 08 27 07 55 55.0000000  0  7       0.000000000000
C06  36198332.883 7 188494216.287 7        71.939 7        42.704 7                                                                  36198329.656 5 153166981.172 5        58.395 5        35.544 5
C08  36069383.344 6 187822745.173 6         5.084 6        38.364 6  36069379.086 5 145236439.067 5         3.350 5        35.544 5                                                                
C13  35674129.578 5 185764566.008 5       403.873 5        35.544 5  35674130.973 5 143644950.258 5       312.195 5        31.242 5  35674131.859 5 150948931.124 5       326.813 5        34.253 5
C16  36408793.445 5 189590146.230 5       248.658 5        34.082 5                                                                                                                                
C20  23067565.805 5 120118869.828 5     -1234.408 5        35.544 5                                                                  23067563.195 7  97606410.987 7     -1002.855 7        43.448 7
C32  26800521.035 7 139557339.482 7     -2114.367 7        42.278 7                                                                  26800525.773 6 113401792.735 6     -1718.832 6        38.616 6
C37  25120644.801 7 130809802.645 7       778.326 7        42.751 7                                                                  25120649.461 7 106293689.068 7       633.102 7        45.581 7
> 2020 08 27 07 55 56.0000000  0  7       0.000000000000
C06  36198319.246 7 188494144.451 7        71.328 7        42.728 7                                                                  36198315.855 5 153166922.795 5        58.404 5        35.901 5
C08  36069382.230 6 187822740.702 6         4.277 6        38.232 6  36069378.617 5 145236435.626 5         1.859 5        35.901 5                                                                
C13  35674051.910 6 185764162.024 6       404.629 6        36.335 6  35674053.375 5 143644637.936 5       311.469 5        30.517 5  35674054.320 5 150948602.859 5       328.424 5        34.575 5
C16  36408745.648 5 189589898.829 5       247.734 5        33.905 5                                                                                                                                
C20  23067802.867 5 120120104.164 5     -1235.000 5        35.418 5                                                                  23067800.121 7  97607413.964 7     -1002.904 7        43.407 7
C32  26800926.875 7 139559453.444 7     -2113.926 7        42.117 7                                                                  26800931.652 6 113403510.479 6     -1717.826 6        38.096 6
C37  25120495.480 7 130809024.185 7       778.457 7        42.533 7                                                                  25120499.961 7 106293056.541 7       632.447 7        45.581 7
> 2020 08 27 07 55 57.0000000  0  7       0.000000000000
C06  36198305.426 7 188494072.733 7        71.826 7        42.583 7                                                                  36198302.020 5 153166864.505 5        58.918 5        35.785 5
C08  36069381.535 6 187822736.340 6         4.639 6        38.232 6  36069377.922 5 145236432.245 5         4.039 5        35.666 5                                                                
C13  35673974.484 6 185763758.240 6       404.170 6        36.538 6  35673975.949 5 143644325.596 5       312.828 5        31.242 5  35673976.680 5 150948274.691 5       328.449 5        34.082 5
C16  36408698.344 5 189589651.573 5       246.143 5        33.720 5                                                                                                                                
C20  23068040.246 6 120121338.542 6     -1234.619 6        36.635 6                                                                  23068037.168 7  97608417.009 7     -1003.211 7        43.448 7
C32  26801332.887 7 139561567.415 7     -2114.715 7        42.251 7                                                                  26801337.672 6 113405228.211 6     -1717.703 6        38.428 6
C37  25120346.293 7 130808246.212 7       777.998 7        42.728 7                                                                  25120350.652 7 106292424.370 7       631.613 7        45.808 7
> 2020 08 27 07 55 58.0000000  0  8       0.000000000000
C06  36198291.578 7 188494001.007 7        72.076 7        42.583 7                                                                  36198288.266 5 153166806.218 5        59.533 5        35.154 5
C08  36069380.637 6 187822732.065 6         3.854 6        38.096 6  36069376.668 6 145236428.909 6         3.334 6        36.014 6                                                                
C13  35673896.852 6 185763354.493 6       403.014 6        36.335 6                                                                  35673899.141 5 150947946.647 5       327.697 5        34.082 5
C16  36408650.617 5 189589404.264 5       246.979 5        33.527 5                                                                                                                                
C19  22514872.555 5 117240852.660 5       666.002 5        33.325 5                                                                                                                                
C20  23068277.379 6 120122572.884 6     -1233.430 6        36.014 6                                                                  23068274.125 7  97609420.016 7     -1003.045 7        43.387 7
C32  26801738.762 7 139563681.163 7     -2114.230 7        42.483 7                                                                  26801743.648 6 113406945.825 6     -1717.283 6        38.795 6
C37  25120197.117 7 130807468.559 7       777.623 7        42.433 7                                                                  25120201.367 7 106291792.453 7       631.877 7        45.581 7
> 2020 08 27 07 55 59.0000000  0  8       0.000000000000
C06  36198277.695 7 188493930.006 7        70.594 7        42.981 7                                                                  36198274.582 6 153166748.518 6        58.291 6        36.124 6
C08  36069379.992 6 187822728.462 6         3.465 6        38.554 6  36069376.305 5 145236426.114 5         2.482 5        35.544 5                                                                
C13  35673819.293 6 185762951.305 6       402.742 6        37.346 6                                                                  35673821.703 5 150947619.039 5       326.865 5        35.154 5
C16  36408603.324 5 189589157.704 5       244.813 5        33.720 5                                                                                                                                
C19  22514744.555 5 117240186.942 5       665.869 5        32.407 5                                                                                                                                
C20  23068514.406 6 120123807.848 6     -1234.191 6        36.124 6                                                                  23068511.230 7  97610423.543 7     -1003.703 7        43.346 7
C32  26802144.711 7 139565795.432 7     -2113.977 7        42.433 7                                                                  26802149.773 6 113408663.880 6     -1719.016 6        38.736 6
C37  25120047.941 7 130806691.907 7       776.338 7        42.304 7                                                                  25120052.242 7 106291161.382 7       630.654 7        45.702 7
> 2020 08 27 07 56  0.0000000  0  8       0.000000000000
C06  36198263.953 7 188493858.717 7        71.295 7        42.798 7                                                                  36198260.941 5 153166690.653 5        56.412 5        35.017 5
C08  36069379.449 6 187822724.624 6         3.365 6        38.027 6  36069375.266 6 145236423.163 6         2.713 6        36.335 6                                                                
C13  35673742.125 6 185762547.856 6       402.311 6        36.335 6                                                                  35673744.215 5 150947291.218 5       325.514 5        34.874 5
C16  36408556.027 5 189588910.821 5       246.373 5        34.082 5                                                                                                                                
C19  22514616.199 5 117239520.942 5       666.783 5        32.407 5                                                                                                                                
C20  23068751.938 6 120125042.536 6     -1234.115 6        36.538 6                                                                  23068748.414 7  97611426.814 7     -1003.334 7        43.366 7
C32  26802550.551 7 139567909.277 7     -2114.152 7        42.251 7                                                                  26802555.688 6 113410381.541 6     -1717.904 6        38.616 6
C37  25119898.941 7 130805915.297 7       776.217 7        42.558 7                                                                  25119903.199 7 106290530.330 7       630.475 7        46.025 7
> 2020 08 27 07 56  1.0000000  0  8       0.000000000000
C06  36198250.227 7 188493787.574 7        70.504 7        42.704 7                                                                  36198247.277 5 153166632.872 5        55.572 5        35.154 5
C08  36069378.387 6 187822720.931 6         3.707 6        37.812 6  36069374.129 6 145236420.301 6         2.566 6        36.438 6                                                                
C13  35673665.008 5 185762144.495 5       403.043 5        35.544 5                                                                  35673666.738 5 150946963.407 5       327.916 5        34.575 5
C16  36408508.387 5 189588664.120 5       247.398 5        33.720 5                                                                                                                                
C19  22514488.105 5 117238855.204 5       665.465 5        32.407 5                                                                                                                                
C20  23068989.012 6 120126277.292 6     -1234.848 6        36.824 6                                                                  23068985.520 7  97612430.143 7     -1003.295 7        43.605 7
C32  26802956.867 7 139570023.062 7     -2113.988 7        42.198 7                                                                  26802961.734 6 113412099.148 6     -1717.592 6        38.736 6
C37  25119749.957 7 130805139.159 7       775.387 7        42.483 7                                                                  25119754.191 7 106289899.644 7       630.396 7        46.220 7
> 2020 08 27 07 56  2.0000000  0  8       0.000000000000
C06  36198236.355 7 188493716.351 7        71.027 7        42.632 7                                                                  36198233.660 5 153166574.984 5        57.115 5        35.017 5
C08  36069377.789 6 187822717.213 6         4.172 6        37.812 6  36069373.566 6 145236417.407 6         4.023 6        36.231 6                                                                
C13  35673587.605 5 185761741.106 5       403.332 5        35.666 5                                                                  35673589.254 5 150946635.647 5       326.900 5        34.727 5
C16  36408461.176 5 189588417.459 5       245.988 5        33.720 5                                                                                                                                
C19  22514359.941 5 117238189.319 5       666.066 5        32.407 5                                                                                                                                
C20  23069226.164 6 120127511.933 6     -1234.500 6        37.005 6                                                                  23069222.766 7  97613433.414 7     -1004.018 7        43.488 7
C32  26803362.867 7 139572136.628 7     -2113.680 7        42.198 7                                                                  26803367.617 6 113413816.623 6     -1718.432 6        38.795 6
C37  25119600.863 7 130804363.270 7       775.070 7        42.330 7                                                                  25119605.113 7 106289269.179 7       629.830 7        46.178 7
> 2020 08 27 07 56  3.0000000  0  8       0.000000000000
C06  36198222.715 7 188493645.255 7        71.164 7        42.656 7                                                                  36198219.980 5 153166517.175 5        57.408 5        35.017 5
C08  36069377.023 6 187822713.713 6         2.805 6        37.885 6  36069373.090 6 145236414.742 6         2.523 6        36.014 6                                                                
C13  35673510.074 5 185761337.807 5       403.449 5        35.544 5                                                                  35673511.727 5 150946307.927 5       327.662 5        34.727 5
C16  36408413.656 5 189588170.824 5       247.043 5        33.905 5                                                                                                                                
C19  22514231.539 5 117237523.675 5       666.711 5        32.407 5                                                                                                                                
C20  23069463.504 6 120128746.655 6     -1234.148 6        37.346 6                                                                  23069459.832 7  97614436.717 7     -1003.432 7        43.263 7
C32  26803768.805 7 139574250.131 7     -2113.387 7        42.144 7                                                                  26803773.426 6 113415534.017 6     -1717.631 6        38.554 6
C37  25119451.715 7 130803587.809 7       775.695 7        42.278 7                                                                  25119456.027 7 106288639.063 7       630.201 7        46.047 7
> 2020 08 27 07 56  4.0000000  0  8       0.000000000000
C06  36198208.770 7 188493574.520 7        70.369 7        42.798 7                                                                  36198206.336 5 153166459.711 5        56.430 5        34.874 5
C08  36069376.566 6 187822710.511 6         2.498 6        38.027 6  36069372.488 6 145236412.241 6         1.727 6        36.124 6                                                                
C13  35673432.453 5 185760934.831 5       403.143 5        35.785 5                                                                  35673434.313 5 150945980.479 5       326.215 5        34.417 5
C16  36408366.266 5 189587924.623 5       245.271 5        34.082 5                                                                                                                                
C19  22514103.086 5 117236858.378 5       664.568 5        31.564 5                                                                                                                                
C20  23069700.758 6 120129981.712 6     -1235.646 6        37.662 6                                                                  23069696.914 7  97615440.265 7     -1003.414 7        43.366 7
C32  26804174.406 7 139576363.836 7     -2114.260 7        42.225 7                                                                  26804179.402 6 113417251.588 6     -1718.572 6        38.554 6
C37  25119302.727 7 130802813.062 7       774.295 7        42.356 7                                                                  25119307.313 7 106288009.512 7       629.242 7        46.080 7
> 2020 08 27 07 56  5.0000000  0  8       0.000000000000
C06  36198195.031 7 188493503.846 7        70.479 7        42.751 7                                                                  36198192.813 5 153166402.276 5        57.957 5        35.154 5
C08  36069375.488 6 187822707.432 6         2.686 6        37.956 6  36069371.914 6 145236409.868 6         1.707 6        36.335 6                                                                
C13  35673354.930 5 185760531.927 5       403.037 5        35.666 5                                                                  35673356.855 5 150945653.085 5       325.594 5        34.575 5
C16  36408318.828 5 189587678.448 5       246.084 5        33.905 5                                                                                                                                
C19  22513975.016 5 117236193.178 5       664.307 5        31.864 5                                                                                                                                
C20  23069937.965 6 120131216.733 6     -1235.322 6        37.812 6                                                                  23069934.023 7  97616443.843 7     -1003.410 7        43.567 7
C32  26804580.391 7 139578477.439 7     -2113.896 7        42.144 7                                                                  26804585.484 6 113418969.035 6     -1717.648 6        38.736 6
C37  25119153.945 7 130802038.681 7       773.564 7        42.304 7                                                                  25119158.645 7 106287380.267 7       629.051 7        46.014 7
> 2020 08 27 07 56  6.0000000  0  8       0.000000000000
C06  36198181.715 7 188493433.243 7        70.580 7        42.607 7                                                                  36198179.242 5 153166344.874 5        57.203 5        35.017 5
C08  36069374.910 6 187822704.451 6         2.318 6        37.585 6  36069371.547 6 145236407.556 6         1.721 6        36.335 6                                                                
C13  35673277.871 5 185760129.098 5       401.479 5        35.544 5                                                                  35673279.438 5 150945325.695 5       327.516 5        34.727 5
C16  36408271.531 5 189587432.436 5       244.447 5        33.720 5                                                                                                                                
C19  22513846.836 5 117235528.059 5       666.244 5        31.564 5                                                                                                                                
C20  23070175.242 6 120132451.807 6     -1235.064 6        38.298 6                                                                  23070171.348 7  97617447.442 7     -1004.125 7        43.507 7
C32  26804985.980 7 139580590.920 7     -2113.619 7        42.171 7                                                                  26804991.289 6 113420686.424 6     -1717.465 6        39.079 6
C37  25119005.410 7 130801264.687 7       773.803 7        42.278 7                                                                  25119010.051 7 106286751.350 7       628.277 7        46.025 7
> 2020 08 27 07 56  7.0000000  0  8       0.000000000000
C06  36198168.309 7 188493362.755 7        70.895 7        42.751 7                                                                  36198165.621 5 153166287.630 5        57.164 5        35.017 5
C08  36069374.527 6 187822701.569 6         3.316 6        37.737 6  36069371.129 6 145236405.305 6         2.852 6        36.335 6                                                                
C13  35673200.324 5 185759726.302 5       403.473 5        35.785 5                                                                  35673202.184 5 150944998.406 5       328.863 5        34.253 5
C16  36408224.211 5 189587186.459 5       246.852 5        34.082 5                                                                                                                                
C19  22513718.953 5 117234863.105 5       665.777 5        31.864 5                                                                                                                                
C20  23070412.387 6 120133686.888 6     -1233.559 6        38.096 6                                                                  23070408.313 7  97618451.070 7     -1003.207 7        43.407 7
C32  26805392.012 7 139582704.343 7     -2112.504 7        42.304 7                                                                  26805397.336 6 113422403.771 6     -1717.055 6        38.676 6
C37  25118856.746 7 130800491.122 7       774.156 7        42.433 7                                                                  25118861.641 7 106286122.757 7       628.961 7        45.980 7
> 2020 08 27 07 56  8.0000000  0  8       0.000000000000
C06  36198154.980 7 188493292.474 7        69.607 7        42.632 7                                                                  36198152.105 5 153166230.490 5        56.348 5        35.288 5
C08  36069373.895 6 187822698.926 6         2.225 6        37.507 6  36069370.461 6 145236403.266 6         2.094 6        36.231 6                                                                
C13  35673123.066 5 185759323.741 5       401.385 5        35.901 5                                                                  35673124.992 5 150944671.313 5       325.586 5        34.727 5
C16  36408176.609 5 189586940.768 5       244.666 5        33.527 5                                                                                                                                
C19  22513591.043 5 117234198.369 5       664.666 5        31.242 5                                                                                                                                
C20  23070649.648 6 120134922.206 6     -1235.568 6        38.428 6                                                                  23070645.586 7  97619454.847 7     -1004.688 7        43.488 7
C32  26805797.797 7 139584817.813 7     -2114.355 7        42.356 7                                                                  26805803.258 6 113424121.085 6     -1716.992 6        38.968 6
C37  25118708.551 7 130799718.091 7       772.537 7        42.382 7                                                                  25118713.180 7 106285494.609 7       627.480 7        46.025 7
> 2020 08 27 07 56  9.0000000  0  8       0.000000000000
C06  36198141.402 7 188493222.203 7        70.168 7        42.751 7                                                                  36198138.566 5 153166173.402 5        57.238 5        35.017 5
C08  36069373.340 6 187822696.338 6         2.668 6        37.427 6  36069370.117 6 145236401.276 6         2.063 6        36.438 6                                                                
C13  35673045.668 6 185758921.131 6       402.375 6        36.014 6                                                                  35673047.688 5 150944344.148 5       326.887 5        34.874 5
C16  36408129.191 5 189586695.081 5       244.875 5        34.082 5                                                                                                                                
C19  22513463.027 5 117233533.709 5       664.348 5        31.564 5                                                                                                                                
C20  23070887.016 6 120136157.457 6     -1235.047 6        38.554 6                                                                  23070882.859 7  97620458.584 7     -1003.758 7        43.448 7
C32  26806203.691 7 139586931.092 7     -2112.527 7        42.225 7                                                                  26806209.066 6 113425838.346 6     -1717.332 6        38.911 6
C37  25118560.109 7 130798945.387 7       772.648 7        42.356 7                                                                  25118564.766 7 106284866.721 7       627.844 7        46.091 7
> 2020 08 27 07 56 10.0000000  0  8       0.000000000000
C06  36198127.898 7 188493151.928 7        70.582 7        42.704 7                                                                  36198124.945 5 153166116.301 5        57.115 5        35.154 5
C08  36069372.500 6 187822693.814 6         2.457 6        37.507 6  36069369.461 6 145236399.290 6         1.898 6        36.438 6                                                                
C13  35672968.238 5 185758518.562 5       402.086 5        35.666 5  35672963.305 5 143640240.978 5       310.941 5        30.517 5  35672970.406 5 150944017.044 5       327.135 5        34.727 5
C16  36408082.348 5 189586449.394 5       245.738 5        33.905 5                                                                                                                                
C19  22513335.195 5 117232869.032 5       664.039 5        31.242 5                                                                                                                                
C20  23071124.246 6 120137392.659 6     -1234.770 6        38.364 6                                                                  23071119.969 7  97621462.280 7     -1003.041 7        43.448 7
C32  26806609.414 7 139589044.256 7     -2112.816 7        42.171 7                                                                  26806614.910 6 113427555.437 6     -1716.186 6        38.736 6
C37  25118411.527 7 130798173.039 7       771.793 7        42.278 7                                                                  25118416.344 7 106284239.132 7       627.311 7        46.036 7
> 2020 08 27 07 56 11.0000000  0  8       0.000000000000
C06  36198114.516 7 188493081.944 7        70.086 7        42.704 7                                                                  36198111.668 5 153166059.446 5        56.295 5        35.017 5
C08  36069372.102 6 187822691.548 6         2.176 6        37.427 6  36069369.133 6 145236397.595 6         2.094 6        36.635 6                                                                
C13  35672890.965 5 185758116.238 5       402.488 5        35.901 5  35672887.855 5 143639929.846 5       311.645 5        30.895 5  35672893.133 5 150943690.082 5       327.955 5        34.874 5
C16  36408035.230 5 189586204.019 5       247.039 5        33.720 5                                                                                                                                
C19  22513207.301 5 117232204.680 5       664.051 5        30.895 5                                                                                                                                
C20  23071361.668 6 120138628.110 6     -1235.441 6        38.428 6                                                                  23071357.313 7  97622466.190 7     -1003.705 7        43.488 7
C32  26807015.289 7 139591157.497 7     -2113.254 7        42.278 7                                                                  26807020.734 6 113429272.628 6     -1716.518 6        39.024 6
C37  25118263.207 7 130797401.255 7       771.570 7        42.330 7                                                                  25118268.445 7 106283612.010 7       626.686 7        46.091 7
> 2020 08 27 07 56 12.0000000  0  8       0.000000000000
C06  36198101.000 7 188493011.901 7        69.850 7        42.508 7                                                                  36198098.176 5 153166002.509 5        56.885 5        34.727 5
C08  36069371.789 6 187822689.293 6         1.666 6        37.427 6  36069368.746 6 145236395.804 6         2.100 6        36.124 6                                                                
C13  35672813.813 5 185757713.843 5       402.213 5        35.666 5  35672811.809 5 143639618.706 5       310.225 5        31.242 5  35672815.980 5 150943363.141 5       326.729 5        34.575 5
C16  36407987.984 5 189585958.607 5       246.295 5        33.905 5                                                                                                                                
C19  22513079.313 5 117231540.252 5       663.854 5        31.242 5                                                                                                                                
C20  23071599.137 6 120139863.437 6     -1235.150 6        38.298 6                                                                  23071594.582 7  97623470.021 7     -1004.738 7        43.366 7
C32  26807421.035 7 139593270.518 7     -2113.334 7        42.062 7                                                                  26807426.539 6 113430989.647 6     -1717.434 6        38.968 6
C37  25118114.973 7 130796629.772 7       770.455 7        42.483 7                                                                  25118120.230 7 106282985.084 7       626.611 7        45.855 7
> 2020 08 27 07 56 13.0000000  0  8       0.000000000000
C06  36198087.895 7 188492942.044 7        70.365 7        42.483 7                                                                  36198084.695 5 153165945.754 5        56.371 5        35.288 5
C08  36069371.738 6 187822687.294 6         1.205 6        37.427 6  36069368.410 6 145236394.270 6         1.313 6        36.335 6                                                                
C13  35672736.563 5 185757311.640 5       402.455 5        35.544 5  35672735.527 5 143639307.683 5       312.074 5        30.517 5  35672738.789 5 150943036.313 5       327.738 5        34.417 5
C16  36407940.961 5 189585713.481 5       244.037 5        33.720 5                                                                                                                                
C19  22512950.945 5 117230876.150 5       662.924 5        31.242 5                                                                                                                                
C20  23071836.691 6 120141098.960 6     -1235.455 6        38.616 6                                                                  23071831.914 7  97624473.938 7     -1003.533 7        43.346 7
C32  26807826.723 6 139595383.580 6     -2113.229 6        41.864 6                                                                  26807832.367 6 113432706.655 6     -1716.561 6        38.911 6
C37  25117966.895 7 130795858.796 7       770.873 7        42.382 7                                                                  25117972.059 7 106282358.614 7       626.801 7        45.866 7
> 2020 08 27 07 56 14.0000000  0  8       0.000000000000
C06  36198074.574 7 188492872.326 7        69.113 7        42.821 7                                                                  36198071.160 5 153165889.070 5        56.322 5        34.874 5
C08  36069371.188 6 187822685.362 6         1.203 6        37.179 6  36069367.789 6 145236392.782 6         0.662 6        36.335 6                                                                
C13  35672659.461 5 185756909.529 5       402.043 5        35.901 5  35672658.922 5 143638996.813 5       310.096 5        30.103 5  35672661.512 5 150942709.606 5       325.600 5        34.417 5
C16  36407893.766 5 189585468.360 5       245.969 5        33.325 5                                                                                                                                
C19  22512823.008 5 117230212.082 5       664.152 5        31.564 5                                                                                                                                
C20  23072073.852 6 120142334.483 6     -1235.301 6        39.134 6                                                                  23072069.125 7  97625477.920 7     -1003.539 7        43.263 7
C32  26808232.410 6 139597496.569 6     -2113.484 6        41.864 6                                                                  26808238.063 6 113434423.631 6     -1716.879 6        38.911 6
C37  25117818.996 7 130795088.258 7       770.188 7        42.458 7                                                                  25117824.125 7 106281732.488 7       625.854 7        45.690 7
> 2020 08 27 07 56 15.0000000  0  8       0.000000000000
C06  36198060.898 7 188492802.800 7        69.416 7        43.325 7                                                                  36198057.934 5 153165832.575 5        57.000 5        35.544 5
C08  36069371.070 6 187822683.648 6         1.818 6        38.096 6  36069367.313 5 145236391.438 5         1.730 5        35.418 5                                                                
C13  35672582.355 5 185756507.594 5       401.604 5        35.544 5                                                                  35672584.391 5 150942382.929 5       326.453 5        33.527 5
C16  36407846.676 5 189585223.511 5       244.963 5        33.325 5                                                                                                                                
C19  22512695.254 5 117229548.280 5       663.537 5        31.564 5                                                                                                                                
C20  23072311.305 6 120143570.209 6     -1235.916 6        39.597 6                                                                  23072306.422 7  97626482.027 7     -1003.684 7        43.135 7
C32  26808637.992 6 139599609.563 6     -2113.242 6        41.835 6                                                                  26808643.816 6 113436140.604 6     -1716.477 6        38.795 6
C37  25117670.918 7 130794318.183 7       770.705 7        42.006 7                                                                  25117676.191 7 106281106.775 7       625.516 7        45.678 7
> 2020 08 27 07 56 16.0000000  0  8       0.000000000000
C06  36198047.609 7 188492733.255 7        69.283 7        42.533 7                                                                  36198044.543 5 153165776.095 5        56.623 5        35.544 5
C08  36069370.914 6 187822681.946 6         1.881 6        37.812 6  36069366.621 5 145236390.113 5         1.641 5        35.544 5                                                                
C13  35672505.145 5 185756105.627 5       402.096 5        35.288 5                                                                  35672507.164 5 150942056.313 5       326.682 5        34.417 5
C16  36407799.262 5 189584978.646 5       244.049 5        34.082 5                                                                                                                                
C19  22512567.348 5 117228884.508 5       664.127 5        31.242 5                                                                                                                                
C20  23072548.570 6 120144805.843 6     -1236.244 6        39.448 6                                                                  23072543.586 7  97627486.099 7     -1004.139 7        43.199 7
C32  26809043.500 6 139601722.380 6     -2112.787 6        41.776 6                                                                  26809049.660 6 113437857.460 6     -1716.346 6        38.968 6
C37  25117523.305 6 130793548.476 6       770.221 6        41.921 6                                                                  25117528.406 7 106280481.314 7       625.236 7        45.666 7
> 2020 08 27 07 56 17.0000000  0  8       0.000000000000
C06  36198034.082 7 188492663.499 7        69.990 7        42.483 7                                                                  36198031.199 6 153165719.417 6        57.021 6        36.014 6
C08  36069370.191 6 187822680.074 6         2.744 6        37.507 6  36069366.043 5 145236388.744 5         1.777 5        35.544 5                                                                
C13  35672428.121 5 185755703.480 5       402.061 5        35.666 5                                                                  35672429.973 5 150941729.533 5       327.139 5        34.082 5
C16  36407752.215 5 189584733.611 5       244.951 5        33.527 5                                                                                                                                
C19  22512439.203 5 117228220.532 5       664.443 5        31.564 5                                                                                                                                
C20  23072785.883 6 120146041.235 6     -1235.244 6        39.448 6                                                                  23072780.770 7  97628489.955 7     -1003.838 7        43.199 7
C32  26809449.340 6 139603834.839 6     -2111.846 6        41.533 6                                                                  26809455.406 6 113439574.037 6     -1716.826 6        39.024 6
C37  25117375.273 7 130792778.915 7       769.170 7        42.304 7                                                                  25117380.637 7 106279855.970 7       624.893 7        45.353 7
> 2020 08 27 07 56 18.0000000  0  8       0.000000000000
C06  36198020.363 7 188492593.818 7        69.295 7        42.533 7                                                                  36198017.969 5 153165662.790 5        56.434 5        35.666 5
C08  36069369.816 6 187822678.343 6         1.326 6        37.427 6  36069365.879 5 145236387.371 5         0.969 5        35.288 5                                                                
C13  35672350.797 5 185755301.368 5       401.326 5        35.666 5                                                                  35672352.734 5 150941402.815 5       325.965 5        34.253 5
C16  36407705.082 5 189584488.667 5       244.881 5        34.082 5                                                                                                                                
C19  22512311.441 5 117227556.683 5       663.240 5        31.242 5                                                                                                                                
C20  23073023.184 6 120147276.622 6     -1235.314 6        39.693 6                                                                  23073018.059 7  97629493.819 7     -1003.820 7        43.346 7
C32  26809855.309 6 139605947.195 6     -2112.600 6        41.470 6                                                                  26809861.141 6 113441290.498 6     -1716.809 6        39.241 6
C37  25117227.906 7 130792009.694 7       768.611 7        42.062 7                                                                  25117232.891 7 106279230.911 7       624.793 7        45.494 7
> 2020 08 27 07 56 19.0000000  0  8       0.000000000000
C06  36198007.043 7 188492524.244 7        69.811 7        42.558 7                                                                  36198004.770 5 153165606.263 5        56.512 5        35.666 5
C08  36069369.230 6 187822676.754 6         1.959 6        37.507 6  36069365.332 5 145236386.166 5         1.025 5        35.418 5                                                                
C13  35672273.551 5 185754899.318 5       402.838 5        35.785 5                                                                  35672275.453 5 150941076.146 5       326.238 5        34.253 5
C16  36407658.422 5 189584243.851 5       245.182 5        34.253 5                                                                                                                                
C19  22512183.469 5 117226892.999 5       663.248 5        31.864 5                                                                                                                                
C20  23073260.598 6 120148512.128 6     -1235.170 6        39.788 6                                                                  23073255.281 7  97630497.782 7     -1004.213 7        43.366 7
C32  26810261.176 6 139608059.509 6     -2112.475 6        41.533 6                                                                  26810266.730 6 113443006.904 6     -1716.615 6        39.134 6
C37  25117080.543 7 130791240.940 7       768.463 7        42.433 7                                                                  25117085.113 7 106278606.243 7       624.539 7        45.506 7
> 2020 08 27 07 56 20.0000000  0  8       0.000000000000
C06  36197993.902 7 188492454.817 7        69.467 7        42.704 7                                                                  36197991.563 5 153165549.844 5        56.250 5        35.901 5
C08  36069368.648 6 187822675.303 6         1.264 6        37.427 6  36069365.211 5 145236385.017 5         0.234 5        35.666 5                                                                
C13  35672196.770 5 185754497.452 5       400.561 5        35.418 5                                                                  35672198.258 5 150940749.560 5       326.152 5        34.417 5
C16  36407611.301 5 189583999.182 5       244.623 5        33.905 5                                                                                                                                
C19  22512055.926 5 117226229.387 5       663.900 5        31.242 5                                                                                                                                
C20  23073498.262 6 120149747.695 6     -1235.533 6        39.971 6                                                                  23073492.578 7  97631501.758 7     -1003.533 7        43.199 7
C32  26810666.582 6 139610171.757 6     -2111.920 6        41.406 6                                                                  26810672.363 6 113444723.279 6     -1716.268 6        38.795 6
C37  25116933.004 7 130790472.616 7       768.295 7        42.632 7                                                                  25116937.469 7 106277981.911 7       624.180 7        45.327 7
> 2020 08 27 07 56 21.0000000  0  8       0.000000000000
C06  36197980.715 7 188492385.651 7        68.826 7        42.433 7                                                                  36197978.254 5 153165493.646 5        55.035 5        35.785 5
C08  36069368.086 6 187822674.151 6         1.014 6        37.346 6  36069364.723 5 145236384.076 5         1.998 5        35.418 5                                                                
C13  35672119.867 5 185754095.811 5       400.760 5        35.418 5                                                                  35672120.984 5 150940423.170 5       326.578 5        34.575 5
C16  36407564.340 5 189583754.747 5       244.178 5        34.253 5                                                                                                                                
C19  22511928.586 5 117225566.195 5       662.127 5        31.242 5                                                                                                                                
C20  23073735.695 6 120150983.476 6     -1236.154 6        40.103 6                                                                  23073729.914 7  97632505.936 7     -1004.262 7        43.242 7
C32  26811072.223 6 139612284.108 6     -2112.912 6        41.406 6                                                                  26811078.016 6 113446439.735 6     -1716.605 6        39.024 6
C37  25116785.879 7 130789704.885 7       767.244 7        42.356 7                                                                  25116790.000 7 106277358.067 7       623.629 7        45.327 7
> 2020 08 27 07 56 22.0000000  0  8       0.000000000000
C06  36197967.215 7 188492316.416 7        68.180 7        42.483 7                                                                  36197964.875 5 153165437.379 5        55.473 5        35.418 5
C08  36069367.750 6 187822672.913 6         1.752 6        37.427 6  36069365.066 5 145236383.148 5         1.258 5        35.418 5                                                                
C13  35672042.727 5 185753693.994 5       402.594 5        35.418 5                                                                  35672043.715 5 150940096.699 5       326.879 5        34.417 5
C16  36407517.285 5 189583510.254 5       244.215 5        34.082 5                                                                                                                                
C19  22511801.113 5 117224902.835 5       661.871 5        31.564 5                                                                                                                                
C20  23073973.000 6 120152219.096 6     -1235.807 6        40.059 6                                                                  23073967.191 7  97633509.992 7     -1004.449 7        43.026 7
C32  26811477.656 6 139614396.211 6     -2112.701 6        41.374 6                                                                  26811483.676 6 113448155.992 6     -1716.598 6        38.911 6
C37  25116638.305 7 130788937.367 7       766.969 7        42.728 7                                                                  25116642.531 7 106276734.417 7       622.914 7        45.100 7
> 2020 08 27 07 56 23.0000000  0  8       0.000000000000
C06  36197953.930 7 188492247.126 7        68.441 7        42.356 7                                                                  36197951.543 5 153165381.077 5        56.361 5        35.544 5
C08  36069367.488 6 187822671.704 6         0.707 6        37.179 6  36069364.625 5 145236382.211 5         2.223 5        35.288 5                                                                
C13  35671965.449 5 185753292.250 5       401.449 5        35.544 5                                                                  35671966.578 5 150939770.222 5       326.967 5        34.082 5
C16  36407470.590 5 189583265.791 5       244.184 5        34.253 5                                                                                                                                
C19  22511673.715 5 117224239.459 5       663.773 5        30.895 5                                                                                                                                
C20  23074210.379 6 120153454.697 6     -1235.738 6        40.059 6                                                                  23074204.441 7  97634514.002 7     -1004.068 7        43.092 7
C32  26811883.313 6 139616508.103 6     -2112.535 6        41.309 6                                                                  26811889.273 6 113449872.061 6     -1716.041 6        38.795 6
C37  25116490.980 7 130788170.188 7       766.645 7        42.558 7                                                                  25116495.156 7 106276111.005 7       623.158 7        45.127 7
> 2020 08 27 07 56 24.0000000  0  8       0.000000000000
C06  36197940.668 7 188492178.296 7        68.748 7        42.483 7                                                                  36197938.258 5 153165325.149 5        56.176 5        35.544 5
C08  36069367.211 6 187822670.954 6         1.600 6        37.263 6  36069364.387 5 145236381.692 5         0.104 5        35.154 5                                                                
C13  35671888.258 5 185752890.929 5       400.350 5        35.288 5                                                                  35671889.477 5 150939444.117 5       326.195 5        34.417 5
C16  36407423.738 5 189583021.874 5       242.283 5        34.082 5                                                                                                                                
C19  22511546.121 5 117223576.716 5       661.795 5        30.517 5                                                                                                                                
C20  23074447.633 6 120154690.682 6     -1236.018 6        40.189 6                                                                  23074441.789 7  97635518.354 7     -1004.393 7        43.070 7
C32  26812289.168 6 139618620.279 6     -2112.600 6        41.374 6                                                                  26812295.035 6 113451588.403 6     -1716.697 6        38.854 6
C37  25116343.781 7 130787403.770 7       766.463 7        42.981 7                                                                  25116348.031 7 106275488.233 7       622.699 7        45.072 7
> 2020 08 27 07 56 25.0000000  0  7       0.000000000000
C06  36197927.406 7 188492109.480 7        67.641 7        42.483 7                                                                  36197924.988 5 153165269.217 5        55.734 5        35.666 5
C08  36069367.223 6 187822670.278 6         0.707 6        37.179 6  36069364.254 5 145236381.098 5         1.578 5        35.666 5                                                                
C13  35671811.180 5 185752489.567 5       401.156 5        34.874 5                                                                  35671812.438 5 150939117.993 5       325.773 5        33.905 5
C16  36407376.992 5 189582777.833 5       242.387 5        34.082 5                                                                                                                                
C20  23074685.176 6 120155926.612 6     -1236.285 6        40.103 6                                                                  23074679.090 7  97636522.663 7     -1004.813 7        43.092 7
C32  26812694.984 6 139620732.277 6     -2112.496 6        41.342 6                                                                  26812700.758 6 113453304.565 6     -1716.238 6        38.854 6
C37  25116196.875 7 130786637.688 7       764.887 7        43.048 7                                                                  25116200.867 7 106274865.730 7       621.906 7        45.141 7
> 2020 08 27 07 56 26.0000000  0  7       0.000000000000
C06  36197914.410 7 188492040.736 7        68.768 7        42.558 7                                                                  36197911.770 5 153165213.358 5        56.018 5        35.666 5
C08  36069366.996 6 187822669.675 6         0.760 6        37.263 6  36069364.027 5 145236380.688 5        -0.172 5        35.154 5                                                                
C13  35671733.969 5 185752088.317 5       401.795 5        35.288 5                                                                  35671735.430 5 150938791.930 5       325.139 5        34.082 5
C16  36407330.012 5 189582533.939 5       243.143 5        34.417 5                                                                                                                                
C20  23074922.879 6 120157162.593 6     -1235.588 6        40.103 6                                                                  23074916.496 7  97637527.000 7     -1004.334 7        43.199 7
C32  26813100.711 6 139622844.203 6     -2111.350 6        41.406 6                                                                  26813106.207 6 113455020.671 6     -1715.428 6        38.854 6
C37  25116050.051 7 130785872.004 7       765.701 7        43.221 7                                                                  25116053.949 7 106274243.551 7       621.955 7        45.195 7
> 2020 08 27 07 56 27.0000000  0  7       0.000000000000
C06  36197901.488 7 188491972.090 7        68.693 7        42.751 7                                                                  36197898.676 5 153165157.594 5        55.840 5        35.418 5
C08  36069366.879 6 187822669.197 6         0.803 6        37.179 6  36069363.770 5 145236380.286 5         0.664 5        35.418 5                                                                
C13  35671656.801 5 185751687.106 5       401.252 5        35.288 5                                                                  35671658.379 5 150938465.920 5       325.391 5        34.082 5
C16  36407283.500 5 189582290.141 5       243.420 5        34.082 5                                                                                                                                
C20  23075160.297 6 120158398.623 6     -1236.131 6        40.397 6                                                                  23075153.758 7  97638531.354 7     -1004.082 7        43.048 7
C32  26813506.297 6 139624956.060 6     -2111.697 6        41.656 6                                                                  26813511.938 6 113456736.736 6     -1715.549 6        38.911 6
C37  25115903.016 7 130785106.728 7       765.570 7        43.448 7                                                                  25115907.113 7 106273621.709 7       621.660 7        45.127 7
> 2020 08 27 07 56 28.0000000  0  7       0.000000000000
C06  36197888.273 7 188491903.676 7        68.334 7        42.728 7                                                                  36197885.434 5 153165102.017 5        54.338 5        35.544 5
C08  36069366.938 6 187822668.982 6         0.463 6        37.507 6  36069363.934 5 145236380.185 5        -0.658 5        35.418 5                                                                
C13  35671579.801 5 185751286.086 5       401.654 5        35.154 5  35671580.016 5 143634670.390 5       309.615 5        31.242 5  35671581.355 5 150938140.058 5       325.998 5        34.082 5
C16  36407236.980 5 189582046.599 5       243.959 5        34.253 5                                                                                                                                
C20  23075397.813 6 120159634.830 6     -1235.711 6        40.397 6                                                                  23075391.109 7  97639535.889 7     -1004.314 7        43.157 7
C32  26813912.055 6 139627067.975 6     -2112.117 6        41.406 6                                                                  26813917.535 6 113458452.849 6     -1715.916 6        38.795 6
C37  25115756.297 7 130784342.037 7       764.428 7        43.448 7                                                                  25115760.258 7 106273000.312 7       621.623 7        45.154 7
> 2020 08 27 07 56 29.0000000  0  7       0.000000000000
C06  36197874.855 7 188491835.273 7        68.330 7        42.583 7                                                                  36197872.371 5 153165046.420 5        55.193 5        35.785 5
C08  36069367.508 6 187822668.804 6         0.908 6        37.263 6  36069364.000 5 145236380.017 5        -0.547 5        35.666 5                                                                
C13  35671502.492 5 185750885.096 5       400.693 5        34.874 5  35671503.352 5 143634360.324 5       309.746 5        31.242 5  35671504.375 5 150937814.217 5       325.232 5        34.575 5
C16  36407190.363 5 189581803.091 5       242.803 5        34.575 5                                                                                                                                
C20  23075635.379 6 120160871.008 6     -1236.162 6        40.231 6                                                                  23075628.438 7  97640540.376 7     -1004.299 7        43.135 7
C32  26814317.539 6 139629179.725 6     -2112.295 6        41.470 6                                                                  26814323.070 6 113460168.816 6     -1716.467 6        39.024 6
C37  25115609.586 7 130783577.619 7       764.971 7        43.527 7                                                                  25115613.492 7 106272379.195 7       620.877 7        45.262 7
> 2020 08 27 07 56 30.0000000  0  8       0.000000000000
C06  36197861.762 7 188491766.949 7        68.318 7        42.751 7                                                                  36197859.340 5 153164990.921 5        54.336 5        35.785 5
C08  36069367.473 6 187822668.772 6        -0.100 6        37.093 6  36069363.859 5 145236379.907 5         0.740 5        35.544 5                                                                
C13  35671425.402 5 185750484.191 5       400.740 5        35.154 5  35671426.402 5 143634050.333 5       309.783 5        31.242 5  35671427.270 5 150937488.433 5       325.820 5        34.417 5
C16  36407143.645 5 189581559.663 5       244.275 5        34.575 5                                                                                                                                
C19  22510777.336 5 117219526.757 5       662.186 5        30.895 5                                                                                                                                
C20  23075872.660 6 120162107.196 6     -1236.486 6        40.397 6                                                                  23075865.766 7  97641544.889 7     -1004.941 7        42.913 7
C32  26814723.063 6 139631291.362 6     -2111.896 6        41.309 6                                                                  26814728.629 6 113461884.700 6     -1715.664 6        38.968 6
C37  25115462.918 7 130782813.654 7       764.119 7        43.758 7                                                                  25115466.738 7 106271758.393 7       620.918 7        45.114 7
> 2020 08 27 07 56 31.0000000  0  8       0.000000000000
C06  36197848.770 7 188491698.930 7        68.016 7        42.680 7                                                                  36197846.094 5 153164935.658 5        53.332 5        35.666 5
C08  36069367.500 6 187822669.030 6        -0.207 6        37.346 6  36069364.352 5 145236380.217 5        -1.436 5        35.666 5                                                                
C13  35671348.305 5 185750083.505 5       401.277 5        35.544 5  35671349.594 5 143633740.485 5       310.908 5        31.564 5  35671350.336 5 150937162.865 5       326.301 5        33.905 5
C16  36407097.313 5 189581316.586 5       242.605 5        34.417 5                                                                                                                                
C19  22510649.977 5 117218864.960 5       662.371 5        31.242 5                                                                                                                                
C20  23076110.367 6 120163343.650 6     -1236.420 6        40.356 6                                                                  23076103.230 7  97642549.634 7     -1005.301 7        43.092 7
C32  26815128.543 6 139633403.141 6     -2111.205 6        41.175 6                                                                  26815134.188 6 113463600.700 6     -1715.770 6        38.968 6
C37  25115316.352 7 130782050.328 7       762.781 7        43.758 7                                                                  25115319.992 7 106271138.120 7       619.973 7        45.141 7
> 2020 08 27 07 56 32.0000000  0  8       0.000000000000
C06  36197835.926 7 188491630.924 7        68.014 7        42.607 7                                                                  36197832.957 5 153164880.368 5        54.617 5        35.785 5
C08  36069367.605 6 187822669.350 6        -0.385 6        37.179 6  36069364.457 5 145236380.415 5        -0.457 5        35.666 5                                                                
C13  35671271.461 5 185749682.893 5       399.850 5        35.017 5  35671272.855 5 143633430.720 5       309.230 5        30.517 5  35671273.508 5 150936837.315 5       326.160 5        34.253 5
C16  36407050.805 5 189581073.468 5       243.521 5        34.417 5                                                                                                                                
C19  22510522.871 5 117218203.114 5       662.896 5        31.564 5                                                                                                                                
C20  23076347.824 6 120164580.072 6     -1236.418 6        40.556 6                                                                  23076340.555 7  97643554.305 7     -1004.758 7        42.981 7
C32  26815534.063 6 139635514.778 6     -2111.418 6        41.209 6                                                                  26815539.922 6 113465316.580 6     -1715.578 6        38.736 6
C37  25115170.000 7 130781287.309 7       762.193 7        43.663 7                                                                  25115173.441 7 106270518.104 7       619.676 7        44.932 7
> 2020 08 27 07 56 33.0000000  0  8       0.000000000000
C06  36197822.672 7 188491563.048 7        68.236 7        42.533 7                                                                  36197819.941 5 153164825.129 5        58.883 5        35.418 5
C08  36069367.410 6 187822669.794 6         0.150 6        37.263 6  36069364.332 5 145236380.767 5         0.178 5        35.666 5                                                                
C13  35671194.605 5 185749282.390 5       399.779 5        35.017 5  35671196.035 5 143633120.940 5       312.170 5        30.517 5  35671196.422 5 150936511.855 5       326.617 5        34.417 5
C16  36407004.105 5 189580830.600 5       242.240 5        34.082 5                                                                                                                                
C19  22510395.859 5 117217541.527 5       662.162 5        32.144 5                                                                                                                                
C20  23076585.375 6 120165816.585 6     -1236.080 6        40.273 6                                                                  23076578.086 7  97644559.052 7     -1004.396 7        42.936 7
C32  26815939.461 6 139637626.380 6     -2112.057 6        41.175 6                                                                  26815945.398 6 113467032.416 6     -1715.607 6        38.616 6
C37  25115023.707 7 130780524.735 7       762.416 7        43.625 7                                                                  25115027.121 7 106269898.457 7       619.410 7        44.903 7
> 2020 08 27 07 56 34.0000000  0  8       0.000000000000
C06  36197809.512 7 188491495.316 7        67.459 7        42.656 7                                                                  36197806.941 5 153164770.146 5        55.064 5        35.418 5
C08  36069367.699 6 187822670.402 6        -0.568 6        37.263 6  36069364.586 5 145236381.268 5        -1.982 5        35.785 5                                                                
C13  35671117.945 5 185748881.929 5       400.916 5        35.154 5  35671119.125 5 143632811.394 5       309.033 5        31.564 5  35671119.547 5 150936186.509 5       324.889 5        33.905 5
C16  36406957.207 5 189580587.755 5       243.455 5        34.253 5                                                                                                                                
C19  22510269.047 5 117216880.000 5       661.697 5        32.144 5                                                                                                                                
C20  23076822.766 6 120167053.171 6     -1236.369 6        40.556 6                                                                  23076815.434 7  97645563.882 7     -1004.467 7        43.135 7
C32  26816344.879 6 139639737.896 6     -2111.604 6        40.967 6                                                                  26816351.031 6 113468748.212 6     -1715.287 6        38.795 6
C37  25114877.469 7 130779762.616 7       761.600 7        43.795 7                                                                  25114880.727 7 106269279.169 7       619.205 7        44.860 7
> 2020 08 27 07 56 35.0000000  0  8       0.000000000000
C06  36197796.258 7 188491427.621 7        67.516 7        42.751 7                                                                  36197794.016 5 153164715.166 5        54.510 5        35.418 5
C08  36069367.824 6 187822671.106 6        -0.766 6        37.179 6  36069364.566 5 145236381.793 5        -1.051 5        35.666 5                                                                
C13  35671040.871 5 185748481.615 5       398.883 5        35.154 5  35671042.125 5 143632501.773 5       309.281 5        31.242 5  35671042.688 5 150935861.187 5       325.252 5        34.253 5
C16  36406910.613 5 189580345.085 5       242.711 5        34.082 5                                                                                                                                
C19  22510141.965 5 117216218.600 5       661.891 5        32.144 5                                                                                                                                
C20  23077060.391 6 120168289.771 6     -1237.406 6        40.595 6                                                                  23077053.047 7  97646568.736 7     -1005.469 7        42.981 7
C32  26816750.133 6 139641849.315 6     -2110.979 6        40.822 6                                                                  26816756.492 6 113470463.898 6     -1714.922 6        38.911 6
C37  25114731.211 7 130779000.883 7       761.070 7        43.977 7                                                                  25114734.426 7 106268660.214 7       618.436 7        44.874 7
> 2020 08 27 07 56 36.0000000  0  8       0.000000000000
C06  36197783.352 7 188491360.102 7        67.689 7        42.632 7                                                                  36197781.063 5 153164660.311 5        54.680 5        35.666 5
C08  36069368.156 6 187822671.982 6        -0.201 6        37.179 6  36069364.719 5 145236382.491 5        -1.551 5        35.666 5                                                                
C13  35670963.969 5 185748081.356 5       400.170 5        34.874 5  35670965.473 5 143632192.317 5       309.191 5        30.895 5  35670965.680 5 150935535.983 5       324.463 5        34.253 5
C16  36406863.867 5 189580102.550 5       242.240 5        34.253 5                                                                                                                                
C19  22510014.980 5 117215557.378 5       660.951 5        32.407 5                                                                                                                                
C20  23077298.109 6 120169526.470 6     -1236.627 6        40.672 6                                                                  23077290.586 7  97647573.653 7     -1005.027 7        43.199 7
C32  26817155.523 6 139643960.772 6     -2112.311 6        40.931 6                                                                  26817161.977 6 113472179.629 6     -1716.023 6        38.795 6
C37  25114584.945 7 130778239.633 7       760.834 7        43.995 7                                                                  25114588.188 7 106268041.645 7       617.920 7        44.874 7
> 2020 08 27 07 56 37.0000000  0  8       0.000000000000
C06  36197770.293 7 188491292.523 7        67.508 7        42.656 7                                                                  36197768.105 5 153164605.360 5        55.123 5        35.666 5
C08  36069368.047 6 187822672.842 6        -0.422 6        36.915 6  36069364.863 5 145236383.145 5        -0.896 5        35.666 5                                                                
C13  35670887.164 5 185747681.096 5       399.129 5        35.017 5  35670888.773 5 143631882.851 5       308.342 5        30.895 5  35670888.816 5 150935210.722 5       325.104 5        34.082 5
C16  36406817.648 5 189579859.934 5       242.957 5        34.417 5                                                                                                                                
C19  22509888.234 5 117214896.131 5       660.203 5        33.325 5                                                                                                                                
C20  23077535.430 6 120170763.078 6     -1236.926 6        40.672 6                                                                  23077527.980 7  97648578.498 7     -1005.113 7        43.026 7
C32  26817560.973 6 139646071.936 6     -2111.223 6        40.967 6                                                                  26817567.418 6 113473895.157 6     -1715.875 6        38.676 6
C37  25114438.707 7 130777478.646 7       760.535 7        43.941 7                                                                  25114442.160 7 106267423.279 7       617.877 7        44.786 7
> 2020 08 27 07 56 38.0000000  0  8       0.000000000000
C06  36197757.426 7 188491225.080 7        67.561 7        42.751 7                                                                  36197755.164 5 153164550.527 5        55.707 5        35.901 5
C08  36069368.305 6 187822673.868 6        -0.350 6        37.263 6  36069364.941 5 145236383.917 5         0.406 5        35.666 5                                                                
C13  35670810.082 5 185747280.902 5       400.900 5        35.288 5  35670811.551 5 143631573.332 5       309.977 5        30.895 5  35670811.934 5 150934885.564 5       325.453 5        33.905 5
C16  36406771.223 5 189579617.564 5       241.916 5        34.417 5                                                                                                                                
C19  22509761.355 5 117214235.076 5       659.475 5        33.905 5                                                                                                                                
C20  23077773.254 6 120171999.759 6     -1236.736 6        40.556 6                                                                  23077765.516 7  97649583.398 7     -1004.215 7        43.026 7
C32  26817965.930 6 139648183.125 6     -2111.229 6        40.785 6                                                                  26817972.742 6 113475610.629 6     -1715.719 6        38.616 6
C37  25114292.762 7 130776718.127 7       760.568 7        44.236 7                                                                  25114296.137 7 106266805.310 7       617.777 7        44.889 7
> 2020 08 27 07 56 39.0000000  0  8       0.000000000000
C06  36197744.906 7 188491157.656 7        67.143 7        42.680 7                                                                  36197742.277 5 153164495.796 5        53.928 5        35.666 5
C08  36069368.449 6 187822674.962 6        -1.725 6        37.346 6  36069365.371 5 145236384.767 5        -0.594 5        35.901 5                                                                
C13  35670733.352 5 185746880.764 5       400.502 5        35.418 5  35670735.031 5 143631263.966 5       308.586 5        31.242 5  35670735.133 5 150934560.412 5       324.123 5        34.417 5
C16  36406724.684 5 189579375.144 5       241.752 5        34.082 5                                                                                                                                
C19  22509634.828 5 117213573.979 5       661.654 5        34.082 5                                                                                                                                
C20  23078010.715 6 120173236.421 6     -1236.451 6        40.822 6                                                                  23078003.023 7  97650588.302 7     -1004.900 7        43.092 7
C32  26818371.453 6 139650294.111 6     -2110.826 6        40.710 6                                                                  26818378.059 6 113477325.993 6     -1715.682 6        38.428 6
C37  25114146.520 7 130775957.956 7       760.072 7        44.219 7                                                                  25114150.313 7 106266187.586 7       617.502 7        44.903 7
> 2020 08 27 07 56 40.0000000  0  8       0.000000000000
C06  36197731.875 7 188491090.268 7        67.490 7        42.704 7                                                                  36197729.293 5 153164441.016 5        54.943 5        35.418 5
C08  36069368.801 6 187822676.077 6        -0.166 6        37.263 6  36069365.438 5 145236385.674 5        -1.125 5        35.544 5                                                                
C13  35670656.645 5 185746480.638 5       399.326 5        35.017 5  35670658.398 5 143630954.551 5       308.914 5        31.242 5  35670658.398 5 150934235.254 5       325.705 5        33.905 5
C16  36406678.027 5 189579132.807 5       241.748 5        34.253 5                                                                                                                                
C19  22509508.148 5 117212913.039 5       660.869 5        34.253 5                                                                                                                                
C20  23078248.422 6 120174473.102 6     -1236.846 6        40.397 6                                                                  23078240.500 7  97651593.194 7     -1004.959 7        43.070 7
C32  26818776.648 6 139652404.980 6     -2110.068 6        40.595 6                                                                  26818783.430 6 113479041.257 6     -1715.059 6        38.232 6
C37  25114000.844 7 130775198.134 7       759.736 7        44.168 7                                                                  25114004.367 7 106265570.199 7       616.975 7        44.801 7
> 2020 08 27 07 56 41.0000000  0  8       0.000000000000
C06  36197719.199 7 188491023.087 7        67.121 7        42.751 7                                                                  36197716.309 5 153164386.434 5        54.512 5        35.785 5
C08  36069369.215 6 187822677.517 6        -1.688 6        37.346 6  36069365.531 5 145236386.730 5        -1.455 5        35.785 5                                                                
C13  35670579.969 5 185746080.657 5       400.479 5        35.154 5  35670581.578 5 143630645.276 5       308.721 5        31.242 5  35670581.566 5 150933910.262 5       324.941 5        34.253 5
C16  36406631.867 5 189578890.657 5       243.701 5        33.905 5                                                                                                                                
C19  22509381.570 5 117212252.296 5       661.787 5        34.417 5                                                                                                                                
C20  23078485.867 6 120175709.921 6     -1236.902 6        40.103 6                                                                  23078477.906 7  97652598.221 7     -1005.195 7        43.199 7
C32  26819181.797 6 139654515.919 6     -2110.438 6        40.595 6                                                                  26819188.910 6 113480756.590 6     -1715.840 6        38.491 6
C37  25113855.309 7 130774438.852 7       759.756 7        44.303 7                                                                  25113858.621 7 106264953.211 7       616.953 7        44.874 7
> 2020 08 27 07 56 42.0000000  0  8       0.000000000000
C06  36197706.164 7 188490955.886 7        67.074 7        42.775 7                                                                  36197703.340 5 153164331.809 5        55.430 5        35.544 5
C08  36069369.453 6 187822678.897 6        -1.734 6        37.093 6  36069366.020 5 145236387.825 5        -1.781 5        35.544 5                                                                
C13  35670503.047 5 185745680.690 5       401.137 5        35.418 5  35670504.836 5 143630336.010 5       308.844 5        30.895 5  35670504.750 5 150933585.246 5       324.297 5        33.905 5
C16  36406585.457 5 189578648.604 5       240.883 5        34.082 5                                                                                                                                
C19  22509255.172 5 117211591.636 5       658.422 5        34.253 5                                                                                                                                
C20  23078723.172 6 120176946.691 6     -1237.008 6        40.059 6                                                                  23078715.434 7  97653603.183 7     -1005.371 7        42.913 7
C32  26819587.199 6 139656626.673 6     -2111.734 6        40.634 6                                                                  26819594.246 6 113482471.665 6     -1714.336 6        38.165 6
C37  25113709.734 7 130773679.902 7       758.344 7        44.352 7                                                                  25113712.891 7 106264336.489 7       616.309 7        44.621 7
> 2020 08 27 07 56 43.0000000  0  8       0.000000000000
C06  36197693.332 7 188490889.002 7        66.736 7        42.680 7                                                                  36197690.563 5 153164277.456 5        55.398 5        35.666 5
C08  36069369.820 6 187822680.606 6        -1.799 6        37.179 6  36069366.348 5 145236389.141 5        -1.109 5        35.418 5                                                                
C13  35670426.391 5 185745281.069 5       399.373 5        35.288 5  35670427.895 5 143630026.992 5       308.188 5        30.895 5  35670427.945 5 150933260.510 5       324.307 5        34.082 5
C16  36406538.816 5 189578406.810 5       241.795 5        33.720 5                                                                                                                                
C19  22509128.723 5 117210931.206 5       659.861 5        34.082 5                                                                                                                                
C20  23078960.680 6 120178183.728 6     -1238.068 6        40.103 6                                                                  23078952.938 7  97654608.369 7     -1005.422 7        42.981 7
C32  26819992.625 6 139658737.514 6     -2110.607 6        40.595 6                                                                  26819999.551 6 113484186.967 6     -1715.617 6        38.364 6
C37  25113564.434 7 130772921.563 7       757.693 7        44.384 7                                                                  25113567.324 7 106263720.270 7       616.104 7        44.605 7
> 2020 08 27 07 56 44.0000000  0  8       0.000000000000
C06  36197680.359 7 188490822.055 7        66.365 7        42.751 7                                                                  36197677.707 5 153164223.045 5        54.854 5        35.418 5
C08  36069370.086 6 187822682.297 6        -3.029 6        37.005 6  36069366.613 5 145236390.424 5        -0.842 5        35.901 5                                                                
C13  35670349.996 5 185744881.328 5       398.396 5        35.154 5  35670351.355 5 143629717.823 5       308.553 5        30.895 5  35670351.043 5 150932935.655 5       324.328 5        34.082 5
C16  36406492.613 5 189578164.971 5       242.088 5        34.253 5                                                                                                                                
C19  22509002.172 5 117210270.754 5       660.623 5        34.253 5                                                                                                                                
C20  23079198.012 6 120179420.591 6     -1237.348 6        40.146 6                                                                  23079190.473 7  97655613.441 7     -1005.498 7        43.026 7
C32  26820397.770 6 139660848.119 6     -2110.297 6        40.595 6                                                                  26820404.945 6 113485901.985 6     -1715.010 6        38.096 6
C37  25113419.031 7 130772163.469 7       757.088 7        44.433 7                                                                  25113421.742 7 106263104.259 7       615.480 7        44.543 7
> 2020 08 27 07 56 45.0000000  0  8       0.000000000000
C06  36197667.488 7 188490755.138 7        66.885 7        42.891 7                                                                  36197664.762 5 153164168.722 5        54.385 5        35.418 5
C08  36069370.270 6 187822684.044 6        -1.299 6        37.179 6  36069366.691 5 145236391.784 5        -1.650 5        35.901 5                                                                
C13  35670272.875 5 185744481.572 5       400.068 5        35.418 5  35670274.449 5 143629408.715 5       309.424 5        30.895 5  35670274.293 5 150932610.882 5       324.932 5        34.082 5
C16  36406446.543 5 189577923.195 5       240.576 5        34.417 5                                                                                                                                
C19  22508875.613 5 117209610.376 5       659.990 5        34.727 5                                                                                                                                
C20  23079435.586 6 120180657.477 6     -1236.707 6        40.315 6                                                                  23079428.137 7  97656618.522 7     -1005.264 7        42.845 7
C32  26820803.512 6 139662958.633 6     -2110.438 6        40.437 6                                                                  26820810.293 6 113487616.950 6     -1715.518 6        38.165 6
C37  25113273.727 7 130771405.725 7       757.783 7        44.636 7                                                                  25113276.297 7 106262488.555 7       615.498 7        44.575 7
> 2020 08 27 07 56 46.0000000  0  8       0.000000000000
C06  36197654.539 7 188490688.419 7        66.063 7        42.775 7                                                                  36197651.949 5 153164114.471 5        54.533 5        35.666 5
C08  36069370.664 6 187822686.017 6        -2.766 6        37.179 6  36069367.195 5 145236393.316 5        -1.643 5        35.785 5                                                                
C13  35670196.109 5 185744081.986 5       400.262 5        34.874 5  35670197.398 5 143629099.743 5       308.572 5        30.895 5  35670197.563 5 150932286.213 5       323.850 5        34.082 5
C16  36406400.113 5 189577681.634 5       240.008 5        34.417 5                                                                                                                                
C19  22508748.945 5 117208950.229 5       659.715 5        34.874 5                                                                                                                                
C20  23079673.336 6 120181894.521 6     -1237.299 6        40.189 6                                                                  23079665.707 7  97657623.709 7     -1005.662 7        43.070 7
C32  26821208.715 6 139665069.143 6     -2111.205 6        40.397 6                                                                  26821215.660 6 113489331.896 6     -1715.682 6        37.956 6
C37  25113128.457 7 130770648.527 7       756.082 7        44.481 7                                                                  25113130.703 7 106261873.264 7       614.318 7        44.636 7
> 2020 08 27 07 56 47.0000000  0  8       0.000000000000
C06  36197641.598 7 188490621.769 7        66.363 7        42.981 7                                                                  36197639.285 5 153164060.333 5        54.359 5        35.666 5
C08  36069370.813 6 187822688.075 6        -1.938 6        37.263 6  36069367.523 5 145236394.954 5        -2.604 5        35.544 5                                                                
C13  35670119.098 5 185743682.495 5       401.422 5        34.874 5  35670120.348 5 143628790.864 5       309.389 5        30.895 5  35670120.727 5 150931961.586 5       325.551 5        33.905 5
C16  36406353.684 5 189577440.114 5       241.324 5        34.417 5                                                                                                                                
C19  22508622.387 5 117208290.199 5       660.484 5        34.575 5                                                                                                                                
C20  23079910.586 6 120183131.607 6     -1237.934 6        40.146 6                                                                  23079903.289 7  97658628.935 7     -1005.621 7        43.026 7
C32  26821614.207 6 139667179.572 6     -2110.766 6        40.556 6                                                                  26821621.020 6 113491046.834 6     -1715.777 6        37.737 6
C37  25112983.367 7 130769891.715 7       756.502 7        44.512 7                                                                  25112985.469 7 106261258.295 7       614.711 7        44.496 7
> 2020 08 27 07 56 48.0000000  0  8       0.000000000000
C06  36197629.262 7 188490555.161 7        66.605 7        42.913 7                                                                  36197626.379 5 153164006.244 5        53.000 5        35.666 5
C08  36069370.855 6 187822690.253 6        -2.105 6        36.824 6  36069367.777 5 145236396.639 5        -3.629 5        35.666 5                                                                
C13  35670042.547 5 185743283.155 5       398.988 5        35.017 5  35670043.371 5 143628482.049 5       307.973 5        30.895 5  35670044.000 5 150931636.993 5       325.188 5        34.082 5
C16  36406307.402 5 189577198.698 5       240.043 5        34.082 5                                                                                                                                
C19  22508495.898 5 117207630.221 5       660.434 5        34.727 5                                                                                                                                
C20  23080148.055 6 120184368.667 6     -1237.223 6        40.397 6                                                                  23080140.805 7  97659634.144 7     -1005.301 7        43.070 7
C32  26822019.484 6 139669289.874 6     -2110.443 6        40.556 6                                                                  26822026.266 6 113492761.611 6     -1715.145 6        38.027 6
C37  25112838.027 7 130769135.295 7       755.688 7        44.449 7                                                                  25112840.285 7 106260643.642 7       613.742 7        44.590 7
> 2020 08 27 07 56 49.0000000  0  8       0.000000000000
C06  36197616.465 7 188490488.762 7        66.625 7        42.728 7                                                                  36197613.559 5 153163952.253 5        54.094 5        35.544 5
C08  36069371.617 6 187822692.626 6        -2.516 6        36.731 6  36069368.324 5 145236398.443 5        -2.139 5        35.666 5                                                                
C13  35669965.969 5 185742883.842 5       397.973 5        34.874 5  35669966.613 5 143628173.302 5       306.865 5        30.895 5  35669967.391 5 150931312.581 5       323.234 5        34.082 5
C16  36406261.086 5 189576957.477 5       241.273 5        34.253 5                                                                                                                                
C19  22508369.738 5 117206970.476 5       661.527 5        35.288 5                                                                                                                                
C20  23080385.598 6 120185605.882 6     -1237.223 6        40.517 6                                                                  23080378.430 7  97660639.494 7     -1005.635 7        43.070 7
C32  26822424.801 6 139671400.188 6     -2110.484 6        40.315 6                                                                  26822431.520 6 113494476.420 6     -1715.322 6        37.737 6
C37  25112692.832 7 130768379.353 7       756.215 7        44.352 7                                                                  25112695.180 7 106260029.375 7       614.367 7        44.512 7
> 2020 08 27 07 56 50.0000000  0  8       0.000000000000
C06  36197603.906 7 188490422.533 7        65.992 7        42.913 7                                                                  36197600.691 5 153163898.409 5        54.160 5        35.288 5
C08  36069372.113 6 187822695.197 6        -3.090 6        37.005 6  36069368.930 5 145236400.419 5        -2.111 5        35.666 5                                                                
C13  35669888.945 5 185742484.702 5       400.230 5        35.017 5  35669889.770 5 143627864.611 5       309.686 5        31.242 5  35669890.750 5 150930988.227 5       325.391 5        33.720 5
C16  36406214.469 5 189576716.434 5       241.656 5        34.417 5                                                                                                                                
C19  22508243.242 5 117206310.890 5       660.602 5        34.874 5                                                                                                                                
C20  23080623.414 6 120186843.188 6     -1237.174 6        40.672 6                                                                  23080615.902 7  97661644.909 7     -1005.293 7        43.003 7
C32  26822830.035 6 139673510.505 6     -2110.377 6        40.477 6                                                                  26822836.777 6 113496191.208 6     -1714.707 6        37.585 6
C37  25112547.770 7 130767623.916 7       755.563 7        44.286 7                                                                  25112549.977 7 106259415.530 7       614.063 7        44.352 7
> 2020 08 27 07 56 51.0000000  0  8       0.000000000000
C06  36197591.480 7 188490356.306 7        66.094 7        42.981 7                                                                  36197587.785 5 153163844.599 5        54.463 5        35.544 5
C08  36069372.426 6 187822697.775 6        -2.539 6        37.093 6  36069369.453 5 145236402.428 5        -2.648 5        35.418 5                                                                
C13  35669812.344 5 185742085.615 5       398.184 5        34.727 5  35669813.203 5 143627555.970 5       308.406 5        30.895 5  35669813.926 5 150930663.878 5       325.615 5        34.082 5
C16  36406168.023 5 189576475.429 5       240.488 5        34.253 5                                                                                                                                
C19  22508116.770 5 117205651.416 5       659.609 5        35.154 5                                                                                                                                
C20  23080861.113 6 120188080.470 6     -1236.895 6        40.672 6                                                                  23080853.449 7  97662650.310 7     -1005.674 7        43.135 7
C32  26823235.652 6 139675620.650 6     -2110.020 6        40.315 6                                                                  26823241.977 6 113497905.864 6     -1714.521 6        37.812 6
C37  25112402.734 7 130766868.837 7       754.707 7        44.352 7                                                                  25112404.973 7 106258801.968 7       612.744 7        44.253 7
> 2020 08 27 07 56 52.0000000  0  8       0.000000000000
C06  36197579.211 7 188490290.325 7        65.840 7        42.798 7                                                                  36197575.121 5 153163791.025 5        53.631 5        35.544 5
C08  36069373.070 6 187822700.679 6        -3.592 6        37.005 6  36069369.816 5 145236404.635 5        -1.525 5        35.544 5                                                                
C13  35669736.043 5 185741686.663 5       399.141 5        34.727 5  35669736.578 5 143627247.525 5       307.947 5        30.517 5  35669737.336 5 150930339.753 5       324.607 5        33.527 5
C16  36406121.773 5 189576234.698 5       240.313 5        34.417 5                                                                                                                                
C19  22507990.172 5 117204992.174 5       660.000 5        35.017 5                                                                                                                                
C20  23081098.828 6 120189317.973 6     -1237.674 6        40.672 6                                                                  23081091.094 7  97663655.862 7     -1005.371 7        42.913 7
C32  26823640.750 6 139677730.888 6     -2110.389 6        40.273 6                                                                  26823647.254 6 113499620.604 6     -1714.805 6        37.662 6
C37  25112257.715 7 130766114.306 7       754.375 7        44.319 7                                                                  25112260.262 7 106258188.856 7       612.713 7        44.253 7
> 2020 08 27 07 56 53.0000000  0  8       0.000000000000
C06  36197566.813 7 188490224.334 7        66.287 7        42.798 7                                                                  36197562.426 5 153163737.402 5        53.047 5        35.418 5
C08  36069373.297 6 187822703.607 6        -3.264 6        36.824 6  36069370.473 5 145236406.919 5        -2.387 5        35.288 5                                                                
C13  35669659.320 5 185741287.798 5       397.850 5        34.874 5  35669659.930 5 143626939.145 5       307.828 5        30.517 5  35669660.711 5 150930015.616 5       324.609 5        33.720 5
C16  36406075.781 5 189575993.969 5       239.881 5        34.082 5                                                                                                                                
C19  22507863.977 5 117204332.997 5       658.299 5        34.575 5                                                                                                                                
C20  23081336.551 6 120190555.412 6     -1237.229 6        40.477 6                                                                  23081328.707 7  97664661.395 7     -1005.471 7        42.821 7
C32  26824045.711 6 139679840.986 6     -2110.744 6        40.315 6                                                                  26824052.531 6 113501335.194 6     -1714.025 6        37.507 6
C37  25112113.098 7 130765360.108 7       754.588 7        44.117 7                                                                  25112115.566 7 106257576.000 7       612.832 7        44.012 7
> 2020 08 27 07 56 54.0000000  0  8       0.000000000000
C06  36197554.273 7 188490158.522 7        66.225 7        42.936 7                                                                  36197549.758 5 153163683.923 5        53.400 5        35.544 5
C08  36069373.961 6 187822706.689 6        -3.072 6        36.824 6  36069370.918 5 145236409.245 5        -1.053 5        35.418 5                                                                
C13  35669582.645 5 185740888.976 5       399.486 5        34.874 5                                                                  35669584.074 5 150929691.560 5       325.217 5        33.527 5
C16  36406029.902 5 189575753.412 5       240.150 5        34.253 5                                                                                                                                
C19  22507737.574 5 117203673.908 5       659.682 5        34.575 5                                                                                                                                
C20  23081574.352 6 120191792.962 6     -1236.918 6        40.517 6                                                                  23081566.418 7  97665667.018 7     -1005.623 7        42.981 7
C32  26824450.895 6 139681951.008 6     -2109.711 6        40.146 6                                                                  26824457.629 6 113503049.805 6     -1714.373 6        37.507 6
C37  25111968.379 7 130764606.404 7       753.783 7        44.168 7                                                                  25111970.676 7 106256963.552 7       612.268 7        43.959 7
> 2020 08 27 07 56 55.0000000  0  8       0.000000000000
C06  36197541.672 7 188490092.876 7        65.715 7        42.845 7                                                                  36197537.051 5 153163630.534 5        54.326 5        35.666 5
C08  36069374.664 6 187822709.972 6        -3.133 6        36.731 6  36069371.340 5 145236411.863 5        -2.873 5        35.418 5                                                                
C13  35669506.008 5 185740490.400 5       397.746 5        34.874 5                                                                  35669507.559 5 150929367.681 5       323.955 5        34.082 5
C16  36405983.602 5 189575513.038 5       239.465 5        34.417 5                                                                                                                                
C19  22507611.070 5 117203015.123 5       657.961 5        35.017 5                                                                                                                                
C20  23081812.266 6 120193030.653 6     -1237.703 6        40.710 6                                                                  23081804.070 7  97666672.729 7     -1005.674 7        42.981 7
C32  26824856.371 6 139684061.066 6     -2109.654 6        40.397 6                                                                  26824862.695 6 113504764.387 6     -1714.658 6        37.662 6
C37  25111823.594 7 130763853.194 7       752.922 7        43.977 7                                                                  25111826.063 7 106256351.504 7       611.865 7        43.995 7
> 2020 08 27 07 56 56.0000000  0  8       0.000000000000
C06  36197528.973 7 188490027.488 7        65.227 7        42.798 7                                                                  36197524.500 5 153163577.406 5        54.006 5        35.666 5
C08  36069375.309 6 187822713.544 6        -3.113 6        36.635 6  36069372.055 5 145236414.595 5        -1.939 5        35.418 5                                                                
C13  35669429.379 5 185740092.004 5       398.547 5        34.575 5                                                                  35669431.055 5 150929043.995 5       323.361 5        33.905 5
C16  36405937.488 5 189575272.928 5       240.246 5        34.082 5                                                                                                                                
C19  22507485.223 5 117202356.487 5       659.447 5        35.288 5                                                                                                                                
C20  23082050.016 6 120194268.538 6     -1237.859 6        40.273 6                                                                  23082041.766 7  97667678.597 7     -1005.486 7        42.959 7
C32  26825261.570 6 139686171.207 6     -2110.184 6        40.231 6                                                                  26825267.918 6 113506479.043 6     -1714.998 6        37.585 6
C37  25111679.070 7 130763100.545 7       752.396 7        43.850 7                                                                  25111681.531 7 106255739.922 7       611.682 7        43.887 7
> 2020 08 27 07 56 57.0000000  0  8       0.000000000000
C06  36197516.043 7 188489962.125 7        65.574 7        42.751 7                                                                  36197511.859 5 153163524.314 5        54.242 5        35.785 5
C08  36069376.082 6 187822717.168 6        -3.176 6        36.731 6  36069372.793 5 145236417.383 5        -1.586 5        35.544 5                                                                
C13  35669352.957 5 185739693.683 5       397.605 5        34.575 5                                                                  35669354.645 5 150928720.317 5       322.582 5        33.720 5
C16  36405891.438 5 189575032.879 5       239.422 5        34.253 5                                                                                                                                
C19  22507359.000 5 117201698.062 5       658.309 5        35.017 5                                                                                                                                
C20  23082287.746 6 120195506.404 6     -1237.688 6        40.231 6                                                                  23082279.426 7  97668684.475 7     -1005.484 7        42.936 7
C32  26825666.758 6 139688281.195 6     -2109.270 6        40.059 6                                                                  26825673.219 6 113508193.581 6     -1714.703 6        37.427 6
C37  25111534.715 7 130762348.260 7       752.195 7        43.795 7                                                                  25111537.137 7 106255128.643 7       610.863 7        43.758 7
> 2020 08 27 07 56 58.0000000  0  8       0.000000000000
C06  36197503.184 7 188489896.836 7        65.133 7        42.798 7                                                                  36197499.355 5 153163471.307 5        51.846 5        35.785 5
C08  36069376.781 6 187822720.943 6        -5.160 6        36.538 6  36069373.488 5 145236420.267 5        -1.996 5        35.544 5                                                                
C13  35669276.813 5 185739295.400 5       397.164 5        34.417 5                                                                  35669278.121 5 150928396.693 5       322.879 5        34.082 5
C16  36405845.164 5 189574792.910 5       239.391 5        34.253 5                                                                                                                                
C19  22507232.563 5 117201039.667 5       657.496 5        34.417 5                                                                                                                                
C20  23082525.336 6 120196744.314 6     -1238.773 6        40.397 6                                                                  23082517.215 7  97669690.358 7     -1006.182 7        42.981 7
C32  26826071.836 6 139690391.112 6     -2110.705 6        39.834 6                                                                  26826078.332 6 113509908.057 6     -1715.029 6        37.427 6
C37  25111390.566 7 130761596.372 7       751.129 7        43.739 7                                                                  25111392.613 7 106254517.666 7       610.535 7        43.869 7
> 2020 08 27 07 56 59.0000000  0  8       0.000000000000
C06  36197490.395 7 188489831.380 7        65.875 7        42.845 7                                                                  36197486.809 5 153163418.078 5        53.785 5        35.666 5
C08  36069377.797 6 187822724.509 6        -3.051 6        36.824 6  36069374.078 5 145236423.070 5        -2.641 5        35.785 5                                                                
C13  35669200.563 5 185738896.949 5       398.277 5        34.575 5                                                                  35669201.578 5 150928072.870 5       324.410 5        33.720 5
C16  36405799.211 5 189574552.763 5       240.934 5        33.905 5                                                                                                                                
C19  22507106.047 5 117200381.106 5       659.293 5        33.720 5                                                                                                                                
C20  23082762.883 6 120197982.012 6     -1237.875 6        40.315 6                                                                  23082754.965 7  97670696.077 7     -1005.258 7        43.199 7
C32  26826476.945 6 139692500.673 6     -2109.438 6        40.015 6                                                                  26826483.477 6 113511622.226 6     -1713.559 6        37.585 6
C37  25111245.844 7 130760844.635 7       752.125 7        43.701 7                                                                  25111248.270 7 106253906.817 7       611.207 7        43.869 7
> 2020 08 27 07 57  0.0000000  0  8       0.000000000000
C06  36197477.688 7 188489766.377 7        65.027 7        42.845 7                                                                  36197474.293 5 153163365.273 5        52.574 5        35.901 5
C08  36069378.723 6 187822728.591 6        -4.387 6        36.538 6  36069375.000 5 145236426.204 5        -2.285 5        35.666 5                                                                
C13  35669123.965 5 185738498.906 5       398.465 5        34.575 5                                                                  35669124.965 5 150927749.418 5       324.469 5        34.082 5
C16  36405753.059 5 189574313.061 5       241.160 5        34.082 5                                                                                                                                
C19  22506979.762 5 117199723.048 5       659.246 5        33.905 5                                                                                                                                
C20  23083000.660 6 120199220.068 6     -1238.371 6        40.103 6                                                                  23082992.719 7  97671702.106 7     -1005.844 7        43.070 7
C32  26826881.996 6 139694610.469 6     -2109.369 6        39.926 6                                                                  26826888.664 6 113513336.666 6     -1714.906 6        37.346 6
C37  25111101.746 7 130760093.690 7       750.613 7        43.547 7                                                                  25111103.949 7 106253296.598 7       610.563 7        43.701 7
> 2020 08 27 07 57  1.0000000  0  8       0.000000000000
C06  36197464.867 7 188489701.419 7        65.408 7        42.656 7                                                                  36197461.863 5 153163312.508 5        52.301 5        35.666 5
C08  36069379.352 6 187822732.764 6        -4.807 6        36.438 6  36069375.773 5 145236429.466 5        -4.008 5        35.544 5                                                                
C13  35669047.504 5 185738100.913 5       398.670 5        34.082 5                                                                  35669048.543 5 150927426.066 5       323.766 5        33.905 5
C16  36405706.863 5 189574073.515 5       241.092 5        34.417 5                                                                                                                                
C19  22506853.473 5 117199065.100 5       657.361 5        33.720 5                                                                                                                                
C20  23083238.320 6 120200458.169 6     -1238.244 6        39.834 6                                                                  23083230.238 7  97672708.176 7     -1005.959 7        43.048 7
C32  26827287.109 6 139696720.240 6     -2109.746 6        39.834 6                                                                  26827293.898 6 113515050.979 6     -1714.396 6        37.179 6
C37  25110957.387 7 130759343.115 7       750.779 7        43.625 7                                                                  25110959.828 7 106252686.725 7       609.586 7        43.701 7
> 2020 08 27 07 57  2.0000000  0  8       0.000000000000
C06  36197452.457 7 188489636.472 7        64.572 7        42.704 7                                                                  36197449.402 5 153163259.706 5        52.654 5        35.666 5
C08  36069380.035 6 187822736.925 6        -4.256 6        36.538 6  36069376.887 5 145236432.672 5        -3.092 5        35.666 5                                                                
C13  35668970.563 5 185737702.887 5       397.775 5        34.082 5                                                                  35668972.105 5 150927102.670 5       322.068 5        33.720 5
C16  36405660.574 5 189573833.987 5       239.318 5        33.905 5                                                                                                                                
C19  22506727.125 5 117198407.134 5       657.170 5        33.905 5                                                                                                                                
C20  23083476.039 6 120201696.189 6     -1238.611 6        39.880 6                                                                  23083468.004 7  97673714.173 7     -1006.174 7        42.913 7
C32  26827692.027 6 139698829.759 6     -2109.197 6        39.834 6                                                                  26827698.934 6 113516765.138 6     -1713.947 6        37.005 6
C37  25110813.297 7 130758592.855 7       749.924 7        43.507 7                                                                  25110815.738 7 106252077.075 7       609.334 7        43.448 7
> 2020 08 27 07 57  3.0000000  0  8       0.000000000000
C06  36197440.227 7 188489571.553 7        64.037 7        42.775 7                                                                  36197436.813 5 153163206.923 5        52.813 5        35.418 5
C08  36069380.645 6 187822741.162 6        -5.064 6        36.915 6  36069377.461 5 145236435.982 5        -4.498 5        35.418 5                                                                
C13  35668893.938 5 185737304.931 5       398.236 5        34.727 5                                                                  35668895.668 5 150926779.188 5       324.492 5        33.527 5
C16  36405614.680 5 189573594.430 5       239.721 5        33.905 5                                                                                                                                
C19  22506600.742 5 117197749.177 5       657.846 5        33.527 5                                                                                                                                
C20  23083713.609 6 120202934.204 6     -1238.816 6        40.273 6                                                                  23083705.766 7  97674720.161 7     -1006.484 7        42.981 7
C32  26828097.051 6 139700939.177 6     -2109.500 6        39.693 6                                                                  26828104.078 6 113518479.262 6     -1715.547 6        36.915 6
C37  25110669.133 7 130757842.963 7       749.643 7        43.284 7                                                                  25110671.789 7 106251467.701 7       609.180 7        43.325 7
> 2020 08 27 07 57  4.0000000  0  8       0.000000000000
C06  36197427.914 7 188489506.859 7        64.191 7        42.845 7                                                                  36197424.555 5 153163154.358 5        52.596 5        35.666 5
C08  36069381.395 6 187822745.676 6        -5.105 6        36.635 6  36069378.711 5 145236439.492 5        -4.756 5        35.418 5                                                                
C13  35668817.309 5 185736907.213 5       395.695 5        34.417 5                                                                  35668819.191 5 150926456.021 5       322.908 5        34.082 5
C16  36405568.891 5 189573355.202 5       238.449 5        33.905 5                                                                                                                                
C19  22506474.496 5 117197091.642 5       655.891 5        33.720 5                                                                                                                                
C20  23083951.496 6 120204172.425 6     -1239.109 6        40.273 6                                                                  23083943.645 7  97675726.304 7     -1006.584 7        43.092 7
C32  26828502.180 6 139703048.678 6     -2110.008 6        39.788 6                                                                  26828509.055 6 113520193.337 6     -1715.119 6        36.915 6
C37  25110525.145 7 130757093.620 7       748.996 7        43.387 7                                                                  25110527.879 7 106250858.815 7       608.846 7        43.488 7
> 2020 08 27 07 57  5.0000000  0  8       0.000000000000
C06  36197415.609 7 188489442.303 7        64.850 7        42.845 7                                                                  36197412.125 6 153163101.961 6        51.789 6        36.014 6
C08  36069382.395 6 187822750.349 6        -4.506 6        36.731 6  36069379.391 5 145236443.060 5        -3.451 5        35.544 5                                                                
C13  35668740.895 5 185736509.568 5       396.627 5        34.253 5                                                                  35668742.793 5 150926132.869 5       323.996 5        33.527 5
C16  36405523.133 5 189573116.037 5       239.869 5        34.082 5                                                                                                                                
C19  22506348.465 5 117196434.131 5       656.744 5        33.905 5                                                                                                                                
C20  23084189.277 6 120205410.694 6     -1238.061 6        40.231 6                                                                  23084181.492 7  97676732.530 7     -1006.375 7        42.959 7
C32  26828907.164 6 139705158.120 6     -2109.857 6        39.788 6                                                                  26828914.102 6 113521907.427 6     -1713.795 6        37.263 6
C37  25110381.016 7 130756344.756 7       748.541 7        43.304 7                                                                  25110384.156 7 106250250.312 7       607.902 7        43.366 7
> 2020 08 27 07 57  6.0000000  0  8       0.000000000000
C06  36197403.438 7 188489377.900 7        65.254 7        42.936 7                                                                  36197399.898 5 153163049.616 5        52.572 5        35.666 5
C08  36069383.355 6 187822755.208 6        -4.668 6        36.731 6  36069380.133 5 145236446.796 5        -2.689 5        35.544 5                                                                
C13  35668664.906 5 185736112.049 5       397.676 5        33.905 5                                                                  35668666.395 5 150925809.902 5       324.096 5        33.905 5
C16  36405477.480 5 189572877.137 5       238.770 5        34.082 5                                                                                                                                
C19  22506222.145 5 117195776.835 5       657.090 5        33.527 5                                                                                                                                
C20  23084426.840 6 120206649.105 6     -1237.988 6        40.103 6                                                                  23084419.313 7  97677738.830 7     -1006.197 7        43.003 7
C32  26829312.395 6 139707267.541 6     -2108.809 6        40.103 6                                                                  26829319.125 6 113523621.530 6     -1713.756 6        36.915 6
C37  25110237.668 7 130755596.349 7       749.063 7        43.263 7                                                                  25110240.422 7 106249642.172 7       608.393 7        43.427 7
> 2020 08 27 07 57  7.0000000  0  8       0.000000000000
C06  36197390.934 7 188489313.683 7        63.742 7        42.821 7                                                                  36197387.570 5 153162997.408 5        51.838 5        35.666 5
C08  36069384.336 6 187822760.253 6        -5.457 6        37.093 6  36069381.223 5 145236450.749 5        -4.791 5        35.785 5                                                                
C13  35668588.906 5 185735714.670 5       397.980 5        33.720 5                                                                  35668589.980 5 150925487.093 5       321.721 5        33.720 5
C16  36405431.637 5 189572638.344 5       238.039 5        34.253 5                                                                                                                                
C19  22506096.238 5 117195119.755 5       656.438 5        33.113 5                                                                                                                                
C20  23084664.707 6 120207887.621 6     -1238.621 6        39.834 6                                                                  23084657.238 7  97678745.233 7     -1007.186 7        43.026 7
C32  26829717.359 6 139709376.963 6     -2109.910 6        39.788 6                                                                  26829724.148 6 113525335.556 6     -1713.475 6        36.915 6
C37  25110093.695 7 130754848.460 7       747.180 7        43.263 7                                                                  25110096.578 7 106249034.450 7       606.895 7        43.199 7
> 2020 08 27 07 57  8.0000000  0  8       0.000000000000
C06  36197378.477 7 188489249.393 7        63.910 7        42.821 7                                                                  36197375.180 5 153162945.146 5        52.000 5        35.901 5
C08  36069385.398 6 187822765.294 6        -6.129 6        36.731 6  36069382.145 5 145236454.577 5        -3.418 5        35.785 5                                                                
C13  35668512.309 5 185735317.305 5       396.859 5        33.905 5                                                                  35668513.602 5 150925164.164 5       322.820 5        33.905 5
C16  36405385.551 5 189572399.527 5       237.660 5        34.253 5                                                                                                                                
C19  22505970.309 5 117194462.621 5       656.469 5        33.113 5                                                                                                                                
C20  23084902.484 6 120209126.047 6     -1238.551 6        39.788 6                                                                  23084895.172 7  97679751.539 7     -1006.574 7        43.178 7
C32  26830122.406 6 139711486.160 6     -2109.838 6        39.834 6                                                                  26830129.055 6 113527049.454 6     -1713.586 6        36.824 6
C37  25109950.023 7 130754100.831 7       747.074 7        43.221 7                                                                  25109952.871 7 106248426.925 7       607.020 7        43.070 7
> 2020 08 27 07 57  9.0000000  0  8       0.000000000000
C06  36197366.129 7 188489185.305 7        64.254 7        42.868 7                                                                  36197362.922 5 153162893.099 5        51.594 5        35.785 5
C08  36069386.465 6 187822770.537 6        -5.199 6        36.824 6  36069383.066 5 145236458.658 5        -3.318 5        35.666 5                                                                
C13  35668435.746 5 185734920.137 5       396.305 5        34.082 5                                                                  35668437.242 5 150924841.389 5       323.742 5        33.720 5
C16  36405339.613 5 189572160.903 5       239.059 5        34.253 5                                                                                                                                
C19  22505844.348 5 117193805.714 5       657.555 5        33.527 5                                                                                                                                
C20  23085140.473 6 120210364.616 6     -1238.402 6        39.741 6                                                                  23085133.039 7  97680757.980 7     -1005.947 7        43.221 7
C32  26830527.492 6 139713595.377 6     -2109.242 6        39.880 6                                                                  26830534.047 6 113528763.378 6     -1713.291 6        36.915 6
C37  25109806.781 7 130753353.708 7       747.223 7        43.026 7                                                                  25109809.406 7 106247819.836 7       607.316 7        43.092 7
> 2020 08 27 07 57 10.0000000  0  8       0.000000000000
C06  36197354.289 7 188489121.340 7        63.766 7        42.845 7                                                                  36197350.711 5 153162841.139 5        52.021 5        35.666 5
C08  36069387.504 6 187822775.925 6        -4.184 6        36.915 6  36069383.965 5 145236462.869 5        -4.627 5        35.418 5                                                                
C13  35668359.516 5 185734522.994 5       398.336 5        33.720 5  35668358.551 5 143621688.217 5       305.119 5        30.895 5  35668360.996 5 150924518.739 5       322.197 5        33.325 5
C16  36405293.824 5 189571922.486 5       237.828 5        34.417 5                                                                                                                                
C19  22505718.355 5 117193148.983 5       656.930 5        33.325 5                                                                                                                                
C20  23085378.043 6 120211603.259 6     -1238.580 6        39.597 6                                                                  23085370.934 7  97681764.483 7     -1006.299 7        43.026 7
C32  26830932.410 6 139715704.584 6     -2110.006 6        39.693 6                                                                  26830939.086 6 113530477.292 6     -1714.775 6        36.538 6
C37  25109663.156 7 130752607.074 7       745.777 7        42.936 7                                                                  25109665.902 7 106247213.122 7       606.846 7        42.959 7
> 2020 08 27 07 57 11.0000000  0  8       0.000000000000
C06  36197342.297 7 188489057.530 7        63.209 7        42.891 7                                                                  36197338.504 5 153162789.287 5        51.215 5        35.785 5
C08  36069388.500 6 187822781.505 6        -5.656 6        36.731 6  36069385.316 5 145236467.170 5        -4.854 5        35.666 5                                                                
C13  35668283.348 5 185734126.011 5       396.393 5        33.527 5  35668282.953 5 143621381.183 5       306.025 5        30.895 5  35668284.793 5 150924196.157 5       321.996 5        33.527 5
C16  36405247.957 5 189571684.148 5       237.838 5        34.082 5                                                                                                                                
C19  22505591.926 5 117192492.399 5       656.939 5        32.656 5                                                                                                                                
C20  23085615.711 6 120212842.007 6     -1238.820 6        39.741 6                                                                  23085609.043 7  97682771.076 7     -1007.262 7        43.135 7
C32  26831337.461 6 139717813.717 6     -2109.641 6        39.645 6                                                                  26831344.027 6 113532191.106 6     -1714.371 6        36.824 6
C37  25109519.625 7 130751860.873 7       745.592 7        42.845 7                                                                  25109522.473 7 106246606.801 7       605.863 7        42.821 7
> 2020 08 27 07 57 12.0000000  0  8       0.000000000000
C06  36197330.027 7 188488993.658 7        63.752 7        42.821 7                                                                  36197326.449 5 153162737.363 5        51.203 5        35.666 5
C08  36069389.680 6 187822787.078 6        -6.912 6        36.731 6  36069386.531 5 145236471.433 5        -4.012 5        35.666 5                                                                
C13  35668206.867 5 185733728.896 5       398.498 5        33.325 5  35668206.938 5 143621074.229 5       305.600 5        30.517 5  35668208.477 5 150923873.497 5       323.566 5        34.082 5
C16  36405202.094 5 189571445.781 5       239.299 5        33.720 5                                                                                                                                
C19  22505465.898 5 117191835.803 5       656.721 5        33.527 5                                                                                                                                
C20  23085853.422 6 120214080.621 6     -1238.064 6        39.693 6                                                                  23085847.051 7  97683777.559 7     -1006.609 7        42.891 7
C32  26831742.555 6 139719922.629 6     -2108.396 6        39.645 6                                                                  26831748.934 6 113533904.762 6     -1713.133 6        36.731 6
C37  25109376.246 7 130751114.941 7       745.822 7        42.680 7                                                                  25109379.086 7 106246000.663 7       606.027 7        42.728 7
> 2020 08 27 07 57 13.0000000  0  8       0.000000000000
C06  36197317.926 7 188488930.009 7        64.016 7        42.656 7                                                                  36197314.246 5 153162685.687 5        50.488 5        35.666 5
C08  36069391.027 6 187822792.841 6        -4.871 6        36.824 6  36069387.594 5 145236475.970 5        -4.512 5        35.418 5                                                                
C13  35668130.730 5 185733332.149 5       398.098 5        33.527 5  35668131.480 5 143620767.327 5       307.207 5        30.517 5  35668132.309 5 150923551.074 5       321.699 5        33.720 5
C16  36405156.547 5 189571207.717 5       238.254 5        34.253 5                                                                                                                                
C19  22505339.680 5 117191179.443 5       657.141 5        32.891 5                                                                                                                                
C20  23086091.266 6 120215319.458 6     -1238.074 6        39.397 6                                                                  23086084.891 7  97684784.190 7     -1006.309 7        42.798 7
C32  26832147.492 6 139722031.646 6     -2109.617 6        39.597 6                                                                  26832153.852 6 113535618.505 6     -1713.652 6        36.538 6
C37  25109233.180 7 130750369.583 7       745.695 7        42.433 7                                                                  25109235.898 7 106245395.005 7       605.547 7        42.680 7
> 2020 08 27 07 57 14.0000000  0  8       0.000000000000
C06  36197305.691 7 188488866.334 7        64.447 7        42.913 7                                                                  36197302.082 6 153162633.895 6        51.678 6        36.014 6
C08  36069392.242 6 187822798.665 6        -5.045 6        37.179 6  36069388.523 5 145236480.421 5        -3.143 5        35.418 5                                                                
C13  35668054.531 5 185732935.279 5       398.080 5        33.720 5  35668055.785 5 143620460.441 5       306.877 5        30.517 5  35668056.098 5 150923228.569 5       323.318 5        33.720 5
C16  36405110.754 5 189570969.647 5       237.299 5        34.253 5                                                                                                                                
C19  22505213.652 5 117190523.065 5       657.006 5        33.325 5                                                                                                                                
C20  23086329.012 6 120216558.219 6     -1238.189 6        39.397 6                                                                  23086322.703 7  97685790.782 7     -1006.096 7        43.003 7
C32  26832552.332 6 139724140.418 6     -2108.717 6        39.788 6                                                                  26832558.773 6 113537332.053 6     -1713.518 6        36.731 6
C37  25109090.051 7 130749624.524 7       745.229 7        42.483 7                                                                  25109092.762 7 106244789.581 7       605.350 7        42.508 7
> 2020 08 27 07 57 15.0000000  0  8       0.000000000000
C06  36197293.762 7 188488803.073 7        63.340 7        42.891 7                                                                  36197289.777 5 153162582.509 5        51.592 5        35.785 5
C08  36069393.660 6 187822804.905 6        -6.094 6        36.915 6  36069389.543 5 145236485.277 5        -5.408 5        35.544 5                                                                
C13  35667978.570 5 185732538.779 5       397.480 5        33.325 5  35667979.641 5 143620153.878 5       306.760 5        30.517 5  35667979.922 5 150922906.427 5       322.100 5        33.325 5
C16  36405065.129 5 189570731.950 5       236.641 5        34.082 5                                                                                                                                
C19  22505087.645 5 117189867.168 5       655.645 5        33.527 5                                                                                                                                
C20  23086566.852 6 120217797.317 6     -1239.199 6        39.834 6                                                                  23086560.734 7  97686797.666 7     -1007.295 7        43.092 7
C32  26832957.410 6 139726249.413 6     -2108.496 6        39.926 6                                                                  26832963.813 6 113539045.811 6     -1713.701 6        36.824 6
C37  25108947.016 7 130748880.178 7       744.375 7        42.382 7                                                                  25108949.777 7 106244184.742 7       604.875 7        42.483 7
> 2020 08 27 07 57 16.0000000  0  8       0.000000000000
C06  36197281.672 7 188488739.744 7        63.055 7        42.821 7  36197273.840 5 145751382.826 5        49.070 5        34.253 5  36197277.559 5 153162531.014 5        51.896 5        35.666 5
C08  36069395.129 6 187822811.118 6        -6.320 6        36.915 6  36069390.406 5 145236490.063 5        -5.832 5        35.785 5                                                                
C13  35667902.199 5 185732142.224 5       397.977 5        33.325 5  35667903.520 5 143619847.204 5       307.020 5        30.895 5  35667903.785 5 150922584.151 5       323.088 5        33.325 5
C16  36405019.414 5 189570494.150 5       238.953 5        34.253 5                                                                                                                                
C19  22504961.617 5 117189211.183 5       656.707 5        33.527 5                                                                                                                                
C20  23086804.566 6 120219036.275 6     -1238.625 6        39.788 6                                                                  23086798.680 7  97687804.433 7     -1006.873 7        43.026 7
C32  26833362.543 6 139728358.204 6     -2108.998 6        39.645 6                                                                  26833368.688 6 113540759.329 6     -1712.732 6        36.231 6
C37  25108804.211 7 130748136.086 7       744.480 7        42.225 7                                                                  25108806.766 7 106243580.107 7       604.943 7        42.433 7
> 2020 08 27 07 57 17.0000000  0  8       0.000000000000
C06  36197269.684 7 188488676.567 7        63.389 7        42.821 7  36197262.313 5 145751334.022 5        47.002 5        34.253 5  36197265.398 6 153162479.710 6        51.818 6        36.014 6
C08  36069396.555 6 187822817.512 6        -5.791 6        37.093 6  36069391.938 5 145236494.985 5        -4.307 5        35.785 5                                                                
C13  35667826.102 5 185731745.821 5       397.334 5        33.720 5  35667827.461 5 143619540.699 5       306.533 5        30.517 5  35667827.504 5 150922262.083 5       320.664 5        33.720 5
C16  36404973.762 5 189570256.611 5       238.174 5        33.720 5                                                                                                                                
C19  22504835.941 5 117188555.438 5       655.537 5        33.527 5                                                                                                                                
C20  23087042.738 6 120220275.373 6     -1238.701 6        39.693 6                                                                  23087036.871 7  97688811.277 7     -1006.209 7        43.092 7
C32  26833767.668 6 139730466.983 6     -2108.604 6        39.741 6                                                                  26833773.512 6 113542472.896 6     -1713.025 6        36.438 6
C37  25108661.438 7 130747392.513 7       743.584 7        42.198 7                                                                  25108664.012 7 106242975.897 7       603.867 7        42.382 7
> 2020 08 27 07 57 18.0000000  0  8       0.000000000000
C06  36197257.445 7 188488613.377 7        63.160 7        42.868 7  36197251.004 5 145751285.088 5        49.184 5        34.253 5  36197253.223 5 153162428.371 5        51.398 5        35.901 5
C08  36069397.656 6 187822823.950 6        -6.430 6        37.005 6  36069393.328 5 145236499.953 5        -4.645 5        35.544 5                                                                
C13  35667750.078 5 185731349.420 5       396.305 5        33.905 5  35667751.367 5 143619234.061 5       307.719 5        30.517 5  35667751.434 5 150921939.905 5       321.945 5        33.527 5
C16  36404928.039 5 189570019.068 5       237.027 5        34.082 5                                                                                                                                
C19  22504710.051 5 117187899.693 5       654.682 5        33.113 5                                                                                                                                
C20  23087280.910 6 120221514.429 6     -1238.773 6        39.834 6                                                                  23087275.008 7  97689818.108 7     -1006.490 7        43.221 7
C32  26834172.574 6 139732575.577 6     -2108.090 6        39.645 6                                                                  26834178.344 6 113544186.282 6     -1712.955 6        36.335 6
C37  25108518.305 7 130746649.245 7       742.904 7        42.090 7                                                                  25108521.289 7 106242371.921 7       604.094 7        42.144 7
> 2020 08 27 07 57 19.0000000  0  8       0.000000000000
C06  36197245.203 7 188488550.511 7        63.334 7        42.913 7  36197239.191 5 145751236.479 5        49.641 5        34.082 5  36197241.059 5 153162377.291 5        51.291 5        35.901 5
C08  36069398.688 6 187822830.737 6        -6.803 6        36.824 6  36069394.680 5 145236505.187 5        -4.598 5        35.418 5                                                                
C13  35667673.840 5 185730953.322 5       395.736 5        33.527 5  35667675.414 5 143618927.858 5       306.086 5        30.517 5  35667675.387 5 150921618.002 5       322.717 5        33.720 5
C16  36404882.422 5 189569781.820 5       237.943 5        34.417 5                                                                                                                                
C19  22504583.875 5 117187244.265 5       655.873 5        33.527 5                                                                                                                                
C20  23087518.684 6 120222753.726 6     -1238.875 6        39.645 6                                                                  23087513.027 7  97690825.163 7     -1007.068 7        43.092 7
C32  26834577.484 6 139734684.330 6     -2108.660 6        39.693 6                                                                  26834583.215 6 113545899.813 6     -1712.832 6        36.231 6
C37  25108375.777 7 130745906.586 7       743.080 7        42.006 7                                                                  25108378.688 7 106241768.475 7       603.479 7        42.278 7
> 2020 08 27 07 57 20.0000000  0  8       0.000000000000
C06  36197233.402 7 188488487.741 7        62.941 7        42.775 7  36197227.395 5 145751187.963 5        49.029 5        34.082 5  36197229.102 5 153162326.267 5        51.166 5        35.901 5
C08  36069400.266 6 187822837.613 6        -6.297 6        37.005 6  36069396.012 5 145236510.555 5        -5.443 5        35.544 5                                                                
C13  35667597.508 5 185730557.247 5       397.023 5        33.720 5  35667599.617 5 143618621.615 5       307.232 5        31.242 5  35667599.480 5 150921296.246 5       321.518 5        33.720 5
C16  36404836.852 5 189569544.733 5       236.672 5        34.082 5                                                                                                                                
C19  22504457.777 5 117186589.033 5       654.191 5        33.527 5                                                                                                                                
C20  23087756.723 6 120223993.114 6     -1239.244 6        39.741 6                                                                  23087751.121 7  97691832.245 7     -1006.996 7        43.178 7
C32  26834982.332 6 139736792.998 6     -2108.443 6        39.597 6                                                                  26834988.117 5 113547613.277 5     -1712.738 5        35.901 5
C37  25108233.262 7 130745164.412 7       742.121 7        42.034 7                                                                  25108236.109 7 106241165.366 7       603.275 7        42.034 7
> 2020 08 27 07 57 21.0000000  0  8       0.000000000000
C06  36197221.164 7 188488425.075 7        63.055 7        42.845 7  36197215.691 5 145751139.527 5        47.531 5        33.905 5  36197216.984 5 153162275.330 5        51.391 5        35.785 5
C08  36069401.191 6 187822844.603 6        -6.281 6        36.915 6  36069397.398 5 145236515.924 5        -4.402 5        35.666 5                                                                
C13  35667521.234 5 185730161.306 5       396.160 5        33.527 5  35667523.379 5 143618315.466 5       304.523 5        30.895 5  35667523.387 5 150920974.496 5       321.332 5        33.527 5
C16  36404791.234 5 189569307.758 5       237.195 5        33.905 5                                                                                                                                
C19  22504331.672 5 117185933.794 5       656.336 5        33.325 5                                                                                                                                
C20  23087994.859 6 120225232.525 6     -1239.582 6        39.834 6                                                                  23087989.164 7  97692839.368 7     -1006.832 7        43.199 7
C32  26835387.453 6 139738901.576 6     -2108.703 6        39.741 6                                                                  26835393.055 5 113549326.674 5     -1713.549 5        35.901 5
C37  25108090.738 7 130744422.605 7       741.941 7        42.034 7                                                                  25108093.664 7 106240562.607 7       602.914 7        42.034 7
> 2020 08 27 07 57 22.0000000  0  8       0.000000000000
C06  36197209.113 7 188488362.415 7        63.002 7        42.751 7  36197203.820 5 145751091.030 5        48.820 5        34.253 5  36197204.855 5 153162224.423 5        51.256 5        35.666 5
C08  36069402.559 6 187822851.688 6        -7.271 6        37.005 6  36069398.695 5 145236521.407 5        -5.418 5        35.544 5                                                                
C13  35667445.078 5 185729765.386 5       395.795 5        33.325 5  35667447.082 5 143618009.308 5       305.756 5        30.517 5  35667447.375 5 150920652.784 5       321.842 5        33.325 5
C16  36404745.668 5 189569070.757 5       237.592 5        33.905 5                                                                                                                                
C19  22504206.223 5 117185278.660 5       655.307 5        33.720 5                                                                                                                                
C20  23088232.828 6 120226471.874 6     -1238.973 6        39.788 6                                                                  23088227.176 7  97693846.447 7     -1006.771 7        43.003 7
C32  26835792.375 6 139741010.055 6     -2109.578 6        39.834 6                                                                  26835797.836 5 113551039.971 5     -1713.998 5        35.785 5
C37  25107948.582 6 130743681.188 6       741.381 6        41.950 6                                                                  25107951.145 6 106239960.140 6       602.076 6        41.921 6
> 2020 08 27 07 57 23.0000000  0  8       0.000000000000
C06  36197197.051 7 188488300.153 7        62.541 7        42.751 7  36197191.793 5 145751042.889 5        48.934 5        34.082 5  36197192.973 5 153162173.901 5        48.730 5        35.666 5
C08  36069404.055 6 187822859.178 6        -8.416 6        36.915 6  36069399.727 5 145236527.178 5        -6.066 5        35.288 5                                                                
C13  35667368.875 5 185729369.810 5       396.018 5        33.720 5  35667371.094 5 143617703.395 5       305.867 5        30.517 5  35667371.480 5 150920331.328 5       322.539 5        33.325 5
C16  36404700.086 5 189568834.231 5       235.314 5        33.720 5                                                                                                                                
C19  22504080.656 5 117184623.946 5       656.018 5        33.527 5                                                                                                                                
C20  23088470.641 6 120227711.629 6     -1240.154 6        39.693 6                                                                  23088465.215 7  97694853.831 7     -1007.500 7        43.092 7
C32  26836197.500 6 139743118.668 6     -2108.125 6        39.693 6                                                                  26836202.578 5 113552753.406 5     -1713.516 5        35.666 5
C37  25107806.559 6 130742940.471 6       740.256 6        41.864 6                                                                  25107808.996 6 106239358.229 6       601.934 6        41.656 6
> 2020 08 27 07 57 24.0000000  0  8       0.000000000000
C06  36197184.938 7 188488237.852 7        62.324 7        42.632 7  36197180.215 5 145750994.717 5        48.406 5        34.253 5  36197181.004 5 153162123.238 5        50.432 5        35.785 5
C08  36069405.426 6 187822866.630 6        -8.164 6        37.179 6  36069401.133 5 145236532.956 5        -6.652 5        35.288 5                                                                
C13  35667292.762 5 185728974.153 5       396.445 5        33.720 5  35667294.980 5 143617397.413 5       307.215 5        30.895 5  35667295.559 5 150920009.845 5       320.920 5        33.527 5
C16  36404654.488 5 189568597.612 5       235.918 5        34.253 5                                                                                                                                
C19  22503954.887 5 117183969.273 5       653.633 5        33.527 5                                                                                                                                
C20  23088708.578 6 120228951.270 6     -1240.723 6        39.548 6                                                                  23088703.195 7  97695861.151 7     -1007.654 7        43.026 7
C32  26836602.281 6 139745227.136 6     -2108.867 6        39.693 6                                                                  26836607.313 5 113554466.667 5     -1712.830 5        35.288 5
C37  25107664.051 6 130742200.028 6       740.000 6        41.717 6                                                                  25107666.953 6 106238756.566 6       601.193 6        41.717 6
> 2020 08 27 07 57 25.0000000  0  8       0.000000000000
C06  36197172.848 7 188488175.653 7        62.455 7        42.821 7  36197168.340 5 145750946.638 5        48.432 5        34.575 5  36197168.934 5 153162072.668 5        50.828 5        35.418 5
C08  36069406.859 6 187822874.218 6        -7.975 6        37.093 6  36069402.672 5 145236538.777 5        -5.318 5        35.418 5                                                                
C13  35667217.105 5 185728578.671 5       394.271 5        33.905 5  35667218.895 5 143617091.568 5       307.396 5        30.895 5  35667219.652 5 150919688.478 5       320.340 5        33.527 5
C16  36404609.094 5 189568361.107 5       236.889 5        33.905 5                                                                                                                                
C19  22503829.223 5 117183314.643 5       654.838 5        33.720 5                                                                                                                                
C20  23088946.863 6 120230190.903 6     -1238.600 6        39.645 6                                                                  23088941.270 7  97696868.482 7     -1007.395 7        43.003 7
C32  26837007.164 6 139747335.499 6     -2107.838 6        39.693 6                                                                  26837012.012 5 113556179.899 5     -1712.980 5        35.288 5
C37  25107521.891 6 130741460.020 6       739.955 6        41.626 6                                                                  25107524.938 6 106238155.249 6       601.336 6        41.717 6
> 2020 08 27 07 57 26.0000000  0  8       0.000000000000
C06  36197161.059 7 188488113.702 7        61.303 7        42.868 7  36197156.586 5 145750898.753 5        46.713 5        34.253 5  36197157.016 5 153162022.292 5        51.373 5        35.666 5
C08  36069408.555 6 187822882.057 6        -7.740 6        36.915 6  36069404.012 5 145236544.914 5        -7.174 5        35.544 5                                                                
C13  35667141.141 5 185728183.333 5       395.502 5        33.905 5  35667143.141 5 143616785.936 5       306.303 5        30.895 5  35667143.602 5 150919367.214 5       321.803 5        33.720 5
C16  36404564.105 5 189568124.899 5       237.201 5        33.905 5                                                                                                                                
C19  22503703.316 5 117182660.390 5       653.432 5        33.720 5                                                                                                                                
C20  23089185.090 6 120231430.812 6     -1240.143 6        39.498 6                                                                  23089179.375 7  97697875.988 7     -1007.885 7        42.981 7
C32  26837412.094 6 139749443.966 6     -2108.209 6        39.548 6                                                                  26837416.770 5 113557893.159 5     -1712.729 5        35.154 5
C37  25107380.102 6 130740720.591 6       738.275 6        41.438 6                                                                  25107382.836 6 106237554.375 6       601.141 6        41.533 6
> 2020 08 27 07 57 27.0000000  0  8       0.000000000000
C06  36197149.258 7 188488051.753 7        61.965 7        42.728 7  36197144.824 5 145750850.811 5        48.449 5        34.253 5  36197145.152 5 153161971.989 5        50.205 5        35.901 5
C08  36069410.207 6 187822889.974 6        -8.191 6        37.005 6  36069405.234 5 145236551.019 5        -6.180 5        35.418 5                                                                
C13  35667065.055 5 185727788.030 5       395.559 5        33.905 5  35667067.023 5 143616480.288 5       305.070 5        30.517 5  35667067.703 5 150919045.990 5       321.650 5        33.113 5
C16  36404518.609 5 189567888.751 5       236.379 5        33.905 5                                                                                                                                
C19  22503577.828 5 117182006.049 5       655.227 5        33.527 5                                                                                                                                
C20  23089423.309 6 120232670.640 6     -1239.869 6        39.294 6                                                                  23089417.422 7  97698883.460 7     -1007.275 7        43.026 7
C32  26837816.617 6 139751552.279 6     -2108.014 6        39.448 6                                                                  26837821.457 5 113559606.326 5     -1712.607 5        35.418 5
C37  25107238.270 6 130739981.474 6       738.742 6        41.242 6                                                                  25107240.816 6 106236953.816 6       600.791 6        41.533 6
> 2020 08 27 07 57 28.0000000  0  8       0.000000000000
C06  36197137.348 7 188487989.728 7        61.826 7        42.821 7  36197132.770 5 145750802.915 5        46.586 5        34.417 5  36197133.129 5 153161921.599 5        49.922 5        35.785 5
C08  36069411.566 6 187822897.824 6        -7.686 6        36.915 6  36069406.523 5 145236557.093 5        -5.426 5        35.288 5                                                                
C13  35666988.859 5 185727392.590 5       396.553 5        34.082 5  35666990.828 5 143616174.492 5       307.406 5        31.564 5  35666991.809 5 150918724.700 5       322.578 5        33.325 5
C16  36404473.285 5 189567652.471 5       237.275 5        33.720 5                                                                                                                                
C19  22503452.195 5 117181351.714 5       655.850 5        33.325 5                                                                                                                                
C20  23089661.309 6 120233910.353 6     -1238.936 6        39.188 6                                                                  23089655.473 7  97699890.830 7     -1006.738 7        43.178 7
C32  26838221.465 6 139753660.337 6     -2108.152 6        39.397 6                                                                  26838226.285 5 113561319.314 5     -1711.992 5        35.154 5
C37  25107096.359 6 130739242.611 6       739.404 6        41.072 6                                                                  25107098.863 6 106236353.456 6       600.313 6        41.564 6
> 2020 08 27 07 57 29.0000000  0  8       0.000000000000
C06  36197125.746 7 188487928.401 7        60.900 7        42.913 7  36197120.914 5 145750755.461 5        46.547 5        34.575 5  36197121.352 5 153161871.724 5        50.078 5        35.544 5
C08  36069412.984 6 187822906.418 6        -8.709 6        36.824 6  36069408.371 5 145236563.688 5        -5.777 5        35.666 5                                                                
C13  35666912.973 5 185726997.878 5       395.373 5        34.082 5  35666915.441 5 143615869.310 5       305.434 5        31.242 5  35666915.879 5 150918403.963 5       320.391 5        33.527 5
C16  36404427.949 5 189567416.904 5       236.311 5        34.082 5                                                                                                                                
C19  22503326.727 5 117180698.099 5       653.107 5        33.527 5                                                                                                                                
C20  23089899.363 6 120235150.714 6     -1240.115 6        39.134 6                                                                  23089893.820 7  97700898.719 7     -1007.813 7        43.263 7
C32  26838626.184 6 139755768.895 6     -2108.650 6        39.346 6                                                                  26838630.992 5 113563032.732 5     -1714.258 5        34.874 5
C37  25106954.863 6 130738504.774 6       737.777 6        41.037 6                                                                  25106957.094 6 106235753.865 6       600.195 6        41.533 6
> 2020 08 27 07 57 30.0000000  0  8       0.000000000000
C06  36197113.789 7 188487867.262 7        61.143 7        42.680 7  36197109.102 5 145750708.222 5        45.602 5        34.727 5  36197109.602 5 153161822.057 5        50.246 5        35.666 5
C08  36069414.730 6 187822915.215 6        -8.994 6        36.824 6  36069410.402 5 145236570.508 5        -6.566 5        35.544 5                                                                
C13  35666836.875 5 185726603.377 5       394.658 5        34.253 5  35666839.879 5 143615564.173 5       304.625 5        30.895 5  35666840.059 5 150918083.401 5       320.852 5        33.720 5
C16  36404382.508 5 189567181.562 5       235.830 5        33.720 5                                                                                                                                
C19  22503201.156 5 117180044.706 5       654.715 5        33.325 5                                                                                                                                
C20  23090137.531 6 120236391.248 6     -1240.361 6        39.024 6                                                                  23090131.965 7  97701906.758 7     -1008.348 7        43.199 7
C32  26839031.090 6 139757877.503 6     -2109.365 6        39.134 6                                                                  26839035.887 5 113564746.095 5     -1713.387 5        35.288 5
C37  25106812.871 6 130737767.477 6       737.234 6        40.785 6                                                                  25106815.566 6 106235154.776 6       598.938 6        41.374 6
> 2020 08 27 07 57 31.0000000  0  8       0.000000000000
C06  36197102.121 7 188487806.046 7        61.211 7        42.728 7  36197097.543 5 145750660.819 5        47.641 5        34.253 5  36197097.898 5 153161772.321 5        49.910 5        35.666 5
C08  36069415.871 6 187822923.992 6       -10.000 6        37.179 6  36069412.293 5 145236577.305 5        -7.672 5        35.666 5                                                                
C13  35666761.105 5 185726208.752 5       393.164 5        33.905 5  35666764.180 5 143615259.079 5       303.754 5        30.517 5  35666764.203 5 150917762.767 5       319.363 5        33.527 5
C16  36404337.215 5 189566946.221 5       235.137 5        33.720 5                                                                                                                                
C19  22503075.801 5 117179391.248 5       654.238 5        33.113 5                                                                                                                                
C20  23090375.633 6 120237631.654 6     -1241.699 6        38.854 6                                                                  23090370.031 7  97702914.672 7     -1008.176 7        43.199 7
C32  26839436.180 6 139759985.868 6     -2109.607 6        39.134 6                                                                  26839440.602 5 113566459.253 5     -1711.867 5        34.874 5
C37  25106671.563 6 130737030.438 6       735.957 6        40.672 6                                                                  25106673.883 6 106234555.857 6       598.445 6        41.342 6
> 2020 08 27 07 57 32.0000000  0  8       0.000000000000
C06  36197090.227 7 188487744.897 7        61.137 7        42.558 7  36197085.609 5 145750613.515 5        48.607 5        34.253 5  36197086.184 5 153161722.656 5        48.713 5        35.666 5
C08  36069417.746 6 187822932.798 6        -8.785 6        37.093 6  36069413.988 5 145236584.121 5        -7.174 5        35.418 5                                                                
C13  35666685.676 5 185725814.126 5       394.945 5        34.082 5  35666688.000 5 143614953.884 5       305.502 5        30.517 5  35666688.422 5 150917442.073 5       322.150 5        33.113 5
C16  36404291.977 5 189566710.930 5       234.145 5        33.720 5                                                                                                                                
C19  22502950.363 5 117178737.966 5       652.270 5        33.325 5                                                                                                                                
C20  23090613.898 6 120238872.021 6     -1240.348 6        38.736 6                                                                  23090608.250 7  97703922.573 7     -1007.674 7        43.003 7
C32  26839841.039 6 139762094.118 6     -2109.469 6        38.854 6                                                                  26839845.410 5 113568172.412 5     -1712.869 5        34.575 5
C37  25106530.277 6 130736293.754 6       736.156 6        40.595 6                                                                  25106532.371 6 106233957.225 6       598.830 6        41.242 6
> 2020 08 27 07 57 33.0000000  0  8       0.000000000000
C06  36197078.383 7 188487683.721 7        61.014 7        42.607 7  36197073.875 5 145750566.278 5        46.379 5        34.253 5  36197074.461 5 153161672.892 5        50.777 5        35.785 5
C08  36069419.281 6 187822941.670 6        -8.771 6        37.346 6  36069415.668 5 145236590.972 5        -7.020 5        35.666 5                                                                
C13  35666609.941 5 185725419.546 5       393.514 5        34.082 5  35666611.980 5 143614648.819 5       304.816 5        30.895 5  35666612.680 5 150917121.441 5       320.113 5        32.891 5
C16  36404246.543 5 189566475.619 5       233.709 5        33.527 5                                                                                                                                
C19  22502825.012 5 117178084.570 5       653.299 5        33.720 5                                                                                                                                
C20  23090852.000 6 120240112.344 6     -1240.607 6        38.616 6                                                                  23090846.410 7  97704930.470 7     -1008.441 7        43.003 7
C32  26840245.949 6 139764202.155 6     -2108.498 6        39.024 6                                                                  26840250.215 5 113569885.384 5     -1713.441 5        34.575 5
C37  25106388.574 6 130735557.377 6       736.346 6        40.397 6                                                                  25106390.930 6 106233358.878 6       598.395 6        41.107 6
> 2020 08 27 07 57 34.0000000  0  8       0.000000000000
C06  36197066.746 7 188487622.926 7        61.008 7        42.583 7  36197062.133 5 145750519.222 5        47.070 5        34.417 5  36197062.695 5 153161623.566 5        49.080 5        35.901 5
C08  36069420.953 6 187822950.956 6        -9.227 6        37.005 6  36069417.340 5 145236598.198 5        -8.633 5        35.288 5                                                                
C13  35666534.344 5 185725025.280 5       394.152 5        34.417 5  35666536.383 5 143614343.955 5       305.703 5        30.895 5  35666536.984 5 150916801.040 5       322.029 5        33.325 5
C16  36404201.066 5 189566240.667 5       233.879 5        33.720 5                                                                                                                                
C19  22502699.582 5 117177431.603 5       653.723 5        33.325 5                                                                                                                                
C20  23091090.023 6 120241353.009 6     -1240.008 6        38.676 6                                                                  23091084.680 7  97705938.601 7     -1008.205 7        43.048 7
C32  26840650.891 6 139766310.424 6     -2108.270 6        38.911 6                                                                  26840655.043 5 113571598.530 5     -1714.377 5        34.575 5
C37  25106247.051 6 130734821.740 6       735.166 6        40.231 6                                                                  25106249.563 6 106232761.099 6       597.850 6        41.175 6
> 2020 08 27 07 57 35.0000000  0  8       0.000000000000
C06  36197054.992 7 188487562.179 7        60.605 7        42.583 7  36197050.199 5 145750472.298 5        46.057 5        34.727 5  36197050.930 5 153161574.152 5        50.121 5        35.901 5
C08  36069422.758 6 187822960.281 6        -9.336 6        37.263 6  36069419.250 5 145236605.384 5        -8.318 5        35.666 5                                                                
C13  35666458.484 5 185724631.046 5       393.965 5        34.575 5  35666460.809 5 143614039.101 5       305.334 5        30.517 5  35666461.238 5 150916480.705 5       321.332 5        33.527 5
C16  36404155.473 5 189566005.806 5       234.375 5        33.720 5                                                                                                                                
C19  22502574.500 5 117176778.725 5       653.145 5        32.891 5                                                                                                                                
C20  23091328.145 6 120242593.688 6     -1241.115 6        38.676 6                                                                  23091322.949 7  97706946.731 7     -1008.434 7        43.070 7
C32  26841055.715 6 139768418.500 6     -2107.053 6        38.854 6                                                                  26841059.734 5 113573311.564 5     -1714.059 5        34.417 5
C37  25106105.727 6 130734086.433 6       735.508 6        40.189 6                                                                  25106108.309 6 106232163.637 6       596.449 6        40.967 6
> 2020 08 27 07 57 36.0000000  0  8       0.000000000000
C06  36197043.195 7 188487501.400 7        60.070 7        42.508 7  36197038.867 5 145750425.263 5        46.170 5        34.575 5  36197039.473 5 153161524.755 5        50.021 5        35.785 5
C08  36069424.875 6 187822969.615 6        -9.344 6        37.005 6  36069421.227 5 145236612.589 5        -8.068 5        35.785 5                                                                
C13  35666382.902 5 185724236.786 5       394.074 5        34.417 5                                                                  35666385.680 5 150916160.357 5       320.998 5        33.325 5
C16  36404110.156 5 189565770.890 5       235.031 5        33.720 5                                                                                                                                
C19  22502449.051 5 117176125.847 5       653.039 5        32.891 5                                                                                                                                
C20  23091566.004 6 120243834.264 6     -1241.063 6        38.854 6                                                                  23091561.109 7  97707954.790 7     -1008.182 7        43.135 7
C32  26841460.527 6 139770526.454 6     -2107.352 6        38.491 6                                                                  26841464.469 5 113575024.419 5     -1713.865 5        34.417 5
C37  25105964.570 6 130733351.447 6       733.879 6        39.971 6                                                                  25105967.184 6 106231566.374 6       596.740 6        41.072 6
> 2020 08 27 07 57 37.0000000  0  8       0.000000000000
C06  36197031.652 7 188487440.607 7        60.852 7        42.483 7  36197027.215 5 145750378.262 5        47.033 5        34.575 5  36197027.867 6 153161475.393 6        49.541 6        36.231 6
C08  36069426.605 6 187822978.960 6        -9.051 6        36.824 6  36069423.422 6 145236619.817 6        -6.834 6        36.124 6                                                                
C13  35666307.074 5 185723842.578 5       393.059 5        34.575 5                                                                  35666309.922 5 150915840.016 5       320.732 5        33.325 5
C16  36404065.023 5 189565535.969 5       234.680 5        33.527 5                                                                                                                                
C19  22502323.641 5 117175472.990 5       652.512 5        33.113 5                                                                                                                                
C20  23091804.371 6 120245074.771 6     -1240.555 6        38.616 6                                                                  23091799.430 7  97708962.824 7     -1008.057 7        43.242 7
C32  26841865.383 6 139772634.225 6     -2108.094 6        38.795 6                                                                  26841869.012 5 113576737.100 5     -1712.568 5        34.727 5
C37  25105823.531 6 130732616.787 6       735.480 6        39.597 6                                                                  25105826.035 6 106230969.360 6       597.334 6        41.037 6
> 2020 08 27 07 57 38.0000000  0  8       0.000000000000
C06  36197020.023 7 188487379.898 7        61.816 7        42.558 7  36197015.730 5 145750331.318 5        47.068 5        34.874 5  36197016.367 5 153161426.081 5        49.055 5        35.901 5
C08  36069428.246 6 187822988.485 6        -9.238 6        37.093 6  36069425.277 6 145236627.164 6        -7.131 6        36.335 6                                                                
C13  35666231.414 5 185723448.368 5       394.512 5        34.575 5                                                                  35666234.152 5 150915519.690 5       321.848 5        33.527 5
C16  36404019.836 5 189565301.304 5       233.379 5        33.720 5                                                                                                                                
C19  22502198.504 5 117174820.280 5       653.262 5        33.325 5                                                                                                                                
C20  23092042.582 6 120246315.352 6     -1240.059 6        38.736 6                                                                  23092037.473 7  97709970.910 7     -1007.801 7        43.242 7
C32  26842270.367 6 139774741.900 6     -2106.641 6        38.027 6                                                                  26842273.820 5 113578449.811 5     -1712.391 5        35.017 5
C37  25105682.297 6 130731882.509 6       735.898 6        39.693 6                                                                  25105685.000 6 106230372.760 6       597.043 6        41.107 6
> 2020 08 27 07 57 39.0000000  0  8       0.000000000000
C06  36197008.410 7 188487319.483 7        60.053 7        42.533 7  36197003.867 5 145750284.583 5        46.113 5        34.575 5  36197004.797 6 153161376.977 6        48.369 6        36.124 6
C08  36069430.191 6 187822998.260 6       -11.158 6        37.263 6  36069426.973 5 145236634.715 5        -7.773 5        35.901 5                                                                
C13  35666155.840 5 185723054.437 5       393.295 5        34.575 5                                                                  35666158.570 5 150915199.602 5       319.365 5        33.720 5
C16  36403974.707 5 189565066.777 5       233.373 5        33.527 5                                                                                                                                
C19  22502073.313 5 117174167.805 5       652.143 5        32.891 5                                                                                                                                
C20  23092280.773 6 120247556.126 6     -1240.787 6        38.096 6                                                                  23092275.656 7  97710979.138 7     -1008.703 7        43.221 7
C32  26842674.938 6 139776849.679 6     -2107.156 6        38.428 6                                                                  26842678.598 5 113580162.483 5     -1713.039 5        33.527 5
C37  25105541.402 6 130731148.869 6       733.646 6        38.676 6                                                                  25105544.113 6 106229776.593 6       595.674 6        41.309 6
> 2020 08 27 07 57 40.0000000  0  8       0.000000000000
C06  36196996.871 7 188487258.943 7        60.180 7        42.607 7  36196992.078 5 145750237.734 5        48.240 5        34.575 5  36196993.051 6 153161327.739 6        50.521 6        36.014 6
C08  36069432.102 6 187823007.871 6        -9.117 6        37.263 6  36069428.992 6 145236642.182 6        -7.443 6        36.335 6                                                                
C13  35666080.121 5 185722660.398 5       393.715 5        34.874 5                                                                  35666082.867 5 150914879.418 5       319.721 5        33.325 5
C16  36403929.645 5 189564832.151 5       235.551 5        32.656 5                                                                                                                                
C19  22501947.945 5 117173515.273 5       652.834 5        33.113 5                                                                                                                                
C20  23092518.820 6 120248796.728 6     -1240.035 6        38.491 6                                                                  23092513.934 7  97711987.229 7     -1008.092 7        43.284 7
C32  26843079.398 6 139778957.177 6     -2107.574 6        38.554 6                                                                  26843083.105 5 113581874.988 5     -1712.096 5        33.905 5
C37  25105400.078 6 130730415.431 6       733.576 6        38.491 6                                                                  25105403.223 6 106229180.576 6       596.088 6        41.002 6
> 2020 08 27 07 57 41.0000000  0  8       0.000000000000
C06  36196985.117 7 188487198.047 7        60.865 7        42.508 7  36196980.395 5 145750190.612 5        48.396 5        34.575 5  36196981.258 6 153161278.246 6        50.355 6        36.231 6
C08  36069433.941 6 187823017.286 6        -9.193 6        37.263 6  36069430.973 6 145236649.443 6        -7.131 6        36.231 6                                                                
C13  35666004.512 5 185722265.982 5       393.951 5        35.017 5                                                                  35666007.141 5 150914558.883 5       320.258 5        33.527 5
C16  36403884.801 5 189564597.228 5       234.537 5        32.407 5                                                                                                                                
C19  22501822.359 5 117172862.432 5       651.373 5        32.891 5                                                                                                                                
C20  23092756.656 6 120250037.006 6     -1240.580 6        37.737 6                                                                  23092752.039 7  97712995.021 7     -1007.828 7        43.263 7
C32  26843484.043 6 139781064.169 6     -2107.746 6        38.027 6                                                                  26843487.734 5 113583587.113 5     -1711.695 5        34.082 5
C37  25105259.359 6 130729681.979 6       732.916 6        38.165 6                                                                  25105262.523 6 106228584.565 6       595.746 6        40.477 6
> 2020 08 27 07 57 42.0000000  0  8       0.000000000000
C06  36196973.621 7 188487137.287 7        60.520 7        42.533 7  36196968.754 5 145750143.725 5        45.779 5        34.727 5  36196969.605 5 153161228.898 5        49.090 5        35.785 5
C08  36069436.074 6 187823026.799 6        -9.188 6        36.915 6  36069433.035 6 145236656.839 6        -7.580 6        36.231 6                                                                
C13  35665928.875 5 185721871.637 5       394.035 5        34.874 5                                                                  35665931.445 5 150914238.461 5       320.594 5        33.325 5
C16  36403839.645 5 189564362.413 5       235.695 5        32.891 5                                                                                                                                
C19  22501696.926 5 117172209.720 5       651.926 5        32.144 5                                                                                                                                
C20  23092994.781 6 120251277.287 6     -1239.852 6        37.507 6                                                                  23092990.188 7  97714002.881 7     -1008.254 7        43.113 7
C32  26843888.586 6 139783171.079 6     -2106.707 6        37.662 6                                                                  26843892.156 5 113585299.135 5     -1712.885 5        33.720 5
C37  25105118.582 6 130728948.953 6       733.254 6        38.027 6                                                                  25105121.863 6 106227988.938 6       595.438 6        40.477 6
> 2020 08 27 07 57 43.0000000  0  8       0.000000000000
C06  36196961.902 7 188487076.652 7        60.719 7        42.356 7  36196957.074 5 145750096.792 5        47.443 5        34.575 5  36196957.992 5 153161179.632 5        50.035 5        35.785 5
C08  36069437.773 6 187823036.525 6        -9.555 6        36.824 6  36069434.484 6 145236664.298 6        -7.674 6        36.124 6                                                                
C13  35665853.340 5 185721477.458 5       394.840 5        34.874 5                                                                  35665855.730 5 150913918.169 5       321.656 5        33.113 5
C16  36403794.480 5 189564127.836 5       234.625 5        32.656 5                                                                                                                                
C19  22501571.598 5 117171557.200 5       652.594 5        32.407 5                                                                                                                                
C20  23093233.191 6 120252517.673 6     -1240.082 6        37.263 6                                                                  23093228.332 7  97715010.798 7     -1007.992 7        43.048 7
C32  26844293.020 6 139785277.984 6     -2106.566 6        37.737 6                                                                  26844296.660 5 113587011.150 5     -1711.508 5        33.325 5
C37  25104977.867 6 130728216.397 6       733.258 6        37.585 6                                                                  25104980.910 6 106227393.695 6       595.309 6        40.231 6
> 2020 08 27 07 57 44.0000000  0  8       0.000000000000
C06  36196950.379 7 188487016.121 7        60.900 7        42.382 7  36196945.516 5 145750049.969 5        48.029 5        34.874 5  36196946.332 5 153161130.433 5        49.584 5        35.901 5
C08  36069439.988 6 187823046.310 6        -9.295 6        37.179 6  36069436.590 6 145236671.889 6        -8.201 6        36.335 6                                                                
C13  35665777.926 5 185721083.335 5       394.982 5        34.874 5                                                                  35665780.059 5 150913597.917 5       320.600 5        33.113 5
C16  36403749.293 5 189563893.317 5       235.158 5        33.113 5                                                                                                                                
C19  22501446.172 5 117170904.773 5       651.232 5        32.407 5                                                                                                                                
C20  23093471.148 6 120253758.155 6     -1240.760 6        37.179 6                                                                  23093466.633 7  97716018.742 7     -1007.174 7        43.070 7
C32  26844697.570 6 139787384.813 6     -2106.502 6        37.737 6                                                                  26844701.160 5 113588723.099 5     -1709.088 5        33.113 5
C37  25104837.168 6 130727484.254 6       732.775 6        38.096 6                                                                  25104840.309 6 106226798.791 6       594.914 6        40.672 6
> 2020 08 27 07 57 45.0000000  0  8       0.000000000000
C06  36196938.793 7 188486955.795 7        59.863 7        42.407 7  36196934.000 5 145750003.340 5        46.783 5        34.727 5  36196934.715 6 153161081.411 6        48.742 6        36.124 6
C08  36069442.031 6 187823056.345 6        -8.789 6        37.005 6  36069438.488 6 145236679.669 6        -8.842 6        36.124 6                                                                
C13  35665702.340 5 185720689.448 5       393.203 5        34.874 5                                                                  35665704.387 5 150913277.822 5       320.813 5        33.527 5
C16  36403704.473 5 189563659.038 5       233.984 5        32.656 5                                                                                                                                
C19  22501320.824 5 117170252.541 5       652.871 5        31.564 5                                                                                                                                
C20  23093709.113 6 120254998.762 6     -1241.504 6        37.263 6                                                                  23093704.855 7  97717026.837 7     -1008.094 7        43.026 7
C32  26845102.023 6 139789491.682 6     -2106.953 6        37.346 6                                                                  26845105.707 5 113590435.120 5     -1711.316 5        33.113 5
C37  25104696.617 6 130726752.649 6       732.031 6        38.096 6                                                                  25104699.746 6 106226204.291 6       594.387 6        40.710 6
> 2020 08 27 07 57 46.0000000  0  8       0.000000000000
C06  36196926.922 7 188486895.546 7        60.320 7        42.278 7  36196922.379 5 145749956.750 5        46.334 5        34.874 5  36196923.113 5 153161032.493 5        47.490 5        35.901 5
C08  36069443.789 6 187823066.585 6       -11.379 6        37.263 6  36069440.426 6 145236687.549 6        -8.451 6        36.124 6                                                                
C13  35665626.828 5 185720295.656 5       391.453 5        34.727 5                                                                  35665628.867 5 150912957.795 5       320.986 5        33.113 5
C16  36403659.441 5 189563424.856 5       233.348 5        32.891 5                                                                                                                                
C19  22501195.734 5 117169600.469 5       650.984 5        31.564 5                                                                                                                                
C20  23093947.438 6 120256239.404 6     -1241.613 6        37.093 6                                                                  23093943.023 7  97718034.962 7     -1008.037 7        43.221 7
C32  26845506.762 6 139791598.489 6     -2107.355 6        37.263 6                                                                  26845510.012 5 113592147.082 5     -1712.803 5        32.656 5
C37  25104556.359 6 130726021.517 6       730.633 6        37.737 6                                                                  25104559.355 6 106225610.173 6       593.662 6        40.785 6
> 2020 08 27 07 57 47.0000000  0  8       0.000000000000
C06  36196915.172 7 188486835.396 7        59.924 7        42.433 7  36196910.844 5 145749910.261 5        46.574 5        35.017 5  36196911.602 5 153160983.558 5        49.533 5        35.901 5
C08  36069445.738 6 187823076.813 6        -9.979 6        37.093 6  36069442.484 6 145236695.477 6        -8.133 6        36.438 6                                                                
C13  35665551.191 5 185719901.901 5       392.463 5        35.017 5                                                                  35665553.223 5 150912637.896 5       319.592 5        33.527 5
C16  36403614.637 5 189563190.766 5       232.775 5        32.891 5                                                                                                                                
C19  22501070.332 5 117168948.571 5       650.334 5        31.864 5                                                                                                                                
C20  23094185.777 6 120257480.111 6     -1242.674 6        36.824 6                                                                  23094181.414 7  97719043.128 7     -1008.045 7        43.135 7
C32  26845911.055 6 139793705.188 6     -2107.555 6        37.093 6                                                                  26845914.496 5 113593858.975 5     -1712.732 5        32.891 5
C37  25104415.969 6 130725290.771 6       729.670 6        37.507 6                                                                  25104418.996 6 106225016.385 6       593.186 6        40.858 6
> 2020 08 27 07 57 48.0000000  0  8       0.000000000000
C06  36196903.578 7 188486775.327 7        59.207 7        42.583 7  36196899.109 5 145749863.766 5        47.059 5        34.417 5  36196899.988 5 153160934.749 5        49.572 5        35.901 5
C08  36069447.563 6 187823087.253 6       -11.711 6        37.263 6  36069444.414 6 145236703.502 6        -8.781 6        36.335 6                                                                
C13  35665475.852 5 185719508.143 5       393.523 5        35.017 5                                                                  35665477.746 5 150912317.941 5       320.080 5        33.325 5
C16  36403569.777 5 189562956.668 5       235.887 5        32.891 5                                                                                                                                
C19  22500944.840 5 117168296.680 5       650.982 5        31.864 5                                                                                                                                
C20  23094423.664 6 120258720.790 6     -1242.043 6        37.005 6                                                                  23094419.609 7  97720051.282 7     -1008.143 7        43.304 7
C32  26846315.859 6 139795811.747 6     -2106.555 6        37.093 6                                                                  26846319.020 5 113595570.696 5     -1711.656 5        33.113 5
C37  25104275.773 6 130724560.356 6       730.748 6        37.427 6                                                                  25104278.922 6 106224422.886 6       593.088 6        40.785 6
> 2020 08 27 07 57 49.0000000  0  8       0.000000000000
C06  36196891.984 7 188486715.263 7        60.252 7        42.483 7  36196887.797 5 145749817.384 5        46.146 5        34.727 5  36196888.605 6 153160885.990 6        48.746 6        36.014 6
C08  36069449.668 6 187823097.696 6       -11.506 6        37.179 6  36069446.449 6 145236711.581 6        -7.936 6        36.635 6                                                                
C13  35665400.398 5 185719114.491 5       393.748 5        35.154 5                                                                  35665402.203 5 150911998.113 5       318.785 5        33.527 5
C16  36403524.910 5 189562722.763 5       234.100 5        33.113 5                                                                                                                                
C19  22500819.594 5 117167644.837 5       651.385 5        32.144 5                                                                                                                                
C20  23094661.871 6 120259961.438 6     -1240.021 6        37.179 6                                                                  23094657.965 7  97721059.468 7     -1008.285 7        43.407 7
C32  26846720.195 6 139797918.203 6     -2104.768 6        36.824 6                                                                  26846723.387 5 113597282.393 5     -1710.531 5        32.891 5
C37  25104135.609 6 130723830.379 6       730.252 6        36.915 6                                                                  25104138.715 6 106223829.704 6       593.023 6        40.895 6
> 2020 08 27 07 57 50.0000000  0  8       0.000000000000
C06  36196880.586 7 188486655.291 7        60.016 7        42.407 7  36196876.508 5 145749770.987 5        46.314 5        34.727 5  36196877.027 6 153160837.260 6        48.643 6        36.124 6
C08  36069451.613 6 187823108.207 6        -9.965 6        37.093 6  36069448.320 6 145236719.753 6        -8.627 6        36.538 6                                                                
C13  35665324.895 5 185718720.930 5       393.531 5        35.288 5                                                                  35665326.707 5 150911678.262 5       320.068 5        33.720 5
C16  36403479.957 5 189562488.835 5       235.113 5        32.656 5                                                                                                                                
C19  22500694.363 5 117166993.155 5       651.246 5        31.864 5                                                                                                                                
C20  23094899.883 6 120261202.155 6     -1239.828 6        37.093 6                                                                  23094896.039 7  97722067.622 7     -1007.822 7        43.221 7
C32  26847124.656 6 139800024.643 6     -2107.174 6        37.005 6                                                                  26847127.848 5 113598994.027 5     -1711.162 5        32.407 5
C37  25103995.215 6 130723100.797 6       729.645 6        36.635 6                                                                  25103998.484 6 106223236.842 6       592.666 6        40.931 6
> 2020 08 27 07 57 51.0000000  0  8       0.000000000000
C06  36196869.137 7 188486595.437 7        59.971 7        42.407 7  36196865.059 5 145749724.687 5        47.412 5        34.727 5  36196865.402 6 153160788.595 6        49.596 6        36.014 6
C08  36069453.723 6 187823118.933 6       -10.479 6        37.179 6  36069450.434 6 145236728.019 6        -7.939 6        36.438 6                                                                
C13  35665249.344 5 185718327.435 5       392.471 5        35.418 5                                                                  35665251.023 5 150911358.499 5       319.908 5        33.527 5
C16  36403434.883 5 189562255.164 5       234.131 5        33.113 5                                                                                                                                
C19  22500569.230 5 117166341.563 5       651.650 5        31.864 5                                                                                                                                
C20  23095138.418 6 120262442.934 6     -1240.166 6        37.093 6                                                                  23095134.309 7  97723075.874 7     -1008.588 7        43.304 7
C32  26847529.215 6 139802130.935 6     -2106.318 6        37.093 6                                                                  26847532.289 5 113600705.544 5     -1711.146 5        33.113 5
C37  25103855.055 6 130722371.636 6       729.014 6        36.231 6                                                                  25103858.395 6 106222644.351 6       591.705 6        40.858 6
> 2020 08 27 07 57 52.0000000  0  8       0.000000000000
C06  36196857.762 7 188486535.740 7        59.242 7        42.356 7  36196853.789 5 145749678.528 5        46.596 5        34.253 5  36196853.867 5 153160740.134 5        48.014 5        35.785 5
C08  36069455.762 6 187823129.848 6       -11.754 6        36.915 6  36069452.754 6 145236736.457 6        -8.775 6        36.335 6                                                                
C13  35665173.895 5 185717934.031 5       393.891 5        35.154 5                                                                  35665175.461 5 150911038.847 5       320.670 5        33.527 5
C16  36403389.984 5 189562021.583 5       234.242 5        33.113 5                                                                                                                                
C19  22500444.023 5 117165690.171 5       651.078 5        31.864 5                                                                                                                                
C20  23095376.629 6 120263683.867 6     -1241.715 6        37.263 6                                                                  23095372.570 7  97724084.196 7     -1008.900 7        43.199 7
C32  26847933.555 6 139804237.256 6     -2107.027 6        36.731 6                                                                  26847936.594 5 113602417.082 5     -1710.854 5        32.407 5
C37  25103715.000 5 130721642.940 5       728.891 5        35.901 5                                                                  25103718.559 6 106222052.219 6       591.588 6        40.822 6
> 2020 08 27 07 57 53.0000000  0  8       0.000000000000
C06  36196846.215 7 188486476.233 7        59.361 7        42.407 7  36196842.027 5 145749632.485 5        46.645 5        34.874 5  36196842.395 5 153160691.778 5        47.516 5        35.785 5
C08  36069457.844 6 187823140.917 6       -11.459 6        36.915 6  36069455.125 6 145236745.031 6        -8.805 6        36.335 6                                                                
C13  35665098.242 5 185717540.892 5       392.232 5        35.288 5                                                                  35665099.961 5 150910719.357 5       319.645 5        33.527 5
C16  36403345.348 5 189561788.262 5       232.271 5        32.891 5                                                                                                                                
C19  22500318.969 5 117165039.003 5       652.389 5        31.864 5                                                                                                                                
C20  23095615.063 6 120264924.903 6     -1241.303 6        37.093 6                                                                  23095610.871 7  97725092.625 7     -1008.561 7        43.070 7
C32  26848338.406 6 139806343.581 6     -2107.436 6        36.538 6                                                                  26848340.918 5 113604128.683 5     -1711.920 5        32.407 5
C37  25103574.922 5 130720914.794 5       729.811 5        35.017 5                                                                  25103578.605 6 106221460.558 6       591.070 6        40.822 6
> 2020 08 27 07 57 54.0000000  0  8       0.000000000000
C06  36196834.723 7 188486416.650 7        59.318 7        42.356 7  36196830.645 5 145749586.450 5        46.320 5        35.017 5  36196830.887 6 153160643.328 6        47.883 6        36.014 6
C08  36069459.695 6 187823152.007 6       -11.990 6        37.093 6  36069457.406 6 145236753.603 6        -9.598 6        37.005 6                                                                
C13  35665022.828 5 185717147.619 5       393.439 5        35.017 5                                                                  35665024.309 5 150910399.820 5       319.465 5        33.527 5
C16  36403300.699 5 189561554.812 5       233.186 5        32.891 5                                                                                                                                
C19  22500193.934 5 117164387.854 5       650.510 5        32.144 5                                                                                                                                
C20  23095853.555 6 120266165.817 6     -1242.049 6        37.093 6                                                                  23095849.074 7  97726100.979 7     -1008.406 7        43.284 7
C32  26848742.668 6 139808449.663 6     -2106.717 6        36.824 6                                                                  26848745.328 5 113605839.972 5     -1709.813 5        32.144 5
C37  25103435.078 5 130720186.946 5       728.107 5        34.727 5                                                                  25103438.785 6 106220869.097 6       590.539 6        40.858 6
> 2020 08 27 07 57 55.0000000  0  8       0.000000000000
C06  36196823.430 7 188486357.057 7        59.584 7        42.330 7  36196819.137 5 145749540.357 5        46.104 5        34.417 5  36196819.336 5 153160594.907 5        49.410 5        35.785 5
C08  36069462.105 6 187823163.055 6       -10.963 6        37.005 6  36069459.602 6 145236762.158 6        -8.877 6        36.824 6                                                                
C13  35664947.070 5 185716754.349 5       393.607 5        35.017 5                                                                  35664948.867 5 150910080.302 5       319.156 5        33.325 5
C16  36403256.027 5 189561321.402 5       233.627 5        32.891 5                                                                                                                                
C19  22500068.883 5 117163736.646 5       651.420 5        32.144 5                                                                                                                                
C20  23096091.848 6 120267406.664 6     -1240.924 6        37.005 6                                                                  23096087.293 7  97727109.260 7     -1007.953 7        43.284 7
C32  26849147.238 6 139810555.535 6     -2104.889 6        36.731 6                                                                  26849149.633 5 113607551.235 5     -1711.313 5        32.144 5
C37  25103295.324 5 130719459.415 5       726.850 5        33.905 5                                                                  25103298.996 6 106220277.873 6       590.914 6        40.858 6
> 2020 08 27 07 57 56.0000000  0  8       0.000000000000
C06  36196811.926 7 188486297.705 7        58.928 7        42.382 7  36196807.563 5 145749494.467 5        45.104 5        34.727 5  36196807.965 6 153160546.664 6        48.332 6        36.124 6
C08  36069464.195 6 187823174.441 6       -11.893 6        37.005 6  36069461.727 6 145236770.965 6        -9.799 6        36.635 6                                                                
C13  35664871.750 5 185716361.294 5       392.150 5        35.154 5                                                                  35664873.309 5 150909760.879 5       318.371 5        33.325 5
C16  36403211.398 5 189561088.233 5       232.951 5        33.113 5                                                                                                                                
C19  22499943.445 5 117163085.711 5       650.510 5        31.242 5                                                                                                                                
C20  23096330.293 6 120268647.691 6     -1241.854 6        37.093 6                                                                  23096325.535 7  97728117.717 7     -1009.012 7        43.199 7
C32  26849551.523 6 139812661.510 6     -2106.072 6        37.179 6                                                                  26849553.910 5 113609262.481 5     -1710.359 5        32.144 5
C37  25103155.324 5 130718732.385 5       725.529 5        33.527 5                                                                  25103159.352 6 106219687.121 6       589.896 6        41.072 6
> 2020 08 27 07 57 57.0000000  0  8       0.000000000000
C06  36196800.859 7 188486238.516 7        59.451 7        42.304 7  36196796.461 5 145749448.693 5        45.871 5        34.727 5  36196796.504 6 153160498.585 6        47.988 6        36.124 6
C08  36069466.828 6 187823185.980 6       -12.014 6        37.005 6  36069463.680 6 145236779.849 6        -8.445 6        36.731 6                                                                
C13  35664796.543 5 185715968.399 5       392.459 5        35.418 5                                                                  35664797.801 5 150909441.622 5       319.453 5        33.113 5
C16  36403166.637 5 189560855.305 5       232.322 5        33.113 5                                                                                                                                
C19  22499818.406 5 117162435.015 5       650.564 5        31.242 5                                                                                                                                
C20  23096568.563 6 120269888.861 6     -1240.746 6        36.915 6                                                                  23096563.992 7  97729126.255 7     -1008.496 7        43.242 7
C32  26849956.066 6 139814767.517 6     -2106.723 6        36.824 6                                                                  26849958.176 5 113610973.882 5     -1713.770 5        32.144 5
C37  25103015.512 5 130718005.855 5       726.971 5        33.113 5                                                                  25103019.855 6 106219096.771 6       589.885 6        41.072 6
> 2020 08 27 07 57 58.0000000  0  8       0.000000000000
C06  36196789.457 7 188486179.364 7        58.926 7        42.225 7  36196784.984 5 145749402.942 5        45.367 5        34.727 5  36196785.215 5 153160450.553 5        46.432 5        35.901 5
C08  36069468.699 6 187823197.563 6       -11.348 6        36.824 6  36069466.195 6 145236788.816 6        -8.891 6        37.005 6                                                                
C13  35664721.035 5 185715575.475 5       393.359 5        35.288 5                                                                  35664722.379 5 150909122.368 5       319.908 5        33.113 5
C16  36403122.000 5 189560622.360 5       232.363 5        32.144 5                                                                                                                                
C19  22499693.281 5 117161784.294 5       649.590 5        30.517 5                                                                                                                                
C20  23096807.070 6 120271130.022 6     -1241.582 6        36.438 6                                                                  23096802.426 7  97730134.793 7     -1008.686 7        43.325 7
C32  26850360.453 6 139816873.307 6     -2105.781 6        36.635 6                                                                  26850362.422 5 113612684.946 5     -1710.932 5        32.144 5
C37  25102876.004 5 130717279.717 5       726.172 5        32.407 5                                                                  25102880.371 6 106218506.688 6       590.104 6        41.141 6
> 2020 08 27 07 57 59.0000000  0  8       0.000000000000
C06  36196778.168 7 188486120.265 7        59.506 7        42.251 7  36196773.551 5 145749357.270 5        45.848 5        34.727 5  36196773.980 6 153160402.482 6        48.705 6        36.231 6
C08  36069471.000 6 187823209.256 6       -10.748 6        36.824 6  36069468.246 6 145236797.872 6        -8.566 6        36.824 6                                                                
C13  35664645.281 5 185715182.641 5       393.334 5        35.288 5                                                                  35664646.910 5 150908803.165 5       318.451 5        33.113 5
C16  36403077.082 5 189560389.525 5       232.787 5        32.656 5                                                                                                                                
C19  22499568.266 5 117161133.656 5       652.748 5        31.242 5                                                                                                                                
C20  23097045.473 6 120272371.168 6     -1240.592 6        36.538 6                                                                  23097040.688 7  97731143.337 7     -1008.053 7        43.325 7
C32  26850764.773 6 139818979.041 6     -2105.650 6        36.731 6                                                                  26850766.734 5 113614395.980 5     -1709.520 5        32.144 5
C37  25102736.613 5 130716553.938 5       726.146 5        31.864 5                                                                  25102740.941 6 106217916.954 6       589.857 6        41.141 6
> 2020 08 27 07 58  0.0000000  0  8       0.000000000000
C06  36196766.773 7 188486061.427 7        58.908 7        42.225 7  36196762.160 5 145749311.752 5        46.271 5        34.727 5  36196762.727 6 153160354.680 6        47.449 6        36.124 6
C08  36069473.203 6 187823221.276 6       -12.127 6        37.093 6  36069470.305 6 145236807.147 6        -8.729 6        36.824 6                                                                
C13  35664570.105 5 185714790.064 5       391.936 5        35.288 5                                                                  35664571.477 5 150908484.112 5       319.461 5        33.113 5
C16  36403032.457 5 189560156.896 5       233.713 5        32.891 5                                                                                                                                
C19  22499443.332 5 117160483.374 5       649.846 5        31.242 5                                                                                                                                
C20  23097283.633 6 120273612.532 6     -1240.877 6        36.915 6                                                                  23097279.199 7  97732152.033 7     -1008.410 7        43.366 7
C32  26851168.992 6 139821084.806 6     -2104.822 6        36.824 6                                                                  26851171.109 5 113616107.154 5     -1711.459 5        31.864 5
C37                                                                                                                                  25102601.582 6 106217327.665 6       589.695 6        41.107 6
> 2020 08 27 07 58  1.0000000  0  8       0.000000000000
C06  36196755.484 7 188486002.461 7        59.000 7        42.198 7  36196751.016 5 145749266.165 5        45.469 5        34.874 5  36196751.414 6 153160306.776 6        48.018 6        36.124 6
C08  36069475.438 6 187823233.154 6       -11.977 6        37.005 6  36069472.645 6 145236816.349 6        -8.848 6        36.824 6                                                                
C13  35664494.566 5 185714397.337 5       392.223 5        35.288 5                                                                  35664496.051 5 150908164.977 5       319.990 5        33.113 5
C16  36402988.078 5 189559924.209 5       233.824 5        33.113 5                                                                                                                                
C19  22499318.285 5 117159832.984 5       650.133 5        31.564 5                                                                                                                                
C20  23097521.898 6 120274853.750 6     -1241.508 6        36.824 6                                                                  23097517.633 7  97733160.646 7     -1009.229 7        43.468 7
C32  26851573.492 6 139823190.366 6     -2105.727 6        36.231 6                                                                  26851575.289 5 113617818.007 5     -1709.189 5        31.864 5
C37                                                                                                                                  25102462.426 6 106216738.594 6       588.662 6        41.107 6
> 2020 08 27 07 58  2.0000000  0  8       0.000000000000
C06  36196744.211 7 188485943.363 7        59.510 7        42.034 7  36196739.559 5 145749220.485 5        46.361 5        34.253 5  36196740.016 6 153160258.733 6        48.506 6        36.014 6
C08  36069477.609 6 187823244.945 6       -11.311 6        36.824 6  36069475.070 6 145236825.492 6        -8.795 6        36.635 6                                                                
C13  35664419.328 5 185714004.521 5       391.404 5        35.017 5                                                                  35664420.676 5 150907845.771 5       319.346 5        33.113 5
C16  36402943.355 5 189559691.463 5       231.639 5        32.891 5                                                                                                                                
C19  22499192.891 5 117159182.463 5       650.760 5        30.895 5                                                                                                                                
C20  23097759.961 6 120276094.785 6     -1241.406 6        36.335 6                                                                  23097755.852 7  97734169.056 7     -1008.816 7        43.242 7
C32  26851977.613 6 139825295.557 6     -2104.609 6        36.335 6                                                                  26851979.516 5 113619528.701 5     -1709.617 5        31.564 5
C37                                                                                                                                  25102323.133 6 106216149.645 6       588.779 6        41.037 6
> 2020 08 27 07 58  3.0000000  0  8       0.000000000000
C06  36196732.719 7 188485884.873 7        57.785 7        42.225 7  36196728.391 5 145749175.226 5        45.283 5        34.253 5  36196728.719 5 153160211.210 5        46.994 5        35.785 5
C08  36069480.141 6 187823257.371 6       -12.215 6        36.824 6  36069477.566 6 145236835.096 6       -10.459 6        36.538 6                                                                
C13  35664344.340 5 185713612.160 5       393.059 5        35.288 5                                                                  35664345.348 5 150907527.018 5       318.850 5        33.325 5
C16  36402898.664 5 189559459.203 5       233.234 5        32.407 5                                                                                                                                
C19  22499068.000 5 117158532.584 5       649.211 5        31.564 5                                                                                                                                
C20  23097998.234 6 120277336.319 6     -1241.316 6        36.335 6                                                                  23097994.277 7  97735177.915 7     -1008.982 7        43.263 7
C32  26852381.871 6 139827401.188 6     -2104.969 6        36.538 6                                                                  26852383.813 5 113621239.681 5     -1709.607 5        31.242 5
C37                                                                                                                                  25102184.023 6 106215561.445 6       588.049 6        41.175 6
> 2020 08 27 07 58  4.0000000  0  8       0.000000000000
C06  36196721.172 7 188485826.295 7        58.543 7        42.034 7  36196716.879 5 145749129.962 5        45.176 5        34.575 5  36196717.566 5 153160163.627 5        47.379 5        35.901 5
C08  36069482.441 6 187823269.771 6       -12.961 6        36.731 6  36069479.902 6 145236844.653 6       -10.020 6        36.824 6                                                                
C13  35664269.012 5 185713219.832 5       392.703 5        35.154 5                                                                  35664270.113 5 150907208.186 5       319.059 5        33.325 5
C16  36402854.137 5 189559226.976 5       232.684 5        32.407 5                                                                                                                                
C19  22498942.984 5 117157882.617 5       649.754 5        30.517 5                                                                                                                                
C20  23098236.672 6 120278577.792 6     -1242.336 6        36.335 6                                                                  23098232.594 7  97736186.696 7     -1008.891 7        43.325 7
C32  26852786.012 6 139829506.609 6     -2105.480 6        36.124 6                                                                  26852788.035 5 113622950.535 5     -1712.191 5        31.242 5
C37                                                                                                                                  25102045.215 6 106214973.487 6       587.652 6        41.276 6
> 2020 08 27 07 58  5.0000000  0  8       0.000000000000
C06  36196709.652 6 188485767.745 6        58.535 6        41.950 6  36196705.934 5 145749084.642 5        46.492 5        34.417 5  36196706.242 6 153160116.054 6        47.662 6        36.124 6
C08  36069485.051 6 187823282.168 6       -12.773 6        36.915 6  36069482.477 6 145236854.246 6        -9.934 6        36.731 6                                                                
C13  35664193.926 5 185712827.475 5       392.383 5        34.874 5                                                                  35664194.781 5 150906889.353 5       319.322 5        33.113 5
C16  36402809.527 5 189558994.798 5       231.934 5        32.891 5                                                                                                                                
C19  22498818.207 5 117157232.760 5       649.863 5        30.517 5                                                                                                                                
C20  23098475.418 6 120279819.179 6     -1241.131 6        36.124 6                                                                  23098471.055 7  97737195.434 7     -1008.295 7        43.284 7
C32  26853190.461 6 139831611.824 6     -2104.471 6        36.335 6                                                                  26853192.457 5 113624661.159 5     -1710.619 5        30.895 5
C37                                                                                                                                  25101906.434 6 106214385.756 6       588.150 6        41.209 6
> 2020 08 27 07 58  6.0000000  0  8       0.000000000000
C06  36196698.336 6 188485709.373 6        57.758 6        41.893 6  36196694.223 5 145749039.528 5        43.701 5        34.575 5  36196694.789 6 153160068.598 6        47.375 6        36.124 6
C08  36069487.293 6 187823294.778 6       -12.867 6        36.731 6  36069485.039 6 145236863.958 6        -9.521 6        37.005 6                                                                
C13  35664118.645 5 185712435.275 5       392.211 5        34.727 5                                                                  35664119.426 5 150906570.689 5       317.844 5        33.325 5
C16  36402764.832 5 189558762.764 5       230.824 5        32.656 5                                                                                                                                
C19  22498693.418 5 117156583.007 5       649.260 5        30.517 5                                                                                                                                
C20  23098713.441 6 120281060.727 6     -1241.949 6        36.231 6                                                                  23098709.578 7  97738204.285 7     -1008.953 7        43.263 7
C32  26853594.789 6 139833717.064 6     -2105.289 6        36.014 6                                                                  26853596.742 5 113626371.818 5     -1710.301 5        31.564 5
C37                                                                                                                                  25101767.699 6 106213798.493 6       586.848 6        41.374 6
> 2020 08 27 07 58  7.0000000  0  8       0.000000000000
C06  36196687.195 7 188485651.008 7        58.654 7        42.006 7  36196682.938 5 145748994.392 5        45.553 5        34.417 5  36196683.582 5 153160021.177 5        48.283 5        35.666 5
C08  36069489.746 6 187823307.435 6       -12.850 6        36.438 6  36069487.348 6 145236873.768 6        -9.291 6        36.915 6                                                                
C13  35664043.148 5 185712043.122 5       391.916 5        35.017 5                                                                  35664043.973 5 150906252.025 5       318.422 5        33.113 5
C16  36402720.246 5 189558530.740 5       231.721 5        32.407 5                                                                                                                                
C19  22498568.484 5 117155933.377 5       650.139 5        30.517 5                                                                                                                                
C20  23098951.781 6 120282302.268 6     -1241.602 6        36.335 6                                                                  23098947.910 7  97739213.129 7     -1008.455 7        43.242 7
C32  26853998.938 6 139835822.190 6     -2104.824 6        36.124 6                                                                  26854000.895 5 113628082.428 5     -1710.311 5        30.895 5
C37                                                                                                                                  25101629.008 6 106213211.489 6       586.508 6        41.470 6
> 2020 08 27 07 58  8.0000000  0  8       0.000000000000
C06  36196675.895 6 188485593.048 6        56.996 6        41.893 6  36196672.105 5 145748949.562 5        44.430 5        34.575 5  36196672.234 6 153159974.084 6        47.131 6        36.014 6
C08  36069492.363 6 187823320.538 6       -12.730 6        36.231 6  36069489.141 6 145236883.888 6        -9.809 6        37.005 6                                                                
C13  35663967.637 5 185711651.307 5       391.313 5        35.288 5                                                                  35663968.645 5 150905933.665 5       316.389 5        33.325 5
C16  36402675.570 5 189558299.134 5       232.133 5        32.407 5                                                                                                                                
C19  22498443.820 5 117155284.159 5       650.648 5        31.242 5                                                                                                                                
C20  23099190.285 6 120283544.137 6     -1242.262 6        36.014 6                                                                  23099186.313 7  97740222.233 7     -1009.080 7        43.178 7
C32  26854403.281 5 139837927.463 5     -2104.410 5        35.901 5                                                                  26854405.188 5 113629793.155 5     -1710.701 5        31.242 5
C37                                                                                                                                  25101490.406 6 106212625.057 6       586.408 6        41.533 6
> 2020 08 27 07 58  9.0000000  0  8       0.000000000000
C06  36196664.914 6 188485535.133 6        58.229 6        41.747 6  36196660.977 5 145748904.798 5        44.580 5        34.874 5  36196661.184 6 153159927.029 6        47.961 6        36.014 6
C08  36069495.188 6 187823333.750 6       -13.061 6        36.335 6  36069492.074 6 145236894.163 6       -10.518 6        37.005 6                                                                
C13  35663892.582 5 185711259.604 5       391.646 5        35.154 5                                                                  35663893.520 5 150905615.344 5       317.492 5        33.527 5
C16  36402630.961 5 189558067.679 5       231.627 5        32.656 5                                                                                                                                
C19  22498319.148 5 117154635.123 5       647.213 5        30.895 5                                                                                                                                
C20  23099429.031 5 120284785.988 5     -1240.775 5        35.901 5                                                                  23099424.875 7  97741231.380 7     -1009.090 7        43.346 7
C32  26854807.801 6 139840032.704 6     -2104.799 6        36.124 6                                                                  26854809.535 5 113631503.828 5     -1709.520 5        31.564 5
C37                                                                                                                                  25101351.801 6 106212038.971 6       585.988 6        41.502 6
> 2020 08 27 07 58 10.0000000  0  8       0.000000000000
C06  36196653.945 6 188485477.387 6        57.660 6        41.921 6  36196650.082 5 145748860.149 5        44.256 5        34.727 5  36196650.023 6 153159880.116 6        46.719 6        36.124 6
C08  36069497.672 6 187823347.125 6       -14.273 6        36.231 6  36069494.703 6 145236904.462 6       -10.139 6        36.731 6                                                                
C13  35663817.332 5 185710867.970 5       390.844 5        34.874 5                                                                  35663818.184 5 150905297.114 5       317.520 5        33.113 5
C16  36402586.832 5 189557836.308 5       231.313 5        32.144 5                                                                                                                                
C19  22498194.461 5 117153986.107 5       649.301 5        31.242 5                                                                                                                                
C20  23099667.473 5 120286028.030 5     -1244.098 5        35.544 5                                                                  23099663.426 7  97742240.574 7     -1009.609 7        43.366 7
C32  26855211.910 6 139842137.921 6     -2105.563 6        36.014 6                                                                  26855213.855 5 113633214.487 5     -1710.723 5        30.895 5
C37                                                                                                                                  25101213.410 6 106211453.285 6       584.668 6        41.406 6
> 2020 08 27 07 58 11.0000000  0  8       0.000000000000
C06  36196642.855 6 188485419.529 6        57.646 6        41.921 6  36196639.027 5 145748815.366 5        44.732 5        34.417 5  36196638.789 6 153159833.081 6        47.242 6        36.335 6
C08  36069499.992 6 187823360.414 6       -13.213 6        36.124 6  36069497.488 6 145236914.731 6        -9.662 6        37.093 6                                                                
C13  35663742.387 5 185710476.194 5       393.564 5        34.874 5                                                                  35663742.973 5 150904978.776 5       318.668 5        33.527 5
C16  36402542.473 5 189557604.857 5       231.787 5        32.144 5                                                                                                                                
C19  22498069.824 5 117153337.069 5       649.248 5        31.242 5                                                                                                                                
C20  23099905.934 5 120287269.814 5     -1242.432 5        35.785 5                                                                  23099901.941 7  97743249.650 7     -1009.145 7        43.325 7
C32  26855616.105 6 139844242.843 6     -2105.576 6        36.014 6                                                                  26855618.066 5 113634924.907 5     -1710.707 5        30.895 5
C37                                                                                                                                  25101074.918 6 106210867.730 6       585.465 6        41.626 6
> 2020 08 27 07 58 12.0000000  0  8       0.000000000000
C06  36196631.813 6 188485362.041 6        57.805 6        41.864 6  36196627.875 5 145748770.960 5        43.756 5        34.253 5  36196627.711 6 153159786.405 6        45.658 6        36.014 6
C08  36069502.508 6 187823374.142 6       -14.539 6        36.438 6  36069500.039 6 145236925.334 6       -10.385 6        36.824 6                                                                
C13  35663667.383 5 185710084.865 5       392.004 5        34.575 5                                                                  35663667.773 5 150904660.804 5       316.576 5        33.113 5
C16  36402498.230 5 189557373.832 5       231.281 5        32.144 5                                                                                                                                
C19  22497945.273 5 117152688.410 5       648.469 5        31.242 5                                                                                                                                
C20  23100144.336 5 120288511.937 5     -1242.117 5        35.785 5                                                                  23100140.531 7  97744259.008 7     -1009.516 7        43.157 7
C32  26856020.207 5 139846347.976 5     -2105.047 5        35.544 5                                                                  26856022.156 5 113636635.496 5     -1710.121 5        30.895 5
C37                                                                                                                                  25100936.602 6 106210282.779 6       584.467 6        41.502 6
> 2020 08 27 07 58 13.0000000  0  8       0.000000000000
C06  36196620.926 6 188485304.524 6        56.912 6        41.687 6  36196616.238 5 145748726.401 5        46.520 5        34.253 5  36196616.652 5 153159739.620 5        46.475 5        35.785 5
C08  36069505.000 6 187823387.771 6       -13.752 6        36.231 6  36069502.391 6 145236935.894 6       -10.766 6        37.093 6                                                                
C13  35663592.461 5 185709693.392 5       393.162 5        35.154 5                                                                  35663592.699 5 150904342.739 5       316.260 5        33.113 5
C16  36402454.148 5 189557142.741 5       230.643 5        31.864 5                                                                                                                                
C19  22497820.559 5 117152039.729 5       649.549 5        30.895 5                                                                                                                                
C20  23100382.930 5 120289753.990 5     -1242.268 5        35.666 5                                                                  23100379.102 7  97745268.222 7     -1008.994 7        43.221 7
C32  26856424.395 5 139848452.850 5     -2105.432 5        35.418 5                                                                  26856426.449 5 113638345.938 5     -1711.787 5        30.103 5
C37                                                                                                                                  25100798.340 6 106209698.028 6       584.678 6        41.502 6
> 2020 08 27 07 58 14.0000000  0  8       0.000000000000
C06  36196610.000 6 188485247.159 6        56.787 6        41.893 6  36196605.457 5 145748682.096 5        43.693 5        34.575 5  36196605.543 5 153159693.012 5        47.160 5        35.666 5
C08  36069507.887 6 187823401.666 6       -13.740 6        36.231 6  36069504.844 6 145236946.669 6       -11.072 6        37.005 6                                                                
C13  35663517.434 5 185709302.246 5       388.936 5        34.874 5                                                                  35663517.492 5 150904024.783 5       317.590 5        33.113 5
C16  36402409.953 5 189556911.813 5       231.084 5        32.144 5                                                                                                                                
C19  22497695.660 5 117151391.306 5       648.154 5        30.895 5                                                                                                                                
C20  23100621.633 5 120290996.146 5     -1241.885 5        35.901 5                                                                  23100617.668 7  97746277.617 7     -1009.461 7        43.325 7
C32  26856828.727 5 139850557.768 5     -2104.463 5        35.544 5                                                                                                                                
C37                                                                                                                                  25100660.223 6 106209113.734 6       583.430 6        41.438 6
> 2020 08 27 07 58 15.0000000  0  8       0.000000000000
C06  36196599.055 6 188485190.006 6        57.219 6        41.747 6  36196594.656 5 145748637.906 5        44.238 5        34.727 5  36196594.613 6 153159646.580 6        45.844 6        36.124 6
C08  36069510.750 6 187823415.775 6       -13.797 6        36.231 6  36069507.852 6 145236957.568 6       -10.938 6        37.093 6                                                                
C13  35663442.383 5 185708911.098 5       391.301 5        34.874 5                                                                  35663442.375 5 150903706.944 5       319.711 5        33.325 5
C16  36402365.563 5 189556681.170 5       231.145 5        31.864 5                                                                                                                                
C19  22497571.172 5 117150743.102 5       647.414 5        31.242 5                                                                                                                                
C20  23100860.059 5 120292238.550 5     -1244.383 5        35.666 5                                                                  23100856.348 7  97747287.107 7     -1009.488 7        43.199 7
C32  26857232.855 5 139852662.752 5     -2106.023 5        35.785 5                                                                                                                                
C37                                                                                                                                  25100522.254 6 106208529.847 6       584.047 6        41.656 6
> 2020 08 27 07 58 16.0000000  0  8       0.000000000000
C06  36196587.922 6 188485132.921 6        56.658 6        41.747 6  36196583.484 5 145748593.790 5        43.363 5        34.417 5  36196583.695 6 153159600.208 6        45.863 6        36.014 6
C08  36069513.102 6 187823429.958 6       -13.049 6        36.335 6  36069510.703 6 145236968.553 6       -10.875 6        37.427 6                                                                
C13  35663367.430 5 185708520.087 5       390.564 5        35.154 5                                                                  35663367.207 5 150903389.267 5       317.797 5        32.891 5
C16  36402321.410 5 189556450.627 5       229.510 5        31.864 5                                                                                                                                
C19  22497446.676 5 117150094.935 5       647.184 5        30.895 5                                                                                                                                
C20  23101099.016 6 120293480.827 6     -1241.936 6        36.124 6                                                                  23101094.813 7  97748296.605 7     -1009.527 7        43.157 7
C32  26857636.758 5 139854767.525 5     -2104.045 5        35.418 5                                                                                                                                
C37                                                                                                                                  25100384.383 6 106207946.266 6       583.461 6        41.533 6
> 2020 08 27 07 58 17.0000000  0  8       0.000000000000
C06  36196577.090 6 188485076.055 6        56.617 6        41.687 6  36196572.332 5 145748549.809 5        43.955 5        34.253 5  36196572.676 5 153159553.947 5        47.629 5        35.901 5
C08  36069515.828 6 187823444.463 6       -14.164 6        36.231 6  36069513.359 6 145236979.727 6       -10.811 6        37.179 6                                                                
C13  35663292.102 5 185708129.302 5       390.758 5        35.017 5                                                                  35663292.145 5 150903071.734 5       317.473 5        33.113 5
C16  36402276.809 5 189556220.258 5       229.430 5        31.864 5                                                                                                                                
C19  22497322.156 5 117149447.107 5       646.617 5        30.517 5                                                                                                                                
C20  23101337.594 5 120294723.358 5     -1242.152 5        35.901 5                                                                  23101333.527 7  97749306.270 7     -1010.066 7        43.242 7
C32  26858041.074 5 139856872.471 5     -2105.844 5        35.288 5                                                                                                                                
C37                                                                                                                                  25100246.539 6 106207363.156 6       582.863 6        41.626 6
> 2020 08 27 07 58 18.0000000  0  7       0.000000000000
C06  36196566.238 6 188485019.079 6        56.127 6        41.806 6  36196561.660 5 145748505.681 5        45.115 5        34.417 5  36196561.816 6 153159507.690 6        45.988 6        36.014 6
C08  36069518.535 6 187823458.829 6       -14.303 6        36.014 6  36069515.816 6 145236990.862 6       -11.623 6        37.427 6                                                                
C13  35663217.215 5 185707738.338 5       391.596 5        34.874 5                                                                  35663217.023 5 150902754.076 5       317.746 5        33.325 5
C16  36402232.508 5 189555989.785 5       229.193 5        32.144 5                                                                                                                                
C20  23101576.473 6 120295965.732 6     -1243.111 6        36.231 6                                                                  23101571.941 7  97750315.782 7     -1009.910 7        43.199 7
C32  26858445.188 5 139858977.064 5     -2104.967 5        35.666 5                                                                                                                                
C37                                                                                                                                  25100108.621 6 106206780.217 6       582.707 6        41.502 6
> 2020 08 27 07 58 19.0000000  0  7       0.000000000000
C06  36196555.160 6 188484962.357 6        56.377 6        41.595 6  36196550.656 5 145748461.850 5        44.441 5        34.727 5  36196551.098 6 153159461.589 6        46.430 6        36.124 6
C08  36069521.195 6 187823473.520 6       -14.795 6        36.335 6  36069518.797 6 145237002.229 6       -11.906 6        37.585 6                                                                
C13  35663142.141 5 185707347.701 5       390.068 5        35.017 5                                                                  35663142.105 5 150902436.611 5       317.426 5        33.325 5
C16  36402188.199 5 189555759.607 5       230.537 5        32.144 5                                                                                                                                
C20  23101815.125 6 120297208.278 6     -1242.393 6        36.231 6                                                                  23101810.617 7  97751325.463 7     -1009.801 7        43.199 7
C32  26858849.398 5 139861081.791 5     -2104.736 5        35.666 5                                                                                                                                
C37                                                                                                                                  25099971.027 6 106206197.764 6       582.289 6        41.595 6
> 2020 08 27 07 58 20.0000000  0  7       0.000000000000
C06  36196544.176 6 188484905.783 6        56.615 6        41.656 6  36196539.703 5 145748418.126 5        43.996 5        34.874 5  36196540.035 5 153159415.631 5        45.871 5        35.901 5
C08  36069523.980 6 187823488.382 6       -15.201 6        36.014 6  36069522.086 6 145237013.717 6       -11.863 6        37.263 6                                                                
C13  35663067.086 5 185706957.171 5       390.307 5        35.017 5                                                                  35663067.043 5 150902119.228 5       317.629 5        33.325 5
C16  36402143.871 5 189555529.627 5       229.643 5        31.564 5                                                                                                                                
C20  23102053.586 6 120298450.973 6     -1242.525 6        36.731 6                                                                  23102049.285 7  97752335.248 7     -1009.910 7        43.113 7
C32  26859253.559 5 139863186.483 5     -2105.006 5        35.785 5                                                                                                                                
C37                                                                                                                                  25099833.422 6 106205615.688 6       581.496 6        41.470 6
> 2020 08 27 07 58 21.0000000  0  7       0.000000000000
C06  36196533.441 6 188484849.060 6        56.707 6        41.747 6  36196529.074 5 145748374.277 5        43.354 5        34.727 5  36196529.184 5 153159369.541 5        46.426 5        35.901 5
C08  36069527.055 6 187823503.101 6       -14.016 6        36.231 6  36069524.980 6 145237025.079 6       -11.334 6        37.507 6                                                                
C13  35662992.316 5 185706566.458 5       390.691 5        34.874 5                                                                  35662991.965 5 150901801.769 5       318.105 5        33.325 5
C16  36402099.797 5 189555299.401 5       230.750 5        31.864 5                                                                                                                                
C20  23102292.293 6 120299693.449 6     -1242.609 6        36.824 6                                                                  23102287.949 7  97753344.854 7     -1009.592 7        43.157 7
C32  26859657.539 5 139865290.796 5     -2103.859 5        35.544 5                                                                                                                                
C37                                                                                                                                  25099695.891 6 106205033.751 6       582.031 6        41.502 6
> 2020 08 27 07 58 22.0000000  0  7       0.000000000000
C06  36196522.566 6 188484792.611 6        56.680 6        41.656 6  36196518.168 5 145748330.631 5        43.402 5        34.417 5  36196518.391 5 153159323.651 5        46.252 5        35.901 5
C08  36069529.953 5 187823518.146 5       -14.844 5        35.901 5  36069527.914 6 145237036.729 6       -11.773 6        37.346 6                                                                
C13  35662917.230 5 185706175.980 5       392.813 5        34.727 5                                                                  35662917.094 5 150901484.523 5       317.717 5        33.113 5
C16  36402055.797 5 189555069.609 5       229.395 5        31.864 5                                                                                                                                
C20  23102531.008 6 120300936.172 6     -1242.910 6        37.093 6                                                                  23102526.645 7  97754354.656 7     -1009.783 7        43.048 7
C32  26860061.633 5 139867395.313 5     -2104.436 5        35.544 5                                                                                                                                
C37                                                                                                                                  25099558.383 6 106204452.330 6       581.428 6        41.342 6
> 2020 08 27 07 58 23.0000000  0  7       0.000000000000
C06  36196511.957 6 188484736.456 6        56.502 6        41.502 6  36196507.414 5 145748287.247 5        42.021 5        34.575 5  36196507.609 6 153159278.045 6        45.770 6        36.231 6
C08  36069533.188 5 187823533.530 5       -16.057 5        35.901 5  36069530.684 6 145237048.577 6       -10.693 6        37.263 6                                                                
C13  35662842.156 5 185705785.901 5       389.373 5        34.727 5                                                                  35662842.215 5 150901167.438 5       317.859 5        33.113 5
C16  36402011.883 5 189554840.036 5       230.623 5        31.864 5                                                                                                                                
C20  23102769.918 6 120302179.082 6     -1242.246 6        37.507 6                                                                  23102765.395 7  97755364.648 7     -1009.797 7        42.959 7
C32  26860465.773 5 139869499.931 5     -2104.766 5        35.544 5                                                                                                                                
C37                                                                                                                                  25099420.957 6 106203871.384 6       581.082 6        41.374 6
> 2020 08 27 07 58 24.0000000  0  7       0.000000000000
C06  36196501.039 6 188484680.258 6        56.467 6        41.470 6  36196496.531 5 145748243.746 5        42.736 5        34.417 5  36196496.797 5 153159232.375 5        45.465 5        35.901 5
C08  36069535.969 5 187823548.882 5       -14.764 5        35.901 5  36069533.785 6 145237060.479 6       -11.482 6        37.346 6                                                                
C13  35662767.598 5 185705395.704 5       390.178 5        34.727 5                                                                  35662767.289 5 150900850.453 5       316.598 5        32.891 5
C16  36401967.836 5 189554610.452 5       231.389 5        31.864 5                                                                                                                                
C20  23103008.977 6 120303421.958 6     -1242.615 6        37.346 6                                                                  23103003.992 7  97756374.566 7     -1009.650 7        43.092 7
C32  26860870.070 5 139871604.288 5     -2104.412 5        35.418 5                                                                                                                                
C37                                                                                                                                  25099283.656 6 106203290.694 6       580.855 6        41.438 6
> 2020 08 27 07 58 25.0000000  0  7       0.000000000000
C06  36196490.445 6 188484624.104 6        55.295 6        41.687 6  36196485.902 5 145748200.283 5        43.729 5        34.575 5  36196486.145 6 153159186.771 6        44.410 6        36.124 6
C08  36069538.863 6 187823564.285 6       -14.959 6        36.014 6  36069536.645 6 145237072.392 6       -11.838 6        37.507 6                                                                
C13  35662692.539 5 185705005.492 5       390.490 5        35.017 5                                                                  35662692.504 5 150900533.373 5       317.732 5        33.113 5
C16  36401923.832 5 189554380.926 5       230.861 5        31.564 5                                                                                                                                
C20  23103247.863 6 120304664.750 6     -1241.932 6        37.585 6                                                                  23103242.598 7  97757384.454 7     -1009.887 7        43.070 7
C32  26861273.871 5 139873708.512 5     -2103.533 5        35.666 5                                                                                                                                
C37                                                                                                                                  25099146.379 6 106202710.300 6       580.096 6        41.342 6
> 2020 08 27 07 58 26.0000000  0  7       0.000000000000
C06  36196479.719 6 188484567.856 6        56.258 6        41.687 6  36196475.426 5 145748156.872 5        42.854 5        34.727 5  36196475.230 6 153159141.041 6        45.371 6        36.014 6
C08  36069541.656 5 187823579.698 5       -16.066 5        35.901 5  36069539.941 6 145237084.283 6       -11.463 6        37.737 6                                                                
C13  35662617.852 5 185704615.290 5       391.277 5        35.017 5                                                                  35662617.465 5 150900216.234 5       319.941 5        33.325 5
C16  36401879.691 5 189554151.389 5       229.637 5        32.144 5                                                                                                                                
C20  23103486.727 6 120305907.530 6     -1242.648 6        37.427 6                                                                  23103481.246 7  97758394.293 7     -1009.844 7        43.113 7
C32  26861677.824 5 139875812.594 5     -2104.857 5        35.288 5                                                                                                                                
C37                                                                                                                                  25099009.344 6 106202130.146 6       579.688 6        41.470 6
> 2020 08 27 07 58 27.0000000  0  7       0.000000000000
C06  36196469.027 6 188484511.911 6        55.766 6        41.502 6  36196464.414 5 145748113.547 5        42.805 5        34.727 5  36196464.613 6 153159095.515 6        46.902 6        36.231 6
C08  36069544.668 5 187823595.341 5       -15.895 5        35.785 5  36069543.059 6 145237096.396 6       -11.844 6        37.662 6                                                                
C13  35662542.949 5 185704225.265 5       390.277 5        34.727 5                                                                  35662542.672 5 150899899.432 5       316.512 5        33.113 5
C16  36401835.773 5 189553922.063 5       230.238 5        31.864 5                                                                                                                                
C20  23103725.699 6 120307150.472 6     -1243.783 6        37.507 6                                                                  23103720.008 7  97759404.291 7     -1010.520 7        43.048 7
C32  26862081.961 5 139877916.641 5     -2103.607 5        35.785 5                                                                                                                                
C37                                                                                                                                  25098872.441 6 106201550.419 6       579.752 6        41.626 6
> 2020 08 27 07 58 28.0000000  0  7       0.000000000000
C06  36196458.414 6 188484456.104 6        55.049 6        41.533 6  36196454.016 5 145748070.399 5        42.141 5        34.575 5  36196454.016 6 153159050.187 6        45.941 6        36.014 6
C08  36069547.898 6 187823611.199 6       -16.084 6        36.124 6  36069546.039 6 145237108.675 6       -12.391 6        37.737 6                                                                
C13  35662468.086 5 185703835.421 5       390.244 5        34.727 5                                                                  35662467.785 5 150899582.608 5       315.922 5        33.325 5
C16  36401791.852 5 189553692.931 5       229.932 5        31.864 5                                                                                                                                
C20  23103964.313 6 120308393.481 6     -1242.783 6        37.427 6                                                                  23103958.641 7  97760414.354 7     -1010.074 7        42.959 7
C32  26862486.133 5 139880020.784 5     -2104.031 5        35.785 5                                                                                                                                
C37                                                                                                                                  25098735.590 6 106200971.110 6       579.201 6        41.656 6
> 2020 08 27 07 58 29.0000000  0  7       0.000000000000
C06  36196447.512 6 188484400.512 6        55.162 6        41.533 6  36196443.293 5 145748027.451 5        42.055 5        34.874 5  36196443.328 6 153159005.046 6        45.289 6        36.124 6
C08  36069550.809 6 187823627.305 6       -16.010 6        36.231 6  36069548.840 6 145237121.155 6       -13.570 6        37.737 6                                                                
C13  35662393.188 5 185703445.802 5       388.678 5        34.874 5                                                                  35662393.039 5 150899265.921 5       317.594 5        33.113 5
C16  36401747.898 5 189553464.047 5       229.166 5        31.864 5                                                                                                                                
C20  23104202.750 6 120309636.735 6     -1243.668 6        37.346 6                                                                  23104197.363 7  97761424.591 7     -1010.219 7        43.135 7
C32  26862890.094 5 139882124.902 5     -2103.590 5        35.901 5                                                                                                                                
C37                                                                                                                                  25098598.840 6 106200392.299 6       578.180 6        41.502 6
