     2.11           OBSERVATION DATA    M (MIXED)           RINEX VERSION / TYPE
teqc  2018Jun8      root                20201007 09:46:22UTCPGM / RUN BY / DATE
Linux 2.4.21-27.ELsmp|Opteron|gcc|Linux 64|=+               COMMENT
teqc  2019Feb25     NOAA/NOS/NGS/CORS   20201002 03:54:11UTCCOMMENT
RTCM2RINEX 1.2.19   NRCan               20201001 00:17:16UTCCOMMENT
gfzrnx-1.11-7352    FILE MERGE          20201002 001709 UTC COMMENT
GPS -    L1 Phase aligned to CA and L2 aligned to P2        COMMENT
GLONASS- L1 Phase aligned to C1 and L2 aligned to P2        COMMENT
This data is subject to the Open Government Licence- Canada COMMENT
https://open.canada.ca/en/open-government-licence-canada    COMMENT
teqc.e edited: all SBAS satellites excluded                 COMMENT
teqc.e edited: all QZSS satellites excluded                 COMMENT
FRDN                                                        MARKER NAME
40146M001                                                   MARKER NUMBER
ACSOPS              NRCan                                   OBSERVER / AGENCY
618-02358           TPS NET-G3A         4.7 Nov,23,2017 p6  REC # / TYPE / VERS
383-0933            TPSCR.G3        NONE                    ANT # / TYPE
  1760543.5050 -4080069.4780  4560178.6470                  APPROX POSITION XYZ
        0.1000        0.0000        0.0000                  ANTENNA: DELTA H/E/N
     1     1                                                WAVELENGTH FACT L1/2
     8    C1    C2    L1    L2    P1    P2    S1    S2      # / TYPES OF OBSERV
    30.0000                                                 INTERVAL
teqc.w windowed: start @ 2020 Oct  1 10:00:00.000           COMMENT
teqc.w windowed:  end  @ 2020 Oct  1 11:00:00.000           COMMENT
  2020    10     1    10     0    0.0000000     GPS         TIME OF FIRST OBS
    18                                                      LEAP SECONDS
                                                            END OF HEADER
 20 10  1 10  0  0.0000000  0 17G01G03G06G11G17G19G22G24G28R01R07R08
                                R14R15R17R23R24
  22332708.492    22332709.345   117359196.2204   91448727.6964   22332708.387
  22332709.487          44.500          43.000
  21778597.066    21778597.521   114447312.9614   89179725.3584   21778596.342
  21778597.106          46.750          47.500
  22791590.817    22791592.132   119770633.9614   93327774.3374   22791590.737
  22791591.819          45.250          32.000
  24430903.309                   128385274.6244  100040468.5014   24430902.894
  24430900.474          38.000          16.250
  20929755.312    20929752.670   109986620.2464   85703863.0224   20929754.651
  20929752.281          48.750          42.250
  21568188.524                   113341606.6714   88318132.0354   21568187.078
  21568183.808          47.750          37.750
  22526321.554                   118376633.7224   92241531.5194   22526319.551
  22526316.279          46.750          35.250
  24278414.275    24278412.974   127583918.1044   99416045.3194   24278412.953
  24278413.117          38.250          20.250
  20624078.400                   108380266.1634   84452152.3424   20624077.178
  20624075.063          49.500          40.750
  22387757.397    22387756.454   119675410.601    93080866.801    22387757.260
  22387756.184          44.000          34.000
  24179619.328    24179614.291   129435377.628   100671957.031    24179616.790
  24179614.848          31.000          29.750
  22378403.654    22378399.382   119835341.081    93205259.179    22378404.210
  22378400.055          46.500          40.000
  20460523.749    20460521.177   109066099.217    84829177.788    20460523.231
  20460521.489          53.500          45.500
  20426812.896    20426809.986   109154707.603    84898096.521    20426813.297
  20426809.958          53.250          45.250
  20571730.681    20571726.773   110083523.277    85620507.727    20571730.590
  20571726.605          52.750          44.750
  21739287.544    21739286.575   116290566.889    90448221.362    21739288.057
  21739287.889          47.000          36.500
  19708925.609    19708922.232   105392511.786    81971946.508    19708925.270
  19708921.673          52.750          47.250
 20 10  1 10  0 30.0000000  0 16G01G03G06G11G17G19G22G24G28R01R08R14
                                R15R17R23R24
  22350751.454    22350750.907   117454009.1554   91522607.8864   22350750.727
  22350751.492          45.000          43.500
  21773051.551    21773052.199   114418172.6044   89157018.5974   21773051.120
  21773051.872          48.000          47.500
  22774368.654    22774371.101   119680133.3434   93257254.3854   22774368.868
  22774370.208          44.750          32.500
  24450777.374                   128489713.4924  100121849.3944   24450776.927
  24450774.154          38.000          14.500
  20923418.007    20923415.689   109953319.9004   85677914.6984   20923417.663
  20923415.544          49.000          42.250
  21554831.920                   113271416.2454   88263438.1954   21554830.129
  21554826.795          48.500          37.750
  22531665.691                   118404719.6124   92263416.6244   22531663.967
  22531660.589          48.000          35.250
  24275949.031    24275950.274   127570969.1604   99405955.2384   24275949.074
  24275949.302          38.500          21.000
  20629396.915                   108408217.1864   84473932.3554   20629396.220
  20629394.057          48.000          41.250
  22371392.579    22371392.157   119587938.220    93012832.754    22371393.009
  22371392.043          43.250          34.250
  22376715.447    22376711.216   119826302.346    93198229.042    22376716.544
  22376711.164          46.750          40.000
  20476946.957    20476945.047   109153645.619    84897269.400    20476946.709
  20476944.885          53.500          45.750
  20419963.653    20419960.129   109118105.252    84869628.019    20419964.139
  20419960.091          53.250          46.000
  20560489.533    20560486.675   110023372.616    85573723.886    20560490.140
  20560485.469          52.250          44.750
  21756175.212    21756173.643   116380900.733    90518481.003    21756174.872
  21756174.218          47.500          36.250
  19715750.031    19715746.328   105429004.524    82000329.748    19715749.621
  19715746.094          53.000          47.250
 20 10  1 10  1  0.0000000  0 16G01G03G06G11G17G19G22G24G28R01R08R14
                                R15R17R23R24
  22368835.030    22368835.435   117549040.7594   91596658.4734   22368834.455
  22368835.721          43.250          43.000
  21767620.903    21767621.567   114389634.6674   89134781.2364   21767620.668
  21767621.261          46.250          47.750
  22757199.235    22757200.058   119589902.1134   93186944.3534   22757198.645
  22757199.518          44.500          32.000
  24470660.959                   128594200.0004  100203267.3744   24470660.133
  24470657.630          39.000          13.500
  20917124.942    20917122.662   109920248.0464   85652144.4164   20917124.362
  20917122.253          49.750          42.750
  21541517.676                   113201452.7364   88208921.1744   21541516.358
  21541513.310          48.500          37.750
  22537115.022                   118433356.8394   92285731.3354   22537113.420
  22537110.075          47.250          35.500
  24273590.793    24273591.077   127558577.1464   99396299.1344   24273590.449
  24273591.761          37.500          21.250
  20634806.021                   108436639.8334   84496079.8664   20634804.766
  20634802.647          48.500          41.000
  22355122.560    22355121.221   119500960.042    92945183.067    22355122.658
  22355120.456          44.000          34.250
  22375172.512    22375168.294   119818038.892    93191801.903    22375172.863
  22375167.809          46.500          40.000
  20493484.967    20493483.306   109241803.395    84965836.539    20493485.330
  20493483.550          53.500          45.500
  20413261.743    20413259.071   109082293.338    84841774.306    20413262.051
  20413258.782          52.750          45.750
  20549309.550    20549306.397   109963545.790    85527191.915    20549309.649
  20549305.767          52.750          44.750
  21773083.391    21773081.479   116471341.248    90588823.579    21773082.367
  21773080.855          49.250          36.750
  19722639.270    19722635.681   105465843.014    82028981.895    19722638.791
  19722634.861          53.250          47.250
 20 10  1 10  1 30.0000000  0 16G01G03G06G11G17G19G22G24G28R01R08R14
                                R15R17R23R24
  22386960.714    22386960.699   117644288.2774   91670877.3064   22386959.742
  22386960.704          45.750          43.250
  21762305.169    21762306.106   114361700.0284   89113013.9814   21762304.900
  21762305.381          48.250          47.250
  22740079.696    22740081.385   119499941.1644   93116844.9264   22740079.571
  22740080.623          45.000          31.750
  24490551.919                   128698732.5154  100284721.1924   24490551.694
  24490550.336          39.250          14.750
  20910875.166    20910872.062   109887404.7814   85626552.2624   20910874.446
  20910872.289          50.250          43.000
  21528247.863                   113131716.6864   88154581.3854   21528246.040
  21528243.147          48.750          38.250
  22542669.235                   118462544.0504   92308474.6104   22542667.702
  22542664.461          47.500          35.250
  24271338.498    24271339.038   127546741.7024   99387076.7154   24271338.169
  24271338.898          38.000          20.000
  20640304.249                   108465533.7164   84518594.5684   20640303.121
  20640300.859          48.750          40.750
  22338944.144    22338942.511   119414480.153    92877920.932    22338944.137
  22338942.883          43.250          34.500
  22373774.123    22373770.756   119810551.591    93185978.433    22373774.780
  22373770.617          46.000          40.250
  20510136.969    20510135.544   109330568.634    85034876.139    20510137.361
  20510135.432          53.750          45.500
  20406708.342    20406705.722   109047273.304    84814536.498    20406708.756
  20406705.293          53.000          46.000
  20538190.915    20538187.192   109904042.912    85480911.888    20538190.501
  20538187.026          52.500          45.250
  21790008.852    21790007.032   116561886.918    90659247.976    21790008.457
  21790008.180          47.750          36.000
  19729592.086    19729588.515   105503025.443    82057901.560    19729591.911
  19729588.213          53.500          47.500
 20 10  1 10  2  0.0000000  0 16G01G03G06G11G17G19G22G24G28R01R08R14
                                R15R17R23R24
  22405126.168    22405125.959   117739749.4204   91745262.5894   22405125.323
  22405126.317          44.250          42.750
  21757104.371    21757105.577   114334370.1314   89091717.9644   21757104.128
  21757104.767          45.750          47.250
  22723011.966    22723013.946   119410251.8624   93046957.1474   22723011.819
  22723013.069          43.500          31.750
  24510452.561                   128803309.8944  100366209.9884   24510451.717
  24510449.524          39.000          13.750
  20904668.854    20904666.333   109854791.1504   85601139.0394   20904668.264
  20904666.096          49.000          42.500
  21515020.853                   113062209.3004   88100419.7884   21515019.432
  21515016.373          48.000          38.750
  22548328.165                   118492280.4794   92331645.8454   22548326.565
  22548323.040          47.500          35.250
  24269192.672    24269192.777   127535462.7884   99378287.9294   24269192.228
  24269192.499          37.750          21.250
  20645892.207                   108494899.0344   84541476.6244   20645891.221
  20645889.123          48.750          40.750
  22322861.046    22322858.786   119328502.618    92811049.535    22322860.425
  22322860.269          44.000          35.000
  22372520.893    22372517.466   119803841.117    93180759.171    22372521.794
  22372517.416          45.500          40.500
  20526902.625    20526900.606   109419937.892    85104385.536    20526902.679
  20526900.363          53.250          45.000
  20400303.223    20400300.612   109013047.268    84787916.248    20400303.483
  20400300.579          53.250          45.500
  20527131.961    20527127.892   109844864.016    85434883.855    20527131.568
  20527127.378          53.000          44.750
  21806954.518    21806953.376   116652535.916    90729752.738    21806955.048
  21806954.239          48.000          36.000
  19736609.439    19736606.009   105540550.727    82087087.892    19736609.494
  19736605.905          52.750          47.000
 20 10  1 10  2 30.0000000  0 16G01G03G06G11G17G19G22G24G28R01R08R14
                                R15R17R23R24
  22423331.253    22423331.845   117835421.8614   91819812.5324   22423331.089
  22423332.258          44.000          43.000
  21752019.152    21752019.974   114307646.1224   89070894.0524   21752018.776
  21752019.324          48.250          47.500
  22705997.473    22705999.058   119320835.4794   92977282.0464   22705996.964
  22705998.010          45.000          32.750
  24530361.277                   128907931.1204  100447733.0104   24530360.928
  24530359.520          39.500          13.250
  20898506.130    20898503.605   109822406.7934   85575904.4714   20898505.833
  20898503.685          50.250          42.750
  21501837.877                   112992931.4464   88046437.0494   21501836.167
  21501833.248          48.000          38.500
  22554090.875                   118522564.9864   92355244.1564   22554089.631
  22554086.012          47.250          34.750
  24267151.666    24267151.715   127524740.6644   99369933.0304   24267151.959
  24267152.265          38.250          21.500
  20651569.972                   108524735.5084   84564725.8134   20651568.865
  20651566.805          49.000          40.500
  22306871.829    22306869.226   119243032.025    92744572.407    22306871.431
  22306870.539          43.250          35.000
  22371414.074    22371410.276   119797908.348    93176144.786    22371414.534
  22371409.690          46.500          40.500
  20543780.943    20543778.665   109509907.539    85174361.906    20543780.743
  20543778.865          53.000          45.250
  20394046.938    20394044.056   108979616.970    84761914.904    20394047.476
  20394044.212          53.000          46.000
  20516132.684    20516129.510   109786009.307    85389107.978    20516132.840
  20516129.018          53.000          45.000
  21823920.394    21823917.974   116743287.347    90800337.156    21823919.117
  21823918.843          48.500          35.750
  19743690.596    19743686.947   105578417.225    82116539.605    19743690.676
  19743686.849          53.250          47.250
 20 10  1 10  3  0.0000000  0 16G01G03G06G11G17G19G22G24G28R01R08R14
                                R15R17R23R24
  22441576.567    22441577.694   117931302.4524   91894524.6684   22441576.657
  22441577.776          43.750          42.750
  21747048.953    21747049.608   114281528.5534   89050542.6974   21747048.664
  21747049.246          47.500          47.250
  22689033.771    22689035.083   119231692.5044   92907820.0094   22689033.527
  22689034.606          44.750          32.250
  24550278.335                   129012594.0464  100529288.5064   24550277.279
  24550275.703          39.750          13.500
  20892387.728    20892385.097   109790252.8834   85550849.4754   20892386.964
  20892384.831          50.500          42.500
  21488698.406                   112923883.3514   87992633.3324   21488697.134
  21488693.766          48.250          38.500
  22559957.930                   118553395.8184   92379268.1724   22559956.230
  22559953.011          48.000          35.250
  24265216.945    24265218.174   127514574.6544   99362011.4494   24265217.108
  24265217.592          36.500          20.750
  20657337.184                   108555042.2884   84588341.4754   20657336.225
  20657333.933          48.750          41.000
  22290978.157    22290976.689   119158071.974    92678492.377    22290978.215
  22290977.215          43.000          35.250
  22370451.121    22370446.262   119792753.226    93172135.235    22370451.673
  22370446.224          46.750          40.000
  20560770.494    20560768.947   109600473.079    85244801.757    20560770.723
  20560768.872          53.250          45.250
  20387939.781    20387937.799   108946983.602    84736533.381    20387940.435
  20387937.594          53.500          46.250
  20505195.353    20505191.502   109727478.151    85343583.748    20505194.908
  20505191.662          52.750          45.250
  21840903.699    21840902.588   116834139.386    90870999.828    21840904.212
  21840902.795          49.000          36.000
  19750835.824    19750831.983   105616622.711    82146254.972    19750835.437
  19750831.628          53.250          47.250
 20 10  1 10  3 30.0000000  0 16G01G03G06G11G17G19G22G24G28R01R08R14
                                R15R17R23R24
  22459861.483    22459862.536   118027389.9294   91969398.0054   22459861.621
  22459862.572          43.000          42.750
  21742194.652    21742195.737   114256019.6224   89030665.6054   21742194.509
  21742195.069          47.750          47.500
  22672122.949    22672124.007   119142825.1514   92838572.7194   22672122.776
  22672123.267          44.500          32.250
  24570203.644                   129117298.8094  100610876.5754   24570202.567
  24570200.731          40.500          13.250
  20886313.005    20886310.697   109758330.2844   85525974.7164   20886312.349
  20886310.373          49.500          42.250
  21475603.379                   112855067.0834   87939010.2644   21475601.701
  21475598.349          48.500          38.250
  22565928.401                   118584773.1374   92403718.0274   22565927.243
  22565923.929          46.750          35.250
  24263387.888    24263390.061   127504965.5494   99354523.8554   24263388.269
  24263389.402          37.000          19.750
  20663194.083                   108585820.5404   84612324.5184   20663193.014
  20663190.878          48.750          40.500
  22275181.267    22275179.506   119073627.342    92612813.223    22275180.636
  22275179.977          43.500          35.500
  22369633.299    22369629.217   119788377.387    93168731.788    22369634.293
  22369629.508          46.500          40.000
  20577871.613    20577869.837   109691631.943    85315703.072    20577871.943
  20577869.880          53.250          45.250
  20381983.203    20381979.779   108915149.848    84711773.801    20381983.447
  20381980.014          53.250          45.750
  20494317.460    20494314.329   109669271.849    85298312.178    20494317.784
  20494314.267          52.500          45.500
  21857906.789    21857904.200   116925091.620    90941740.438    21857906.797
  21857905.816          48.750          35.500
  19758043.147    19758040.190   105655166.858    82176233.750    19758042.886
  19758039.572          52.500          47.500
 20 10  1 10  4  0.0000000  0 16G01G03G06G11G17G19G22G24G28R01R08R14
                                R15R17R23R24
  22478184.946    22478186.133   118123680.8424   92044429.8664   22478184.665
  22478186.299          43.250          43.250
  21737456.559    21737457.634   114231119.3914   89011262.8224   21737456.188
  21737456.727          47.250          47.750
  22655264.395    22655265.506   119054233.4974   92769540.2734   22655264.107
  22655265.042          44.750          32.500
  24590135.749                   129222043.3014  100692495.5924   24590134.933
  24590133.675          39.000          13.500
  20880282.328    20880279.619   109726638.1494   85501279.5444   20880281.666
  20880279.503          49.500          42.500
  21462551.679                   112786482.4874   87885567.7264   21462550.302
  21462547.108          48.500          38.500
  22572003.445                   118616694.7054   92428591.9624   22572001.560
  22571998.476          47.750          35.250
  24261666.499    24261667.200   127495912.6204   99347469.6174   24261666.573
  24261666.215          37.250          20.750
  20669140.274                   108617068.7304   84636673.7434   20669139.305
  20669137.323          48.750          40.500
  22259480.109    22259479.674   118989701.393    92547537.496    22259480.118
  22259479.513          43.000          35.500
  22368962.414    22368958.507   119784780.485    93165934.186    22368962.998
  22368958.097          46.750          40.250
  20595082.672    20595081.718   109783379.519    85387062.287    20595083.246
  20595081.591          52.750          45.500
  20376175.777    20376172.634   108884116.380    84687636.653    20376175.934
  20376172.601          53.500          46.500
  20483501.241    20483497.644   109611389.160    85253292.306    20483501.283
  20483496.920          52.500          45.000
  21874928.143    21874925.074   117016141.526    91012557.004    21874926.875
  21874926.034          48.750          35.750
  19765313.919    19765310.743   105694047.211    82206474.016    19765314.067
  19765310.379          53.250          47.000
 20 10  1 10  4 30.0000000  0 16G01G03G06G11G17G19G22G24G28R01R08R14
                                R15R17R23R24
  22496547.588    22496548.147   118220173.8964   92119619.2484   22496547.017
  22496548.147          43.750          42.250
  21732834.101    21732835.359   114206830.1184   88992336.1174   21732833.994
  21732834.640          47.250          47.750
  22638458.555    22638459.730   118965919.9204   92700724.4864   22638458.468
  22638459.514          45.250          32.500
  24610074.848                   129326827.4574  100774145.5084   24610074.221
  24610073.542          37.500          13.250
  20874295.803    20874293.096   109695178.6504   85476765.6414   20874294.984
  20874292.924          49.250          42.750
  21449545.061                   112718132.0824   87832307.6614   21449543.444
  21449540.517          48.000          38.500
  22578181.169                   118649160.5974   92453890.0444   22578179.771
  22578176.464          47.500          35.250
  24260050.134    24260050.280   127487416.2674   99340849.0754   24260048.971
  24260049.798          37.750          20.500
  20675176.347                   108648788.0684   84661390.1034   20675175.244
  20675173.152          48.250          40.500
  22243878.823    22243877.014   118906299.605    92482669.426    22243878.488
  22243877.325          43.500          35.500
  22368435.850    22368431.978   119781964.365    93163743.868    22368436.485
  22368431.306          46.750          40.250
  20612405.063    20612403.356   109875713.120    85458877.297    20612405.189
  20612403.294          53.250          44.750
  20370518.189    20370515.634   108853886.071    84664124.184    20370518.308
  20370515.330          53.750          45.750
  20472745.418    20472741.804   109553831.431    85208525.188    20472744.712
  20472741.452          52.750          45.500
  21891967.536    21891964.457   117107288.878    91083449.351    21891966.857
  21891965.682          48.500          35.500
  19772647.849    19772644.379   105733263.284    82236975.400    19772647.709
  19772644.101          53.500          47.500
 20 10  1 10  5  0.0000000  0 16G01G03G06G11G17G19G22G24G28R01R08R14
                                R15R17R23R24
  22514947.604    22514948.449   118316867.2104   92194964.6534   22514947.347
  22514948.533          44.250          42.750
  21728329.059    21728329.627   114183153.2944   88973886.6384   21728328.483
  21728329.057          47.750          48.000
  22621706.617    22621707.853   118877886.0034   92632126.6394   22621706.362
  22621707.512          45.750          33.000
  24630022.221                   129431650.2594  100855825.5344   24630021.701
  24630020.030          36.750          14.000
  20868353.288    20868350.823   109663952.4794   85452433.5584   20868352.838
  20868350.896          50.250          42.500
  21436583.265                   112650017.0414   87779231.0004   21436581.554
  21436578.701          48.000          38.750
  22584462.491                   118682169.6944   92479611.4134   22584461.109
  22584457.665          47.000          34.750
  24258539.054    24258538.851   127479477.8304   99334663.2864   24258538.407
  24258539.246          37.250          21.250
  20681302.028                   108680978.4814   84686473.5274   20681301.008
  20681298.847          49.000          40.500
  22228375.380    22228373.803   118823426.186    92418212.345    22228375.277
  22228374.165          43.000          35.500
  22368056.114    22368051.519   119779929.689    93162161.325    22368056.966
  22368051.546          46.750          40.250
  20629835.851    20629834.021   109968629.332    85531145.449    20629835.836
  20629833.756          53.250          45.250
  20365012.018    20365009.142   108824460.919    84641237.949    20365012.121
  20365009.097          53.250          46.500
  20462049.815    20462046.171   109496599.122    85164011.160    20462049.362
  20462046.181          52.250          45.500
  21909023.123    21909021.809   117198533.050    91154417.030    21909023.395
  21909023.433          48.000          35.250
  19780043.896    19780040.775   105772814.315    82267737.311    19780043.597
  19780040.406          53.000          47.000
 20 10  1 10  5 30.0000000  0 16G01G03G06G11G17G19G22G24G28R01R08R14
                                R15R17R23R24
  22533385.275    22533386.457   118413757.0804   92270463.2384   22533384.862
  22533385.918          44.500          42.750
  21723939.778    21723940.683   114160088.6604   88955914.1934   21723939.480
  21723939.966          48.000          47.750
  22605007.026    22605008.961   118790131.6284   92563746.6194   22605006.954
  22605008.382          45.500          33.000
  24649976.769                   129536509.7804  100937534.1744   24649975.517
  24649973.829          36.250          14.500
  20862455.823    20862452.831   109632959.1074   85428282.8724   20862455.049
  20862452.784          49.250          42.500
  21423666.262                   112582137.1054   87726337.5434   21423664.517
  21423661.824          49.000          38.500
  22590847.483                   118715719.8304   92505754.3704   22590845.654
  22590842.074          47.750          35.000
  24257133.463    24257134.597   127472095.3194   99328910.7024   24257133.301
  24257134.174          37.000          21.000
  20687517.243                   108713638.7424   84711923.0714   20687516.057
  20687513.895          48.500          40.750
  22212971.985    22212970.754   118741084.199    92354168.583    22212971.230
  22212970.373          44.000          35.500
  22367823.133    22367818.224   119778675.847    93161186.105    22367823.190
  22367817.776          47.250          40.250
  20647374.823    20647373.146   110062123.299    85603862.971    20647374.820
  20647373.318          52.750          45.750
  20359655.817    20359653.280   108795841.067    84618978.053    20359656.092
  20359653.062          53.000          46.000
  20451415.121    20451411.787   109439691.173    85119749.434    20451414.895
  20451411.403          52.500          45.000
  21926097.902    21926096.647   117289871.593    91225458.093    21926097.864
  21926097.823          47.500          35.750
  19787502.112    19787498.926   105812697.280    82298757.389    19787501.913
  19787498.698          52.750          47.000
 20 10  1 10  6  0.0000000  0 16G01G03G06G11G17G19G22G24G28R01R08R14
                                R15R17R23R24
  22551859.143    22551860.554   118510841.0374   92346113.0594   22551859.209
  22551860.318          43.250          42.500
  21719666.948    21719668.565   114137637.1054   88938419.4704   21719667.054
  21719667.628          47.500          47.500
  22588361.548    22588363.353   118702657.7224   92495585.1404   22588361.139
  22588362.781          44.750          32.500
  24669936.882                   129641404.3534  101019270.0944   24669936.396
  24669935.333          34.750          14.750
  20856601.899    20856599.738   109602198.5764   85404313.6254   20856601.618
  20856599.475          49.750          43.250
  21410794.093                   112514492.8494   87673627.7344   21410792.472
  21410789.543          48.250          38.750
  22597334.238                   118749809.8474   92532318.0124   22597332.781
  22597329.444          47.500          35.000
  24255834.668    24255836.354   127465267.8974   99323590.6254   24255834.829
  24255835.092          37.250          21.750
  20693821.090                   108746768.2524   84737738.2694   20693820.306
  20693818.243          47.250          40.750
  22197667.505    22197667.568   118659277.546    92290541.191    22197667.978
  22197667.765          43.500          35.500
  22367733.148    22367729.521   119778202.936    93160818.279    22367734.458
  22367730.280          46.000          40.000
  20665022.125    20665020.003   110156190.897    85677026.653    20665021.798
  20665019.703          53.250          45.000
  20354451.649    20354448.470   108768028.274    84597345.892    20354451.672
  20354448.418          53.750          46.250
  20440841.126    20440837.601   109383107.456    85075739.874    20440840.693
  20440837.489          52.500          45.250
  21943190.794    21943188.264   117381303.179    91296571.514    21943190.366
  21943189.424          47.750          35.250
  19795022.283    19795018.926   105852910.708    82330034.487    19795022.245
  19795018.907          52.500          47.250
 20 10  1 10  6 30.0000000  0 16G01G03G06G11G17G19G22G24G28R01R08R14
                                R15R17R23R24
  22570370.972    22570371.168   118608117.7174   92421913.0514   22570370.468
  22570371.491          43.750          42.000
  21715512.247    21715512.959   114115800.5754   88921403.9954   21715511.719
  21715512.253          48.750          47.500
  22571769.413    22571771.027   118615466.4724   92427643.9014   22571769.430
  22571770.585          45.750          33.250
  24689903.783                   129746333.8564  101101033.1934   24689904.054
  24689902.895          32.750          13.750
  20850792.901    20850790.824   109571672.5344   85380527.0964   20850792.566
  20850790.573          49.750          43.000
  21397966.839                   112447086.6824   87621103.4414   21397965.256
  21397962.307          49.000          38.500
  22603923.923                   118784439.5584   92559302.1894   22603922.649
  22603919.060          46.750          35.000
  24254641.626    24254642.114   127458997.3874   99318704.5244   24254640.928
  24254641.720          37.500          21.000
  20700215.145                   108780367.9424   84763919.8254   20700214.189
  20700212.088          48.750          40.750
  22182465.804    22182463.775   118578011.149    92227334.012    22182466.045
  22182465.339          44.000          35.000
  22367790.386    22367787.747   119778512.468    93161059.003    22367792.018
  22367787.962          45.750          40.500
  20682775.981    20682774.448   110250829.518    85750634.455    20682775.769
  20682774.461          52.750          45.250
  20349398.065    20349395.064   108741024.783    84576343.160    20349398.167
  20349394.778          53.250          46.250
  20430327.617    20430324.676   109326848.991    85031983.290    20430327.287
  20430324.307          52.500          45.500
  21960301.400    21960298.197   117472827.177    91367756.820    21960300.151
  21960299.177          48.500          35.250
  19802604.055    19802600.874   105893454.254    82361568.348    19802603.904
  19802600.430          52.750          47.500
 20 10  1 10  7  0.0000000  0 16G01G03G06G11G17G19G22G24G28R01R08R14
                                R15R17R23R24
  22588917.843    22588919.145   118705584.2074   92497860.9424   22588917.725
  22588918.973          44.250          42.000
  21711473.853    21711475.000   114094579.5364   88904868.1174   21711473.473
  21711474.132          47.250          47.500
  22555231.530    22555233.628   118528558.4044   92359923.3364   22555231.213
  22555232.922          45.500          33.500
  24709878.929                   129851296.8664  101182822.4264   24709878.085
  24709877.018          33.000          12.750
  20845028.846    20845026.425   109541381.1594   85356923.4224   20845028.338
  20845026.180          49.750          43.000
  21385185.008                   112379918.8464   87568764.8614   21385183.660
  21385180.502          48.250          38.750
  22610616.176                   118819607.1794   92586705.5184   22610614.632
  22610611.390          46.250          34.750
  24253553.634    24253554.142   127453281.8194   99314250.8464   24253553.242
  24253554.098          37.000          21.000
  20706698.234                   108814436.6934   84790466.8944   20706697.056
  20706695.261          49.250          41.000
  22167364.599    22167363.126   118497288.823    92164549.972    22167364.637
  22167363.300          43.750          34.750
  22367994.969    22367990.731   119779604.122    93161908.034    22367995.708
  22367991.110          46.000          40.500
  20700636.430    20700634.369   110346034.485    85824682.753    20700636.435
  20700633.935          53.250          45.000
  20344496.388    20344493.472   108714831.541    84555970.637    20344496.451
  20344493.413          53.500          46.750
  20419875.158    20419871.617   109270915.476    84988479.444    20419875.415
  20419871.531          52.750          45.250
  21977427.553    21977423.977   117564441.801    91439012.617    21977426.936
  21977425.444          48.250          35.500
  19810247.592    19810244.128   105934325.594    82393357.158    19810247.339
  19810243.736          53.000          47.000
 20 10  1 10  7 30.0000000  0 16G01G03G06G11G17G19G22G24G28R01R08R14
                                R15R17R23R24
  22607501.055    22607501.746   118803238.6124   92573955.2594   22607500.767
  22607501.867          43.500          42.500
  21707552.807    21707553.752   114073975.2964   88888812.8704   21707552.558
  21707553.295          47.750          47.750
  22538747.970    22538749.657   118441935.0994   92292424.6714   22538747.936
  22538748.848          45.500          33.750
  24729856.948                   129956292.1394  101264636.8174   24729856.991
  24729856.873          31.750          12.250
  20839309.384    20839307.115   109511325.3174   85333503.2844   20839308.986
  20839306.800          50.000          43.000
  21372449.092                   112312990.5994   87516612.9784   21372447.852
  21372444.853          47.750          38.750
  22617410.906                   118855311.4914   92614527.0454   22617409.070
  22617405.619          47.500          34.750
  24252571.751    24252573.195   127448122.3224   99310230.4414   24252571.709
  24252572.313          37.000          20.750
  20713270.532                   108848974.7914   84817379.6864   20713269.573
  20713267.558          49.500          40.000
  22152366.651    22152364.558   118417114.750    92102192.363    22152366.682
  22152364.744          44.000          34.500
  22368344.713    22368341.758   119781478.740    93163366.080    22368346.218
  22368341.195          46.750          40.500
  20718601.785    20718600.408   110441802.527    85899168.993    20718601.943
  20718600.122          52.750          44.500
  20339747.120    20339743.717   108689450.327    84536229.686    20339747.196
  20339743.682          54.000          46.750
  20409483.196    20409479.615   109215307.178    84945228.549    20409483.149
  20409479.558          52.500          45.250
  21994570.190    21994567.949   117656146.650    91510338.588    21994569.472
  21994569.490          47.500          35.250
  19817951.965    19817948.023   105975523.797    82425400.198    19817951.723
  19817948.052          53.000          47.250
 20 10  1 10  8  0.0000000  0 16G01G03G06G11G17G19G22G24G28R01R08R14
                                R15R17R23R24
  22626119.111    22626119.850   118901078.1574   92650193.8324   22626119.087
  22626120.139          43.000          41.750
  21703749.090    21703750.650   114053988.3794   88873238.6434   21703749.240
  21703749.842          48.250          47.750
  22522318.205    22522319.871   118355597.2344   92225148.4154   22522318.208
  22522319.176          45.500          33.750
  24749845.249                   130061318.4404  101346475.3784   24749843.269
  24749843.510          34.000          12.250
  20833634.431    20833632.635   109481504.9754   85310266.6494   20833634.199
  20833632.216          49.500          43.000
  21359759.033                   112246302.3394   87464648.0984   21359757.583
  21359754.327          48.750          38.750
  22624306.437                   118891551.0604   92642765.6644   22624305.100
  22624301.897          47.000          34.750
  24251696.660    24251696.607   127443517.2634   99306642.0804   24251695.321
  24251696.186          37.000          20.500
  20719932.236                   108883981.5634   84844657.6754   20719931.334
  20719929.281          49.000          40.500
  22137471.871    22137470.126   118337492.637    92040264.061    22137471.642
  22137470.145          44.750          35.500
  22368841.358    22368837.813   119784136.569    93165433.273    22368841.653
  22368838.151          46.000          40.250
  20736672.765    20736671.564   110538129.473    85974089.934    20736672.678
  20736671.484          52.750          45.250
  20335148.945    20335145.946   108664882.090    84517121.047    20335149.035
  20335145.886          53.500          46.000
  20399152.421    20399148.924   109160023.684    84902230.278    20399152.011
  20399148.484          52.000          45.250
  22011729.236    22011727.371   117747939.606    91581733.084    22011729.327
  22011727.973          47.500          35.000
  19825716.937    19825713.514   106017047.135    82457696.117    19825716.605
  19825713.240          53.000          47.000
 20 10  1 10  8 30.0000000  0 16G01G03G06G11G17G19G22G24G28R01R08R14
                                R15R17R23R24
  22644773.230    22644773.167   118999101.4754   92726575.6254   22644772.408
  22644773.149          43.500          41.250
  21700063.714    21700064.550   114034620.6154   88858146.8814   21700063.762
  21700064.224          46.750          47.500
  22505943.650    22505945.022   118269546.8584   92158096.1904   22505943.323
  22505944.027          47.250          33.750
  24769836.349                   130166375.6814  101428338.0724   24769835.789
  24769834.604          35.500          12.500
  20828005.346    20828002.798   109451921.4594   85287214.5454   20828004.748
  20828002.614          49.750          43.250
  21347114.529                   112179856.2844   87412871.9494   21347113.012
  21347109.905          49.250          39.250
  22631304.523                   118928325.5564   92671421.1024   22631303.304
  22631299.988          46.750          34.750
  24250925.095    24250926.649   127439468.1464   99303486.9224   24250924.957
  24250925.380          37.500          21.250
  20726683.293                   108919457.5724   84872301.3034   20726682.063
  20726680.184          48.750          40.500
  22122680.981    22122680.102   118258427.515    91978768.987    22122680.631
  22122680.547          44.000          35.250
  22369485.049    22369480.583   119787578.277    93168110.140    22369486.118
  22369480.433          47.250          40.500
  20754847.674    20754845.728   110635012.133    86049443.103    20754847.857
  20754845.837          53.250          44.750
  20330703.699    20330700.906   108641129.221    84498646.597    20330704.289
  20330700.900          53.750          46.000
  20388882.430    20388878.815   109105066.204    84859485.569    20388882.736
  20388878.948          52.500          45.750
  22028906.746    22028903.283   117839820.701    91653196.107    22028905.722
  22028904.063          47.750          35.000
  19833542.657    19833539.345   106058895.171    82490244.579    19833542.512
  19833538.827          52.750          47.000
 20 10  1 10  9  0.0000000  0 16G01G03G06G11G17G19G22G24G28R01R08R14
                                R15R17R23R24
  22663460.259    22663460.909   119097304.9694   92803097.7954   22663460.063
  22663460.980          43.750          41.500
  21696496.443    21696496.926   114015871.5154   88843537.1864   21696495.822
  21696496.398          47.000          47.250
  22489623.575    22489624.441   118183783.7774   92091267.8134   22489623.515
  22489624.065          46.500          34.250
  24789834.271                   130271461.3194  101510222.8784   24789832.976
  24789832.195          34.250          12.250
  20822420.623    20822418.264   109422574.0764   85264346.4554   20822420.226
  20822418.118          49.000          43.000
  21334516.731                   112113652.4314   87361284.5224   21334514.919
  21334511.982          47.750          38.750
  22638404.315                   118965632.5314   92700491.4624   22638402.422
  22638399.238          47.500          34.500
  24250259.146    24250260.762   127435973.4494   99300763.7694   24250260.124
  24250260.165          37.000          22.000
  20733522.965                   108955401.1364   84900309.2644   20733521.944
  20733519.860          48.250          40.500
  22107995.389    22107993.160   118179921.849    91917709.050    22107994.880
  22107993.027          45.000          35.250
  22370272.735    22370269.407   119791802.981    93171396.027    22370273.254
  22370269.369          46.000          40.500
  20773125.883    20773124.391   110732445.495    86125224.598    20773126.019
  20773123.888          53.000          44.750
  20326411.365    20326408.331   108618191.545    84480806.168    20326411.599
  20326408.273          53.250          46.250
  20378673.065    20378669.525   109050433.319    84816993.312    20378673.029
  20378669.254          53.250          45.750
  22046098.325    22046095.855   117931787.323    91724725.671    22046098.204
  22046097.469          47.250          35.250
  19841428.151    19841425.232   106101065.158    82523043.446    19841428.188
  19841425.083          52.500          47.000
 20 10  1 10  9 30.0000000  0 16G01G03G06G11G17G19G22G24G28R01R08R14
                                R15R17R23R24
  22682181.580    22682182.287   119195687.0604   92879759.1394   22682181.469
  22682182.201          44.000          40.750
  21693046.197    21693047.119   113997742.6744   88829410.8254   21693045.996
  21693046.553          46.750          47.750
  22473357.662    22473359.493   118098309.8034   92024664.7224   22473357.717
  22473358.958          45.250          34.250
  24809835.301                   130376575.0614  101592129.6154   24809835.256
  24809834.492          33.250          10.750
  20816881.489    20816879.046   109393464.6354   85241663.7634   20816880.733
  20816878.783          49.750          43.000
  21321964.859                   112047692.2604   87309886.9844   21321963.146
  21321960.035          49.000          39.500
  22645604.180                   119003471.0994   92729976.0544   22645602.772
  22645599.518          46.750          34.500
  24249701.076    24249700.637   127433032.9904   99298472.5164   24249700.715
  24249700.797          38.250          22.250
  20740451.953                   108991812.7334   84928681.9224   20740450.901
  20740448.892          49.500          40.750
  22093414.458    22093411.972   118101980.506    91857088.003    22093414.022
  22093412.559          44.500          34.750
  22371208.253    22371204.771   119796811.582    93175291.598    22371209.133
  22371204.549          46.500          40.250
  20791506.679    20791505.410   110830426.390    86201431.934    20791506.657
  20791505.003          52.250          45.000
  20322271.693    20322268.751   108596071.163    84463601.424    20322271.947
  20322269.006          53.250          46.000
  20368524.441    20368520.949   108996125.795    84774754.128    20368523.944
  20368520.830          52.500          45.500
  22063306.382    22063304.177   118023839.126    91796321.496    22063305.683
  22063304.878          47.250          35.500
  19849374.898    19849371.149   106143556.122    82556091.965    19849374.455
  19849370.971          53.000          47.000
 20 10  1 10 10  0.0000000  0 16G01G03G06G11G17G19G22G24G28R01R08R14
                                R15R17R23R24
  22700937.514    22700937.161   119294246.2404   92956558.4664   22700936.678
  22700937.397          43.000          41.250
  21689714.786    21689715.950   113980235.6934   88815769.0224   21689714.548
  21689715.166          48.500          47.750
  22457148.197    22457150.107   118013126.7764   91958288.3564   22457147.861
  22457148.924          46.500          34.000
  24829845.389                   130481716.4264  101674057.9084   24829842.626
  24829841.071          34.500          11.750
  20811387.454    20811385.081   109364594.1024   85219167.2354   20811386.856
  20811384.866          49.750          42.750
  21309459.557                   111981977.4794   87258680.6474   21309458.104
  21309454.881          48.000          38.750
  22652905.710                   119041841.0914   92759874.7374   22652904.265
  22652901.014          46.250          34.500
  24249246.681    24249247.726   127430647.5024   99296613.6904   24249246.425
  24249246.339          38.250          23.000
  20747470.083                   109028692.6004   84957419.4684   20747468.953
  20747466.810          49.250          40.750
  22078939.835    22078938.403   118024608.131    91796909.490    22078939.761
  22078938.487          44.000          34.750
  22372290.279    22372286.435   119802604.843    93179797.444    22372291.253
  22372287.021          46.500          40.250
  20809989.831    20809988.356   110928951.508    86278062.571    20809989.967
  20809988.046          52.750          44.500
  20318285.921    20318282.723   108574770.137    84447033.952    20318286.245
  20318282.481          54.000          45.750
  20358436.862    20358433.150   108942144.665    84732768.807    20358436.648
  20358432.978          52.750          45.750
  22080529.049    22080527.780   118115975.481    91867983.078    22080528.984
  22080528.556          46.500          35.500
  19857380.619    19857377.370   106186367.630    82589389.795    19857380.431
  19857377.042          53.250          47.250
 20 10  1 10 10 30.0000000  0 15G01G03G06G17G19G22G24G28R01R08R14R15
                                R17R23R24
  22719725.205    22719725.842   119392978.9954   93033493.0584   22719724.769
  22719726.000          43.250          41.750
  21686501.676    21686502.659   113963350.1184   88802611.4304   21686501.393
  21686502.041          47.500          47.750
  22440994.494    22440995.555   117928234.6384   91892138.6334   22440993.955
  22440994.616          46.000          34.500
  20805938.704    20805936.573   109335961.8164   85196856.3624   20805938.356
  20805936.401          50.250          43.000
  21297001.136                   111916507.8874   87207665.3724   21296999.431
  21296996.636          48.000          38.750
  22660308.528                   119080739.9754   92790185.5464   22660306.433
  22660303.504          47.750          34.000
  24248898.695    24248898.661   127428815.1154   99295185.8724   24248897.690
  24248898.211          38.250          22.750
  20754576.699                   109066039.1824   84986520.6894   20754575.771
  20754573.649          49.000          40.500
  22064573.568    22064572.433   117947807.845    91737175.948    22064572.843
  22064573.149          45.500          35.500
  22373518.976    22373514.777   119809181.461    93184912.583    22373519.208
  22373514.743          47.000          40.250
  20828574.250    20828572.745   111028015.967    86355112.683    20828574.207
  20828572.285          52.750          44.500
  20314452.983    20314450.306   108554288.443    84431103.745    20314452.941
  20314450.357          53.500          46.250
  20348410.203    20348406.396   108888488.617    84691036.312    20348409.556
  20348406.157          53.000          45.750
  22097769.757    22097767.688   118208194.116    91939708.637    22097768.993
  22097768.146          46.500          35.750
  19865445.961    19865442.801   106229497.027    82622934.873    19865445.608
  19865442.613          53.000          47.000
 20 10  1 10 11  0.0000000  0 15G01G03G06G17G19G22G24G28R01R08R14R15
                                R17R23R24
  22738546.087    22738546.825   119491883.5234   93110561.4954   22738545.792
  22738546.736          43.500          41.250
  21683407.135    21683407.995   113947087.1984   88789939.0254   21683406.677
  21683407.279          48.000          47.750
  22424895.002    22424896.628   117843634.8394   91826216.7204   22424894.507
  22424895.928          46.500          34.250
  20800535.607    20800533.541   109307568.2714   85174731.5144   20800535.291
  20800533.102          50.250          43.500
  21284589.259                   111851284.9354   87156842.2964   21284587.763
  21284585.354          48.000          38.750
  22667810.524                   119120166.3874   92820907.4224   22667809.166
  22667806.145          46.750          34.250
  24248655.178    24248654.652   127427535.9694   99294189.1634   24248654.196
  24248654.675          39.250          21.500
  20761772.532                   109103852.7814   85015985.8204   20761771.436
  20761769.369          49.750          40.500
  22050314.046    22050311.725   117871583.552    91677890.408    22050313.728
  22050312.791          44.750          35.750
  22374893.215    22374889.329   119816542.119    93190637.534    22374893.670
  22374888.928          47.000          40.500
  20847258.664    20847257.259   111127616.037    86432579.371    20847258.586
  20847257.141          52.500          44.750
  20310773.748    20310770.358   108534627.523    84415811.912    20310773.936
  20310770.436          53.750          46.000
  20338443.903    20338439.762   108835158.166    84649557.072    20338443.844
  20338439.666          53.250          45.500
  22115023.530    22115021.254   118300494.274    92011497.623    22115023.453
  22115022.630          46.500          35.500
  19873570.759    19873567.237   106272943.404    82656726.490    19873570.375
  19873567.033          53.000          46.750
 20 10  1 10 11 30.0000000  0 15G01G03G06G17G19G22G24G28R01R08R14R15
                                R17R23R24
  22757398.877    22757400.696   119590957.8784   93187762.2684   22757399.126
  22757400.260          43.000          41.250
  21680431.431    21680431.867   113931447.9604   88777752.6014   21680430.670
  21680431.248          48.250          48.000
  22408852.017    22408853.414   117759328.8114   91760523.7224   22408851.799
  22408852.994          46.250          34.500
  20795178.543    20795176.104   109279415.0904   85152793.9584   20795177.838
  20795175.817          49.750          43.000
  21272225.540                   111786310.1894   87106212.6134   21272223.885
  21272220.697          49.500          39.500
  22675413.498                   119160119.5314   92852039.7374   22675412.080
  22675408.935          47.000          34.500
  24248517.552    24248516.626   127426810.0934   99293623.5354   24248516.638
  24248516.520          38.750          21.750
  20769056.879                   109142133.0734   85045814.6034   20769055.903
  20769053.777          49.500          40.250
  22036162.952    22036161.241   117795939.583    91619056.228    22036162.478
  22036162.648          44.750          35.250
  22376414.873    22376410.370   119824687.302    93196972.656    22376415.130
  22376409.562          47.000          40.250
  20866043.203    20866041.488   111227748.087    86510459.838    20866043.191
  20866041.297          52.250          44.250
  20307248.614    20307245.816   108515789.057    84401159.762    20307248.771
  20307245.419          54.000          46.250
  20328538.456    20328534.788   108782153.725    84608331.395    20328538.409
  20328534.481          52.750          45.500
  22132292.903    22132291.811   118392875.410    92083349.586    22132292.842
  22132292.196          46.000          35.500
  19881753.891    19881751.085   106316705.420    82690763.604    19881753.931
  19881750.962          52.750          47.000
 20 10  1 10 12  0.0000000  0 15G01G03G06G17G19G22G24G28R01R08R14R15
                                R17R23R24
  22776284.186    22776285.457   119690199.8994   93265093.6864   22776284.252
  22776285.507          43.000          41.250
  21677573.574    21677574.206   113916433.2464   88766052.8214   21677573.406
  21677573.958          48.000          48.000
  22392865.523    22392867.074   117675317.7354   91695060.5704   22392865.228
  22392866.251          46.250          35.000
  20789866.745    20789864.238   109251502.8144   85131044.1304   20789866.432
  20789864.231          50.500          43.250
  21259908.401                   111721584.3494   87055776.8824   21259906.805
  21259903.942          48.500          39.250
  22683116.306                   119200597.9514   92883581.3584   22683114.904
  22683111.771          47.000          34.500
  24248483.056    24248484.256   127426637.1544   99293488.7684   24248483.490
  24248483.569          38.500          21.500
  20776430.249                   109180879.7654   85076006.8154   20776429.181
  20776427.121          50.000          40.250
  22022122.059    22022119.098   117720880.095    91560676.629    22022121.781
  22022120.903          45.500          35.000
  22378082.312    22378077.878   119833617.021    93203917.984    22378083.008
  22378078.297          46.500          40.250
  20884927.608    20884925.762   111328408.415    86588751.172    20884927.464
  20884925.016          53.000          44.750
  20303876.660    20303874.018   108497774.010    84387148.044    20303877.278
  20303873.652          53.500          45.500
  20318694.303    20318690.935   108729475.471    84567359.408    20318694.284
  20318690.333          52.750          45.750
  22149578.666    22149576.099   118485336.434    92155263.665    22149577.518
  22149576.550          46.750          35.250
  19889997.162    19889993.452   106360782.211    82725045.533    19889997.053
  19889993.399          52.500          46.750
 20 10  1 10 12 30.0000000  0 15G01G03G06G17G19G22G24G28R01R08R14R15
                                R17R23R24
  22795201.080    22795201.259   119789607.0024   93342553.7304   22795200.474
  22795201.783          42.750          40.750
  21674835.555    21674836.536   113902043.2984   88754839.8834   21674835.044
  21674835.622          48.750          47.500
  22376934.388    22376936.142   117591602.2374   91629827.7264   22376934.235
  22376935.448          45.250          34.750
  20784601.067    20784598.851   109223831.5384   85109482.0884   20784600.677
  20784598.716          50.500          43.750
  21247639.363                   111657108.3544   87005535.8444   21247637.612
  21247634.859          49.000          39.500
  22690918.613                   119241600.1324   92915531.1064   22690917.181
  22690914.307          47.000          34.750
  24248555.228    24248556.363   127427016.0674   99293784.0274   24248555.420
  24248556.061          38.250          22.000
  20783892.092                   109220092.1004   85106561.8734   20783890.998
  20783889.099          49.500          40.250
  22008189.509    22008189.114   117646408.296    91502754.119    22008189.207
  22008188.944          44.750          35.250
  22379895.169    22379891.814   119843330.640    93211473.020    22379896.517
  22379892.283          46.500          40.500
  20903909.024    20903907.213   111429592.621    86667449.993    20903909.090
  20903906.926          52.250          44.250
  20300659.879    20300657.063   108480583.019    84373777.276    20300660.430
  20300657.035          53.250          46.500
  20308911.248    20308907.758   108677122.847    84526640.701    20308910.843
  20308907.275          53.250          45.500
  22166878.145    22166876.001   118577875.588    92227238.540    22166877.736
  22166877.264          47.000          35.750
  19898298.770    19898294.980   106405171.651    82759570.640    19898298.049
  19898294.623          53.250          47.000
 20 10  1 10 13  0.0000000  0 15G01G03G06G17G19G22G24G28R01R08R14R15
                                R17R23R24
  22814148.301    22814149.763   119889177.2714   93420140.9334   22814148.443
  22814149.624          43.250          41.250
  21672216.155    21672216.933   113888279.1574   88744114.5764   21672215.848
  21672216.438          47.250          48.000
  22361060.802    22361061.592   117508183.7594   91564826.3214   22361060.453
  22361061.610          47.500          34.750
  20779381.553    20779379.073   109196402.2664   85088108.6204   20779381.166
  20779379.055          50.000          43.000
  21235417.611                   111592883.9264   86955490.8214   21235416.273
  21235413.087          49.500          39.250
  22698820.309                   119283124.8004   92947887.9754   22698818.937
  22698816.063          46.250          34.250
  24248733.202    24248732.614   127427946.9284   99294509.3494   24248732.728
  24248732.882          39.000          21.750
  20791442.026                   109259769.9554   85137479.6674   20791441.491
  20791439.522          49.250          40.750
  21994369.513    21994367.048   117572528.619    91445292.157    21994368.872
  21994368.729          44.750          35.250
  22381856.587    22381851.658   119853828.525    93219638.013    22381857.366
  22381852.111          46.500          40.250
  20922988.368    20922987.094   111531297.066    86746553.422    20922988.094
  20922986.466          52.000          44.250
  20297597.722    20297594.564   108464217.512    84361048.537    20297597.736
  20297594.333          53.500          46.250
  20299188.165    20299185.156   108625096.531    84486175.783    20299188.246
  20299185.099          52.500          45.750
  22184191.321    22184189.440   118670492.341    92299273.751    22184191.490
  22184189.776          46.750          35.250
  19906657.412    19906653.883   106449872.721    82794338.136    19906657.546
  19906653.699          53.000          46.750
 20 10  1 10 13 30.0000000  0 15G01G03G06G17G19G22G24G28R01R08R14R15
                                R17R23R24
  22833126.193    22833127.205   119988908.0064   93497853.1674   22833126.007
  22833127.103          41.750          40.250
  21669716.128    21669717.093   113875141.0134   88733877.0574   21669715.817
  21669716.407          48.000          47.500
  22345243.533    22345244.660   117425062.8374   91500056.7784   22345243.135
  22345243.888          47.000          34.750
  20774208.137    20774205.951   109169215.0314   85066923.7554   20774207.531
  20774205.427          50.250          43.250
  21223243.997                   111528911.4264   86905642.1174   21223242.436
  21223239.331          49.500          39.250
  22706821.311                   119325170.3534   92980650.7384   22706820.138
  22706816.996          45.500          34.250
  24249014.248    24249016.080   127429429.0424   99295664.2394   24249014.230
  24249015.050          38.750          22.250
  20799081.452                   109299912.2574   85168759.3704   20799080.243
  20799078.266          49.250          40.250
  21980660.073    21980659.354   117499244.379    91388293.317    21980659.897
  21980659.511          44.750          35.750
  22383963.383    22383959.237   119865109.990    93228412.502    22383963.474
  22383959.127          46.250          40.250
  20942165.329    20942162.958   111633517.025    86826057.816    20942165.280
  20942163.033          53.000          44.500
  20294689.087    20294686.315   108448677.884    84348962.153    20294689.525
  20294686.088          53.500          46.500
  20289527.311    20289523.439   108573395.893    84445964.168    20289526.861
  20289523.434          52.750          46.000
  22201519.103    22201516.821   118763185.086    92371368.078    22201518.908
  22201518.239          46.000          35.500
  19915074.784    19915071.218   106494883.636    82829346.613    19915074.639
  19915071.173          53.000          46.750
 20 10  1 10 14  0.0000000  0 16G01G03G06G17G19G22G24G28R01R08R14R15
                                R16R17R23R24
  22852135.485    22852135.750   120088796.8924   93575688.6284   22852134.996
  22852135.598          43.250          40.750
  21667335.331    21667335.909   113862629.2774   88724127.6484   21667334.856
  21667335.391          48.500          48.000
  22329482.693    22329484.371   117342240.4224   91435519.8574   22329482.577
  22329483.617          47.000          35.250
  20769080.829    20769078.428   109142270.3704   85045927.9094   20769080.142
  20769078.019          50.750          43.250
  21211118.407                   111465191.4634   86855990.1904   21211116.801
  21211114.087          48.500          39.250
  22714921.527                   119367734.9454   93013817.9454   22714919.863
  22714917.035          47.000          34.250
  24249401.003    24249401.584   127431461.1974   99297247.7454   24249401.125
  24249401.478          38.500          22.750
  20806808.154                   109340518.3844   85200400.4964   20806807.364
  20806805.429          50.000          40.500
  21967062.517    21967061.285   117426559.309    91331760.486    21967062.660
  21967060.697          44.500          35.250
  22386216.578    22386211.674   119877174.500    93237795.982    22386216.837
  22386211.973          47.250          40.000
  20961436.976    20961435.296   111736248.458    86905960.013    20961437.113
  20961434.929          52.500          44.250
  20291935.296    20291933.185   108433964.804    84337518.638    20291935.961
  20291933.071          53.250          45.750
  23556956.770    23556953.122   125837017.728    97873244.667    23556957.004
  23556952.705          37.000          26.250
  20279926.506    20279922.513   108522020.857    84406005.805    20279926.246
  20279922.285          52.750          45.500
  22218861.455    22218859.555   118855952.766    92443520.676    22218860.077
  22218860.117          46.000          35.000
  19923549.640    19923546.329   106540202.875    82864594.900    19923549.531
  19923546.133          52.750          46.750
 20 10  1 10 14 30.0000000  0 16G01G03G06G17G19G22G24G28R01R08R14R15
                                R16R17R23R24
  22871173.031    22871173.904   120188842.4464   93653646.1924   22871172.620
  22871173.962          42.750          40.250
  21665073.782    21665074.719   113850745.3184   88714867.4174   21665073.350
  21665073.931          47.750          48.000
  22313779.408    22313780.698   117259718.2804   91371216.9174   22313779.004
  22313780.290          47.500          35.000
  20763999.867    20763997.415   109115569.4814   85025122.0094   20763999.303
  20763997.101          50.250          43.000
  21199041.685                   111401726.1144   86806536.6614   21199039.925
  21199036.988          49.750          39.500
  22723120.081                   119410817.6474   93047388.8634   22723118.326
  22723115.187          46.750          34.000
  24249893.508    24249892.867   127434043.5464   99299259.9574   24249892.732
  24249893.077          38.750          22.250
  20814624.005                   109381588.7014   85232403.3274   20814622.887
  20814620.920          50.000          40.500
  21953577.794    21953577.199   117354477.817    91275697.115    21953577.649
  21953577.292          44.000          35.500
  22388615.612    22388611.588   119890022.687    93247789.013    22388616.744
  22388611.137          46.750          40.000
  20980804.629    20980802.869   111839488.062    86986257.470    20980804.870
  20980803.038          52.250          44.000
  20289337.843    20289334.829   108420080.021    84326719.356    20289337.985
  20289334.764          53.750          46.500
  23536212.121    23536209.397   125726208.219    97787059.529    23536212.249
  23536209.643          36.250          26.750
  20270386.575    20270383.650   108470972.368    84366301.420    20270386.718
  20270383.137          53.000          45.750
  22236217.763    22236215.144   118948794.694    92515731.039    22236217.104
  22236215.881          47.250          35.000
  19932082.322    19932079.138   106585829.947    82900082.610    19932081.934
  19932078.630          52.750          46.750
 20 10  1 10 15  0.0000000  0 16G01G03G06G17G19G22G24G28R01R08R14R15
                                R16R17R23R24
  22890240.367    22890240.983   120289042.3994   93731724.0524   22890240.152
  22890241.248          43.500          40.500
  21662931.537    21662932.401   113839489.5854   88706096.7184   21662931.541
  21662932.069          48.000          47.750
  22298132.915    22298134.710   117177497.3254   91307148.6534   22298132.783
  22298134.039          47.000          35.500
  20758965.183    20758962.855   109089112.8924   85004506.4824   20758964.561
  20758962.595          50.500          43.250
  21187013.064                   111338516.1994   86757282.1774   21187011.300
  21187008.597          48.250          39.500
  22731416.360                   119454417.0294   93081362.3984   22731414.977
  22731411.851          46.750          34.250
  24250489.000    24250489.061   127437175.6564   99301700.5704   24250488.853
  24250489.271          38.250          22.500
  20822527.422                   109423122.5324   85264767.3414   20822526.409
  20822524.555          49.250          40.500
  21940207.511    21940206.323   117283003.435    91220105.926    21940207.716
  21940206.020          44.000          35.250
  22391160.993    22391156.858   119903654.388    93258391.453    22391162.132
  22391157.317          47.000          40.250
  21000266.147    21000265.012   111943231.825    87066947.030    21000265.838
  21000264.682          51.500          44.000
  20286894.405    20286891.497   108407024.279    84316564.879    20286894.463
  20286891.625          53.750          46.250
  23515538.493    23515536.521   125615782.020    97701171.381    23515540.161
  23515538.383          36.000          25.500
  20260908.619    20260904.537   108420250.083    84326850.752    20260908.504
  20260904.395          53.500          46.250
  22253586.953    22253585.903   119041709.812    92587998.313    22253586.448
  22253585.600          47.000          35.000
  19940671.916    19940668.929   106631763.135    82935808.411    19940671.589
  19940668.503          52.750          47.000
 20 10  1 10 15 30.0000000  0 16G01G03G06G17G19G22G24G28R01R08R14R15
                                R16R17R23R24
  22909336.963    22909337.860   120389394.7034   93809920.6324   22909336.580
  22909337.753          42.250          40.250
  21660909.800    21660910.625   113828862.7504   88697816.0704   21660909.254
  21660909.899          46.750          47.750
  22282544.748    22282545.811   117095578.7774   91243316.0434   22282544.608
  22282545.247          46.750          35.500
  20753977.377    20753974.713   109062901.0504   84984081.6594   20753976.636
  20753974.465          49.750          43.500
  21175033.621                   111275562.9454   86708227.6864   21175032.085
  21175029.117          49.000          40.000
  22739811.243                   119498532.1554   93115737.8114   22739809.984
  22739806.875          46.750          34.000
  24251189.808    24251190.477   127440857.1914   99304569.2994   24251189.387
  24251189.687          39.250          21.500
  20830519.537                   109465119.4414   85297492.1884   20830518.238
  20830516.261          49.500          40.250
  21926950.531    21926949.704   117212140.425    91164990.251    21926950.411
  21926950.002          44.250          35.750
  22393853.587    22393848.413   119918069.292    93269603.015    22393853.884
  22393849.171          47.500          40.000
  21019822.324    21019820.596   112047475.735    87148025.599    21019822.544
  21019820.772          52.250          43.500
  20284606.262    20284603.524   108394798.363    84307055.830    20284606.643
  20284603.254          53.500          46.250
  23494942.238    23494937.900   125505743.455    97615585.867    23494941.693
  23494936.920          38.250          26.250
  20251491.105    20251486.819   108369854.551    84287654.217    20251490.966
  20251486.962          53.500          46.000
  22270970.045    22270967.655   119134697.360    92660321.930    22270969.253
  22270967.790          47.000          34.500
  19949318.918    19949315.667   106678001.554    82971771.612    19949318.639
  19949315.309          53.250          47.000
 20 10  1 10 16  0.0000000  0 16G01G03G06G17G19G22G24G28R01R08R14R15
                                R16R17R23R24
  22928461.793    22928462.599   120489895.9354   93888233.2564   22928461.373
  22928462.592          42.500          40.250
  21659006.786    21659007.748   113818864.0974   88690024.8994   21659006.619
  21659007.222          47.750          48.250
  22267013.464    22267014.223   117013962.3214   91179718.8354   22267013.217
  22267014.218          45.750          35.500
  20749035.794    20749033.529   109036933.8964   84963847.5084   20749035.325
  20749033.341          50.000          43.000
  21163102.673                   111212866.3884   86659373.2214   21163101.079
  21163098.207          49.000          39.500
  22748303.760                   119543159.8104   93150512.5924   22748302.186
  22748299.310          46.250          34.000
  24251994.067    24251995.073   127445086.0624   99307864.5064   24251993.791
  24251994.186          38.250          21.500
  20838598.730                   109507577.6274   85330576.4774   20838597.692
  20838595.635          48.500          40.000
  21913809.307    21913808.862   117141891.073    91110351.875    21913809.631
  21913808.046          45.250          36.000
  22396690.872    22396686.632   119933265.850    93281422.555    22396691.314
  22396687.378          46.750          40.500
  21039471.119    21039469.296   112152214.287    87229488.912    21039471.105
  21039469.005          51.750          43.500
  20282474.029    20282470.898   108383401.779    84298191.808    20282474.139
  20282470.837          54.000          46.000
  23474413.579    23474411.273   125396095.244    97530303.863    23474414.724
  23474411.130          37.500          26.250
  20242134.166    20242129.673   108319784.293    84248710.678    20242133.589
  20242129.895          53.000          45.750
  22288365.837    22288363.250   119227755.212    92732700.214    22288365.360
  22288364.391          46.250          34.000
  19958022.038    19958018.721   106724542.346    83007969.999    19958022.081
  19958018.573          53.000          46.500
 20 10  1 10 16 30.0000000  0 16G01G03G06G17G19G22G24G28R01R08R14R15
                                R16R17R23R24
  22947615.412    22947615.360   120590545.6494   93966661.5814   22947614.719
  22947615.674          42.500          39.750
  21657224.127    21657225.242   113809495.7454   88682724.8824   21657223.856
  21657224.550          47.500          48.000
  22251540.400    22251541.897   116932650.6574   91116359.1184   22251539.894
  22251541.418          46.250          35.500
  20744141.358    20744139.041   109011213.5014   84943805.6294   20744140.802
  20744138.766          50.000          43.500
  21151220.667                   111150428.7184   86610720.4864   21151219.429
  21151216.712          47.250          39.750
  22756893.930                   119588299.9664   93185686.7234   22756892.227
  22756889.041          46.250          34.000
  24252903.775    24252903.836   127449863.3694   99311587.0544   24252903.213
  24252903.492          38.750          22.250
  20846766.259                   109550498.4284   85364021.2454   20846765.333
  20846763.409          50.000          40.500
  21900783.868    21900782.378   117072260.702    91056194.925    21900783.709
  21900782.593          45.000          35.750
  22399674.730    22399670.739   119949244.832    93293850.636    22399675.221
  22399670.882          46.500          40.250
  21059212.676    21059210.396   112257445.504    87311335.381    21059212.559
  21059210.566          52.250          43.750
  20280496.518    20280493.750   108372836.953    84289974.711    20280496.696
  20280493.806          53.500          45.750
  23453962.404    23453957.223   125286843.335    97445330.185    23453962.067
  23453957.766          39.500          28.000
  20232838.603    20232834.718   108270041.128    84210021.545    20232838.445
  20232834.296          53.750          45.750
  22305775.197    22305774.029   119320883.426    92805133.256    22305774.784
  22305774.232          47.250          34.000
  19966782.686    19966779.159   106771385.835    83044403.813    19966782.062
  19966778.566          53.250          46.500
 20 10  1 10 17  0.0000000  0 16G01G03G06G17G19G22G24G28R01R08R14R15
                                R16R17R23R24
  22966795.689    22966795.120   120691340.2924   94045202.8374   22966795.261
  22966795.813          42.500          39.250
  21655561.226    21655562.459   113800756.8104   88675915.3184   21655560.803
  21655561.520          48.000          48.000
  22236125.134    22236126.322   116851643.4784   91053236.6674   22236125.110
  22236125.617          47.000          35.250
  20739293.829    20739291.672   108985739.1594   84923955.4844   20739293.390
  20739291.281          50.250          43.500
  21139389.027                   111088250.2784   86562269.7434   21139387.439
  21139384.381          49.250          40.250
  22765579.825                   119633949.8774   93221258.0764   22765578.971
  22765576.166          46.250          33.750
  24253916.456    24253916.221   127455187.2304   99315735.5044   24253915.930
  24253916.079          37.750          22.000
  20855021.491                   109593879.8784   85397824.9584   20855020.597
  20855018.640          49.750          40.250
  21887874.138    21887872.280   117003251.793    91002521.322    21887873.458
  21887872.849          44.000          35.250
  22402804.508    22402800.491   119966005.024    93306886.339    22402805.190
  22402799.449          47.000          39.750
  21079044.517    21079043.111   112363163.473    87393560.449    21079044.482
  21079043.017          51.750          43.500
  20278674.700    20278672.358   108363103.043    84282403.887    20278675.195
  20278672.306          53.250          46.750
  23433584.783    23433579.754   125177990.038    97360666.512    23433585.918
  23433581.114          40.250          28.500
  20223603.117    20223599.703   108220623.643    84171585.720    20223602.661
  20223599.673          52.750          45.500
  22323196.506    22323196.290   119414080.114    92877619.533    22323195.951
  22323195.782          45.750          33.750
  19975597.829    19975594.802   106818529.523    83081071.119    19975597.810
  19975594.545          53.000          46.750
 20 10  1 10 17 30.0000000  0 16G01G03G06G17G19G22G24G28R01R08R14R15
                                R16R17R23R24
  22986003.493    22986004.088   120792278.5334   94123855.9994   22986003.447
  22986004.151          42.000          40.250
  21654018.081    21654019.216   113792648.5064   88669597.1504   21654017.909
  21654018.611          47.500          48.000
  22220768.782    22220769.751   116770942.5294   90990352.8434   22220768.303
  22220769.230          47.750          36.000
  20734493.335    20734490.968   108960512.2394   84904298.1354   20734492.803
  20734490.707          50.750          43.250
  21127606.534                   111026332.6414   86514022.2284   21127604.969
  21127602.035          50.000          39.750
  22774364.794                   119680109.1094   93257226.2944   22774362.940
  22774359.576          46.000          33.750
  24255033.410    24255033.750   127461057.4304   99320309.6924   24255033.464
  24255033.636          37.750          22.000
  20863364.353                   109637721.8684   85431987.5294   20863363.448
  20863361.467          49.500          39.750
  21875081.770    21875079.771   116934868.582    90949334.377    21875081.409
  21875080.737          44.750          35.750
  22406081.243    22406075.934   119983546.487    93320529.672    22406081.333
  22406075.549          47.250          39.750
  21098967.742    21098966.199   112469365.363    87476161.889    21098967.463
  21098965.996          51.000          43.500
  20277009.847    20277006.589   108354201.754    84275480.654    20277010.045
  20277006.511          54.000          46.250
  23413282.525    23413275.095   125069540.400    97276316.778    23413283.014
  23413278.943          39.000          29.000
  20214429.500    20214425.778   108171532.741    84133403.899    20214429.391
  20214425.664          53.250          46.250
  22340631.945    22340630.509   119507345.076    92950158.897    22340631.776
  22340630.916          46.250          33.250
  19984470.656    19984467.214   106865972.861    83117971.477    19984470.532
  19984466.683          53.000          46.250
 20 10  1 10 18  0.0000000  0 16G01G03G06G17G19G22G24G28R01R08R14R15
                                R16R17R23R24
  23005238.180    23005238.677   120893357.6844   94202618.9344   23005237.808
  23005238.748          41.750          39.250
  21652595.154    21652596.341   113785170.6344   88663770.2314   21652594.972
  21652595.638          47.500          47.750
  22205469.597    22205471.048   116690548.2434   90927707.9654   22205469.149
  22205470.652          46.000          35.750
  20729739.658    20729737.515   108935532.3984   84884833.3114   20729739.339
  20729737.218          51.000          43.750
  21115873.763                   110964676.3434   86465978.3524   21115872.319
  21115869.311          48.500          40.000
  22783245.165                   119726775.1284   93293589.4214   22783243.137
  22783240.026          46.000          33.500
  24256255.119    24256254.993   127467473.1364   99325308.9484   24256254.552
  24256254.519          40.000          22.750
  20871794.689                   109682023.5444   85466508.3034   20871793.756
  20871791.840          49.000          39.750
  21862406.410    21862405.112   116867114.185    90896636.506    21862406.648
  21862405.948          44.250          36.000
  22409501.181    22409497.824   120001867.967    93334779.718    22409502.404
  22409497.561          46.500          39.750
  21118980.625    21118979.238   112576046.120    87559135.777    21118980.820
  21118978.927          51.250          43.500
  20275498.975    20275496.907   108346132.686    84269204.704    20275499.471
  20275496.925          53.250          46.250
  23393057.641    23393054.903   124961497.420    97192283.375    23393057.544
  23393054.251          39.750          29.250
  20205316.290    20205312.781   108122767.882    84095475.670    20205316.568
  20205312.400          53.250          45.750
  22358080.305    22358078.206   119600676.448    93022749.943    22358079.874
  22358078.396          47.500          33.500
  19993398.220    19993394.779   106913713.697    83155103.230    19993397.790
  19993394.283          53.250          46.000
 20 10  1 10 18 30.0000000  0 16G01G03G06G17G19G22G24G28R01R08R14R15
                                R16R17R23R24
  23024499.719    23024499.317   120994576.6314   94281490.8274   23024499.086
  23024500.099          42.000          39.750
  21651292.328    21651293.759   113778324.6664   88658435.7084   21651292.158
  21651292.947          48.500          47.750
  22190230.004    22190231.153   116610462.6324   90865303.6244   22190229.798
  22190230.768          46.250          36.250
  20725033.817    20725031.436   108910801.8994   84865562.7864   20725033.317
  20725031.173          49.750          44.000
  21104191.155                   110903283.5514   86418139.8064   21104189.424
  21104186.429          48.000          40.250
  22792221.474                   119773947.3734   93330346.9964   22792219.889
  22792216.624          46.750          33.500
  24257578.682    24257579.711   127474434.4854   99330733.3794   24257578.742
  24257579.587          38.250          22.500
  20880312.300                   109726785.1494   85501387.4614   20880311.591
  20880309.725          48.750          40.250
  21849850.859    21849849.410   116799993.477    90844431.527    21849850.190
  21849849.426          44.750          36.250
  22413069.012    22413065.099   120020970.438    93349637.177    22413069.353
  22413065.099          46.750          40.250
  21139082.795    21139081.516   112683202.476    87642479.596    21139082.810
  21139081.266          51.000          43.000
  20274145.488    20274142.248   108338897.595    84263577.402    20274146.211
  20274142.545          53.750          46.500
  23372909.282    23372905.474   124853866.291    97108570.262    23372908.966
  23372904.024          39.750          29.500
  20196264.613    20196261.376   108074330.212    84057801.911    20196264.496
  20196261.072          53.000          46.250
  22375539.445    22375538.491   119694074.499    93095392.844    22375538.808
  22375539.161          46.500          34.000
  20002381.998    20002378.226   106961752.043    83192466.377    20002381.683
  20002377.966          53.000          46.500
 20 10  1 10 19  0.0000000  0 16G01G03G06G17G19G22G24G28R01R08R14R15
                                R16R17R23R24
  23043786.623    23043787.591   121095932.3784   94360469.3064   23043786.491
  23043787.237          43.250          39.500
  21650109.825    21650111.315   113772110.0254   88653593.1214   21650109.600
  21650110.291          48.000          48.250
  22175048.818    22175049.790   116530685.7914   90803139.8784   22175048.709
  22175049.469          47.500          36.000
  20720375.301    20720372.569   108886319.6924   84846485.7304   20720374.524
  20720372.384          51.250          44.000
  21092558.146                   110842154.2194   86370506.5514   21092556.686
  21092553.880          48.000          39.750
  22801293.620                   119821623.3864   93367497.1334   22801292.128
  22801288.885          46.000          33.250
  24259007.403    24259008.449   127481939.8204   99336581.7084   24259007.310
  24259007.228          39.000          22.250
  20888917.643                   109772005.4084   85536624.0134   20888916.756
  20888914.889          48.750          40.000
  21837413.023    21837411.898   116733509.185    90792721.527    21837412.986
  21837412.099          44.000          36.250
  22416781.419    22416777.738   120040852.065    93365100.652    22416782.474
  22416777.537          46.250          40.500
  21159274.022    21159272.328   112790829.913    87726189.791    21159273.964
  21159272.010          51.750          43.500
  20272947.361    20272944.416   108332495.991    84258598.370    20272947.638
  20272944.468          53.500          46.250
  23352837.367    23352832.395   124746650.431    97025180.118    23352837.070
  23352833.811          38.500          30.750
  20187274.262    20187270.786   108026218.749    84020381.884    20187274.176
  20187270.417          53.000          46.000
  22393012.535    22393009.436   119787537.252    93168086.065    22393011.666
  22393010.884          47.500          33.000
  20011419.969    20011416.748   107010085.325    83230058.925    20011419.702
  20011416.657          52.750          46.750
 20 10  1 10 19 30.0000000  0 16G01G03G06G17G19G22G24G28R01R08R14R15
                                R16R17R23R24
  23063099.488    23063099.863   121197422.8674   94439552.7744   23063099.329
  23063100.445          41.750          38.750
  21649047.327    21649048.514   113766527.0114   88649242.7234   21649047.136
  21649047.857          48.000          48.500
  22159926.640    22159927.938   116451218.6404   90741217.4344   22159926.270
  22159927.221          47.000          36.000
  20715763.867    20715761.252   108862087.1384   84827603.2174   20715763.331
  20715761.056          49.500          43.750
  21080976.500                   110781289.8984   86323079.8024   21080974.895
  21080972.225          49.000          40.250
  22810462.038                   119869801.9074   93405038.8284   22810460.275
  22810457.053          46.000          33.500
  24260538.632    24260539.593   127489987.9834   99342852.9964   24260538.008
  24260538.990          38.000          21.500
  20897610.095                   109817683.2064   85572217.0824   20897608.989
  20897607.163          49.750          39.750
  21825095.526    21825093.881   116667664.485    90741508.992    21825095.203
  21825095.053          45.000          36.000
  22420639.993    22420635.942   120061512.235    93381169.664    22420640.852
  22420636.741          46.500          40.250
  21179552.418    21179550.743   112898924.118    87810263.024    21179552.613
  21179550.391          51.750          43.750
  20271905.368    20271902.785   108326928.333    84254267.959    20271905.762
  20271902.271          53.750          46.250
  23332845.216    23332840.989   124639853.665    96942115.949    23332844.816
  23332841.035          39.000          31.250
  20178344.094    20178340.633   107978433.492    83983215.565    20178343.910
  20178340.759          52.750          46.250
  22410495.806    22410493.373   119881063.853    93240828.940    22410495.160
  22410495.644          46.500          33.750
  20020513.779    20020510.125   107058712.603    83267880.133    20020513.633
  20020509.882          52.750          46.500
 20 10  1 10 20  0.0000000  0 16G01G03G06G17G19G22G24G28R01R08R14R15
                                R16R17R23R24
  23082438.198    23082439.076   121299045.9744   94518739.5864   23082437.777
  23082439.266          41.750          39.250
  21648105.733    21648106.478   113761576.0234   88645384.8004   21648105.065
  21648105.722          47.750          48.250
  22144863.515    22144864.882   116372062.2564   90679537.1704   22144863.473
  22144864.543          46.500          36.250
  20711199.929    20711197.603   108838105.3234   84808916.0824   20711199.564
  20711197.668          50.500          43.250
  21069445.404                   110720691.6764   86275860.4034   21069443.516
  21069440.554          49.500          40.000
  22819725.099                   119918481.1744   93442970.7054   22819723.501
  22819720.443          45.250          33.250
  24262173.876    24262174.296   127498578.6724   99349547.0364   24262173.347
  24262173.805          38.250          22.250
  20906389.305                   109863818.1404   85608166.3694   20906388.094
  20906386.304          48.250          39.750
  21812899.110    21812897.018   116602463.229    90690796.912    21812898.785
  21812897.057          45.750          36.000
  22424643.543    22424639.165   120082950.280    93397843.703    22424644.055
  22424638.924          46.750          39.500
  21199917.111    21199915.410   113007480.973    87894696.130    21199917.086
  21199915.110          51.250          43.250
  20271019.871    20271016.978   108322195.357    84250586.746    20271020.461
  20271017.369          53.750          46.500
  23312932.067    23312926.780   124533479.967    96859380.849    23312930.547
  23312929.228          39.000          32.250
  20169475.633    20169471.610   107930974.445    83946302.966    20169475.352
  20169471.747          53.500          46.000
  22427990.740    22427989.703   119974653.462    93313620.812    22427990.706
  22427989.641          46.000          33.750
  20029661.631    20029658.520   107107632.437    83305928.871    20029661.302
  20029658.496          52.500          46.750
 20 10  1 10 20 30.0000000  0 16G01G03G06G17G19G22G24G28R01R08R14R15
                                R16R17R23R24
  23101801.002    23101801.665   121400799.4024   94598027.9434   23101800.475
  23101801.549          41.000          39.000
  21647283.373    21647284.354   113757256.9414   88642019.2754   21647283.115
  21647283.825          48.000          48.000
  22129860.820    22129861.599   116293217.2184   90618099.4924   22129860.189
  22129860.724          48.000          36.750
  20706684.127    20706681.772   108814374.0974   84790424.2054   20706683.650
  20706681.504          50.500          43.250
  21057964.042                   110660360.1004   86228848.7814   21057962.590
  21057959.682          48.000          39.750
  22829083.643                   119967659.1174   93481291.1824   22829081.804
  22829078.569          46.000          33.500
  24263910.893    24263911.983   127507710.7434   99356662.9184   24263911.148
  24263911.435          37.500          22.250
  20915255.145                   109910409.2264   85644471.1004   20915254.131
  20915252.289          49.750          39.750
  21800822.308    21800820.858   116537908.569    90640587.734    21800822.157
  21800821.308          45.000          36.500
  22428792.336    22428787.882   120105165.455    93415122.127    22428792.875
  22428787.175          46.750          39.750
  21220368.438    21220366.626   113116495.947    87979485.515    21220368.596
  21220366.338          51.750          43.250
  20270289.881    20270287.444   108318296.568    84247554.346    20270290.105
  20270287.331          53.500          46.500
  23293096.459    23293093.703   124427532.995    96776977.638    23293096.822
  23293094.178          37.000          32.750
  20160667.598    20160664.145   107883841.567    83909644.053    20160667.745
  20160663.696          53.250          45.750
  22445498.677    22445495.745   120068304.597    93386460.566    22445497.843
  22445496.601          46.500          33.500
  20038864.445    20038861.199   107156843.240    83344203.933    20038864.657
  20038860.831          52.750          46.500
 20 10  1 10 21  0.0000000  0 16G01G03G06G17G19G22G24G28R01R08R14R15
                                R16R17R23R24
  23121188.701    23121189.421   121502681.8554   94677416.8454   23121188.317
  23121189.530          41.000          39.000
  21646582.217    21646582.809   113753570.9194   88639147.0474   21646581.691
  21646582.424          47.750          48.000
  22114916.286    22114916.609   116214685.3344   90556905.8204   22114915.951
  22114916.194          46.500          36.750
  20702216.096    20702214.084   108790894.7314   84772128.5884   20702215.709
  20702213.742          49.000          43.750
  21046534.899                   110600297.1984   86182046.5084   21046533.140
  21046530.148          49.250          40.500
  22838536.513                   120017334.9014   93519999.5654   22838534.926
  22838531.696          47.000          33.250
  24265751.314    24265751.695   127517383.6714   99364200.2644   24265751.622
  24265752.065          37.250          21.250
  20924207.962                   109957456.7494   85681131.4844   20924207.051
  20924205.050          49.750          39.750
  21788867.473    21788865.819   116474004.883    90590884.886    21788867.554
  21788866.873          45.000          36.750
  22433084.900    22433081.464   120128157.596    93433004.910    22433085.803
  22433081.877          46.000          39.750
  21240903.846    21240902.635   113225965.868    88064628.762    21240903.973
  21240902.487          51.000          43.500
  20269717.088    20269714.082   108315233.398    84245171.873    20269717.378
  20269713.997          53.500          46.250
  23273344.141    23273341.221   124322017.600    96694910.131    23273344.063
  23273342.122          35.250          32.750
  20151921.501    20151916.979   107837035.519    83873239.336    20151920.770
  20151916.477          53.500          46.000
  22463016.065    22463014.609   120162017.329    93459348.194    22463015.527
  22463016.647          45.000          34.250
  20048121.737    20048118.474   107206344.502    83382704.905    20048121.412
  20048117.777          53.000          46.250
 20 10  1 10 21 30.0000000  0 16G01G03G06G17G19G22G24G28R01R08R14R15
                                R16R17R23R24
  23140600.103    23140600.562   121604690.8894   94756904.3694   23140599.787
  23140601.059          41.250          38.250
  21646001.070    21646002.320   113750517.7474   88636767.9374   21646000.799
  21646001.419          48.000          47.500
  22100031.310    22100032.693   116136467.1804   90495956.6344   22100031.308
  22100032.194          47.250          36.500
  20697796.481    20697793.786   108767667.5764   84754029.4954   20697795.734
  20697793.575          50.250          44.000
  21035156.231                   110540503.7584   86135454.2084   21035154.691
  21035152.034          49.000          40.250
  22848084.257                   120067506.2574   93559094.1174   22848082.330
  22848079.072          46.250          33.750
  24267695.934    24267695.884   127527597.0624   99372158.7464   24267695.288
  24267696.031          39.000          22.500
  20933247.185                   110004959.3554   85718146.4944   20933246.281
  20933244.450          48.500          39.500
  21777035.726    21777033.417   116410755.248    90541690.745    21777035.084
  21777034.833          45.000          36.750
  22437523.874    22437520.058   120151925.411    93451490.974    22437524.310
  22437520.328          45.750          40.000
  21261525.038    21261523.945   113335886.085    88150122.229    21261524.848
  21261523.909          51.250          43.750
  20269300.031    20269297.377   108313005.638    84243439.154    20269300.222
  20269297.221          52.750          46.750
  23253674.112    23253669.565   124216937.454    96613181.138    23253673.112
  23253670.361          37.500          33.250
  20143234.458    20143231.290   107790555.860    83837088.489    20143234.766
  20143231.144          53.000          46.000
  22480545.893    22480544.049   120255790.337    93532282.720    22480545.902
  22480545.044          44.750          34.000
  20057432.625    20057429.296   107256134.604    83421430.531    20057432.745
  20057429.012          53.250          46.250
 20 10  1 10 22  0.0000000  0 16G01G03G06G17G19G22G24G28R01R08R14R15
                                R16R17R23R24
  23160035.616    23160037.102   121706824.5844   94836489.0494   23160034.777
  23160036.599          41.500          38.250
  21645540.653    21645541.799   113748097.7294   88634882.2034   21645540.344
  21645540.993          49.250          48.000
  22085206.919    22085208.032   116058563.7864   90435252.7224   22085206.656
  22085207.502          46.750          36.500
  20693424.615    20693422.155   108744693.1404   84736127.3294   20693423.923
  20693421.819          50.500          43.500
  21023829.689                   110480980.8704   86089072.7274   21023828.021
  21023825.285          49.000          40.250
  22857725.559                   120118171.8354   93598573.7904   22857723.664
  22857720.593          46.500          33.500
  24269742.055    24269743.005   127538349.4744   99380537.2534   24269741.725
  24269742.174          39.000          23.000
  20942373.427                   110052916.9924   85755516.0644   20942372.409
  20942370.551          49.000          39.500
  21765325.913    21765324.346   116348163.163    90493008.039    21765325.732
  21765324.834          44.750          36.750
  22442106.723    22442102.993   120176468.425    93470579.979    22442107.756
  22442102.757          46.500          39.500
  21282229.315    21282228.329   113446252.451    88235962.725    21282229.248
  21282228.106          51.000          43.000
  20269039.494    20269037.038   108311613.690    84242356.526    20269039.538
  20269036.765          53.250          46.500
  23234085.038    23234080.030   124112296.306    96531793.571    23234085.102
  23234082.168          40.000          32.500
  20134610.121    20134606.666   107744403.118    83801191.895    20134610.025
  20134606.322          53.000          45.750
  22498087.055    22498085.778   120349622.724    93605263.419    22498087.176
  22498086.057          45.250          34.000
  20066797.237    20066794.024   107306212.410    83460379.922    20066797.127
  20066793.782          52.500          46.250
 20 10  1 10 22 30.0000000  0 16G01G03G06G17G19G22G24G28R01R08R14R15
                                R16R17R23R24
  23179495.097    23179495.604   121809080.3974   94916168.8534   23179494.394
  23179495.247          42.250          39.000
  21645200.505    21645201.403   113746310.5514   88633489.5884   21645200.219
  21645200.826          48.250          48.000
  22070442.345    22070443.652   115980975.5774   90374794.3904   22070442.211
  22070443.076          48.500          36.500
  20689101.037    20689098.388   108721972.1914   84718422.6834   20689100.198
  20689098.037          50.000          43.750
  21012554.401                   110421729.2194   86042902.6004   21012552.768
  21012549.965          48.500          40.500
  22867459.974                   120169329.4824   93638436.8744   22867458.546
  22867455.341          45.500          33.250
  24271890.714    24271889.942   127549640.0674   99389335.1064   24271890.150
  24271890.681          40.000          22.750
  20951585.692                   110101327.7324   85793238.6974   20951584.732
  20951582.960          49.000          39.250
  21753741.059    21753738.730   116286231.585    90444839.029    21753740.740
  21753739.339          45.750          36.500
  22446835.088    22446831.719   120201785.099    93490270.695    22446835.455
  22446831.290          46.500          40.500
  21303016.815    21303015.651   113557060.271    88322146.546    21303017.196
  21303015.107          51.250          42.750
  20268935.723    20268932.698   108311057.183    84241923.676    20268936.030
  20268932.302          52.500          46.500
  23214578.785    23214574.829   124008097.916    96450750.357    23214579.037
  23214575.075          40.000          33.000
  20126046.794    20126042.558   107698576.616    83765549.051    20126046.461
  20126042.308          54.000          46.250
  22515639.865    22515636.864   120443513.330    93678289.409    22515639.512
  22515638.354          46.000          33.750
  20076215.907    20076212.595   107356576.248    83499551.786    20076215.845
  20076212.405          52.750          46.500
 20 10  1 10 23  0.0000000  0 16G01G03G06G17G19G22G24G28R01R08R14R15
                                R16R17R23R24
  23198975.537    23198977.035   121911456.9714   94995942.7934   23198975.259
  23198976.997          41.000          38.250
  21644981.424    21644982.029   113745156.9744   88632590.6994   21644980.597
  21644981.402          47.750          48.250
  22055738.274    22055739.054   115903704.1134   90314582.8874   22055738.061
  22055738.657          48.500          37.000
  20684825.299    20684823.209   108699505.5524   84700916.2054   20684824.969
  20684822.907          49.500          43.750
  21001331.022                   110362750.3844   85996945.0614   21001329.562
  21001326.607          48.750          40.250
  22877288.782                   120220977.9984   93678682.4604   22877286.992
  22877283.762          46.250          33.000
  24274141.200    24274141.702   127561468.1754   99398551.8104   24274141.012
  24274141.133          38.750          23.000
  20960884.254                   110150191.7104   85831314.5114   20960883.300
  20960881.262          49.750          39.500
  21742278.546    21742277.754   116224964.534    90397186.895    21742278.903
  21742278.267          44.500          36.500
  22451707.984    22451703.202   120227875.300    93510563.031    22451708.119
  22451703.269          46.750          40.250
  21323886.188    21323884.838   113668306.066    88408671.038    21323886.413
  21323884.329          51.250          43.000
  20268987.618    20268984.340   108311336.952    84242141.252    20268987.934
  20268984.325          53.250          46.250
  23195155.728    23195152.054   123904347.025    96370055.221    23195156.815
  23195153.050          40.000          33.500
  20117543.713    20117540.186   107653076.880    83730160.357    20117543.476
  20117539.909          53.250          46.250
  22533201.832    22533199.811   120537461.707    93751360.314    22533201.923
  22533202.049          45.750          34.500
  20085687.940    20085684.285   107407225.265    83538945.447    20085687.506
  20085683.569          52.500          46.500
 20 10  1 10 23 30.0000000  0 16G01G03G06G17G19G22G24G28R01R08R14R15
                                R16R17R23R24
  23218480.158    23218481.589   122013951.6394   95075808.7394   23218480.074
  23218480.866          41.250          38.250
  21644881.586    21644882.500   113744636.5074   88632185.1304   21644881.609
  21644882.254          47.250          48.500
  22041093.734    22041095.587   115826749.6904   90254618.4164   22041093.865
  22041094.957          47.250          37.000
  20680598.750    20680596.279   108677292.9424   84683607.6704   20680598.109
  20680595.953          51.250          43.750
  20990159.832                   110304045.2564   85951200.7954   20990158.321
  20990155.358          49.750          40.000
  22887209.736                   120273114.9354   93719308.6274   22887208.095
  22887205.307          46.250          33.250
  24276493.571    24276493.994   127573831.8484   99408185.8284   24276493.505
  24276494.090          38.500          23.000
  20970268.809                   110199507.5164   85869742.4004   20970267.792
  20970265.931          49.000          39.500
  21730942.814    21730941.686   116164364.678    90350053.687    21730942.836
  21730941.814          45.500          36.500
  22456722.965    22456720.052   120254737.477    93531455.830    22456723.859
  22456719.491          46.500          39.500
  21344836.829    21344835.359   113779984.958    88495532.351    21344837.027
  21344834.985          51.250          42.750
  20269196.781    20269193.738   108312452.432    84243008.847    20269196.978
  20269193.769          53.750          47.000
  23175818.475    23175814.601   123801046.667    96289710.507    23175818.875
  23175815.284          41.500          34.000
  20109102.131    20109098.585   107607903.635    83695025.602    20109101.926
  20109098.395          52.750          46.000
  22550774.972    22550773.357   120631466.582    93824475.173    22550774.974
  22550775.049          45.000          34.000
  20095211.741    20095208.712   107458157.541    83578559.428    20095211.860
  20095208.404          52.250          46.500
 20 10  1 10 24  0.0000000  0 16G01G03G06G17G19G22G24G28R01R08R14R15
                                R16R17R23R24
  23238006.537    23238006.934   122116562.5314   95155765.2424   23238006.041
  23238007.335          42.000          37.750
  21644903.459    21644904.300   113744749.2204   88632272.9574   21644903.161
  21644903.783          47.500          47.750
  22026510.407    22026511.354   115750113.3094   90194901.7604   22026510.409
  22026511.129          47.500          36.250
  20676420.394    20676417.851   108655335.9574   84666498.3154   20676419.786
  20676417.751          50.500          52.000
  20979041.018                   110245614.7454   85905670.5184   20979039.518
  20979036.358          49.000          40.000
  22897223.637                   120325738.9294   93760314.3204   22897222.000
  22897219.028          45.000          32.750
  24278948.180    24278948.426   127586731.3604   99418237.3934   24278948.323
  24278948.784          37.500          22.500
  20979739.026                   110249274.6194   85908521.9374   20979738.202
  20979736.244          49.250          39.000
  21719731.766    21719730.088   116104435.490    90303442.112    21719731.705
  21719730.721          44.500          37.000
  22461883.132    22461879.274   120282370.553    93552948.192    22461883.751
  22461879.878          46.250          39.000
  21365868.307    21365866.840   113892093.130    88582727.582    21365868.038
  21365866.848          50.500          43.000
  20269562.229    20269558.735   108314403.689    84244526.489    20269562.176
  20269559.132          54.000          46.750
  23156564.834    23156561.835   123698201.228    96209719.601    23156565.506
  23156562.496          40.750          33.000
  20100721.591    20100718.219   107563056.646    83660144.604    20100721.322
  20100717.621          53.250          46.000
  22568358.679    22568357.038   120725527.069    93897633.307    22568358.135
  22568358.043          45.250          34.250
  20104789.246    20104786.274   107509372.150    83618393.005    20104788.819
  20104785.743          52.500          46.500
 20 10  1 10 24 30.0000000  0 17G01G03G06G17G19G22G24G28R01R08R14R15
                                R16R17R18R23R24
  23257554.307    23257555.288   122219288.4104   95235811.3474   23257554.404
  23257555.597          41.500          38.500
  21645045.856    21645046.639   113745496.1744   88632854.9944   21645045.294
  21645045.974          49.000          47.500
  22011988.293    22011989.192   115673796.6624   90135434.2524   22011988.086
  22011988.933          48.250          36.750
  20672290.893    20672288.605   108633635.8024   84649589.0984   20672290.442
  20672288.271          50.250          52.750
  20967974.732                   110187461.0224   85860355.9164   20967973.234
  20967970.235          48.750          39.500
  22907330.285                   120378848.5974   93801698.4634   22907328.874
  22907325.437          45.750          32.750
  24281504.409    24281505.659   127600165.4654   99428705.5404   24281504.207
  24281505.255          36.750          21.000
  20989295.311                   110299492.8454   85947653.0084   20989294.205
  20989292.592          49.500          39.000
  21708647.031    21708645.485   116045181.131    90257355.399    21708647.357
  21708646.037          45.000          36.500
  22467187.896    22467183.903   120310774.359    93575040.033    22467188.205
  22467184.517          46.000          39.500
  21386978.444    21386977.651   114004626.776    88670253.718    21386979.175
  21386977.676          50.500          43.000
  20270083.487    20270080.471   108317191.493    84246694.762    20270083.719
  20270080.358          54.000          46.250
  23137398.662    23137394.984   123595815.068    96130085.898    23137398.444
  23137395.782          41.500          32.750
  20092401.701    20092397.973   107518536.968    83625518.176    20092401.410
  20092398.005          52.500          46.500
  23685783.234    23685779.330   126436316.412    98339354.031    23685783.863
  23685780.899          38.000          31.250
  22585953.473    22585951.359   120819642.898    93970834.445    22585952.755
  22585951.594          44.500          34.500
  20114419.544    20114416.314   107560868.738    83658445.902    20114419.000
  20114416.092          52.750          47.000
 20 10  1 10 25  0.0000000  0 17G01G03G06G17G19G22G24G28R01R08R14R15
                                R16R17R18R23R24
  23277123.977    23277124.442   122322126.5354   95315944.9184   23277123.619
  23277124.737          41.250          38.000
  21645308.127    21645309.409   113746876.5964   88633930.6394   21645307.922
  21645308.587          46.500          47.750
  21997526.764    21997528.070   115597799.9024   90076216.0034   21997526.046
  21997527.216          47.500          37.000
  20668210.710    20668208.123   108612192.1524   84632879.7524   20668209.843
  20668207.731          50.000          52.250
  20956960.607                   110129584.2814   85815257.1504   20956959.207
  20956956.558          48.500          39.750
  22917529.121                   120432441.6124   93843459.2294   22917526.996
  22917524.051          45.500          32.500
  24284163.382    24284163.554   127614132.9244   99439589.2754   24284162.716
  24284163.092          37.750          21.250
  20998937.177                   110350160.7254   85987134.4524   20998936.124
  20998934.221          49.250          38.750
  21697689.035    21697687.753   115986604.138    90211795.525    21697688.593
  21697688.211          45.250          36.750
  22472635.183    22472631.205   120339947.026    93597729.850    22472636.087
  22472631.304          46.000          39.000
  21408168.843    21408168.114   114117581.158    88758107.092    21408169.396
  21408167.750          50.750          42.500
  20270761.351    20270758.947   108320815.210    84249513.186    20270761.825
  20270758.627          53.250          46.500
  23118317.748    23118313.572   123493891.853    96050812.260    23118317.889
  23118314.659          40.750          32.500
  20084143.178    20084139.734   107474343.852    83591145.750    20084143.070
  20084139.661          53.500          46.250
  23668036.250    23668032.943   126341582.431    98265672.013    23668035.194
  23668035.225          40.000          32.500
  22603557.674    22603555.125   120913812.797    94044077.682    22603556.837
  22603555.879          46.250          33.750
  20124101.947    20124098.604   107612645.157    83698716.437    20124101.828
  20124098.332          52.500          46.250
 20 10  1 10 25 30.0000000  0 17G01G03G06G17G19G22G24G28R01R08R14R15
                                R16R17R18R23R24
  23296713.923    23296715.058   122425074.7614   95396164.3004   23296713.895
  23296715.227          41.500          38.000
  21645691.352    21645692.175   113748890.2494   88635499.7114   21645691.217
  21645691.791          48.000          47.750
  21983125.982    21983127.093   115522123.7254   90017247.5544   21983125.661
  21983126.298          48.500          37.000
  20664178.749    20664176.264   108591005.5734   84616370.7204   20664178.132
  20664176.015          50.500          52.500
  20946000.558                   110071985.2364   85770374.7724   20945998.835
  20945995.869          49.750          39.750
  22927819.085                   120486516.1044   93885595.1844   22927817.326
  22927814.044          46.500          32.500
  24286921.767    24286922.206   127628632.3884   99450887.5414   24286921.432
  24286922.524          37.750          20.750
  21008664.421                   110401277.2834   86026965.5174   21008663.317
  21008661.553          49.750          39.000
  21686857.997    21686857.173   115928707.552    90166764.849    21686858.131
  21686857.649          45.750          36.750
  22478226.374    22478223.052   120369887.324    93621016.734    22478227.691
  22478222.580          46.250          39.250
  21429437.588    21429436.552   114230951.686    88846284.144    21429437.516
  21429435.481          50.750          42.500
  20271596.454    20271593.489   108325274.526    84252981.535    20271596.565
  20271593.237          53.750          46.250
  23099325.806    23099322.631   123392434.900    95971901.263    23099325.345
  23099321.911          41.000          32.750
  20075945.677    20075941.822   107430477.015    83557027.091    20075945.304
  20075941.696          53.750          46.250
  23650309.663    23650307.567   126246958.709    98192075.808    23650309.585
  23650307.309          40.250          34.000
  22621171.417    22621169.564   121008035.395    94117361.854    22621170.724
  22621169.960          46.000          34.500
  20133836.764    20133832.999   107664700.100    83739203.601    20133836.240
  20133833.062          53.000          46.500
 20 10  1 10 26  0.0000000  0 17G01G03G06G17G19G22G24G28R01R08R14R15
                                R16R17R18R23R24
  23316325.590    23316326.386   122528131.2364   95476468.0084   23316325.132
  23316326.390          41.250          38.000
  21646195.088    21646196.161   113751537.2364   88637562.2994   21646194.831
  21646195.513          47.500          47.750
  21968786.132    21968787.338   115446769.1354   89958529.6964   21968785.888
  21968786.796          48.250          36.750
  20660196.112    20660193.561   108570077.0734   84600062.7864   20660195.672
  20660193.479          51.000          52.250
  20935092.605                   110014665.8654   85725710.3134   20935091.302
  20935088.472          49.250          39.750
  22938199.829                   120541070.3074   93928104.9374   22938198.395
  22938195.330          46.500          32.250
  24289782.965    24289782.302   127643663.1384   99462599.8044   24289781.731
  24289782.780          37.750          20.000
  21018476.679                   110452841.6134   86067145.4934   21018475.681
  21018473.972          48.750          38.750
  21676155.440    21676154.181   115871494.390    90122265.724    21676155.031
  21676153.824          45.250          36.500
  22483961.613    22483957.686   120400594.646    93644900.178    22483961.873
  22483956.885          46.750          39.000
  21450782.256    21450781.811   114344734.390    88934781.775    21450782.560
  21450781.252          50.000          42.250
  20272586.835    20272584.363   108330569.434    84257099.790    20272587.264
  20272584.214          53.500          46.750
  23080420.462    23080414.938   123291448.437    95893356.269    23080420.493
  23080416.236          40.500          32.750
  20067808.551    20067805.779   107386936.692    83523162.382    20067808.569
  20067804.910          53.000          46.250
  23632603.654    23632601.534   126152445.807    98118565.857    23632602.979
  23632600.211          41.000          34.500
  22638794.172    22638793.192   121102310.041    94190686.561    22638794.009
  22638792.991          45.250          33.750
  20143622.621    20143619.561   107717032.218    83779906.347    20143622.405
  20143619.214          52.250          46.000
 20 10  1 10 26 30.0000000  0 17G01G03G06G17G19G22G24G28R01R08R14R15
                                R16R17R18R23R24
  23335957.009    23335957.426   122631294.1834   95556854.6834   23335956.246
  23335957.501          42.250          36.750
  21646819.106    21646820.582   113754817.7284   88640118.5234   21646819.009
  21646819.762          48.000          47.750
  21954508.317    21954509.570   115371737.1314   89900063.2044   21954507.940
  21954508.996          48.250          37.500
  20656262.715    20656260.481   108549407.4344   84583956.5704   20656262.265
  20656260.236          48.750          52.500
  20924238.237                   109957627.1674   85681264.5654   20924237.140
  20924234.408          48.500          40.250
  22948672.380                   120596102.7134   93970987.2974   22948670.776
  22948667.638          46.250          32.250
  24292743.327    24292744.453   127659224.2014   99474725.2844   24292742.752
  24292743.969          36.750          19.500
  21028374.293                   110504853.2614   86107674.0294   21028373.232
  21028371.418          49.750          39.000
  21665580.799    21665579.303   115814968.595    90078301.217    21665580.491
  21665580.012          45.250          36.750
  22489837.901    22489834.576   120432067.237    93669378.859    22489838.976
  22489834.685          46.000          39.000
  21472204.410    21472203.872   114458925.092    89023596.745    21472205.141
  21472203.237          50.500          42.500
  20273734.550    20273731.188   108336699.754    84261867.813    20273734.808
  20273730.979          54.250          46.000
  23061604.643    23061600.805   123190936.734    95815180.461    23061605.020
  23061601.863          40.000          32.500
  20059733.648    20059730.207   107343723.215    83489551.886    20059733.477
  20059729.632          53.500          46.500
  23614920.164    23614917.273   126058044.464    98045142.601    23614918.971
  23614916.859          41.250          36.000
  22656428.186    22656426.063   121196636.381    94264051.453    22656427.709
  22656427.556          45.750          34.250
  20153461.526    20153457.825   107769640.687    83820824.034    20153461.110
  20153457.458          52.750          46.000
 20 10  1 10 27  0.0000000  0 17G01G03G06G17G19G22G24G28R01R08R14R15
                                R16R17R18R23R24
  23355608.036    23355608.042   122734561.0614   95637322.3634   23355607.500
  23355608.409          41.000          37.000
  21647563.865    21647565.222   113758731.0444   88643167.8534   21647563.788
  21647564.540          48.250          47.500
  21940291.991    21940292.849   115297028.0954   89841848.3874   21940291.475
  21940292.034          48.500          37.250
  20652378.854    20652376.466   108528996.8174   84568052.1804   20652378.197
  20652376.195          50.750          52.000
  20913437.938                   109900869.5004   85637037.8094   20913436.419
  20913433.709          49.000          39.750
  22959235.091                   120651610.8164   94014240.3514   22959233.619
  22959230.543          45.500          32.000
  24295804.580    24295805.210   127675313.3264   99487262.2584   24295804.562
  24295805.054          36.500          19.500
  21038356.718                   110557310.4854   86148549.7704   21038355.522
  21038353.733          50.000          38.500
  21655135.978    21655133.912   115759132.658    90034873.260    21655135.609
  21655135.000          45.250          36.500
  22495859.126    22495854.584   120464303.754    93694451.683    22495860.056
  22495854.727          46.750          39.500
  21493701.657    21493700.942   114573519.101    89112725.387    21493702.149
  21493701.080          50.500          42.000
  20275038.014    20275034.912   108343664.878    84267285.119    20275038.336
  20275035.285          53.750          46.750
  23042878.598    23042875.026   123090902.854    95737376.369    23042876.899
  23042874.910          39.250          32.500
  20051719.447    20051715.363   107300835.853    83456195.046    20051719.194
  20051714.648          53.500          45.750
  23597256.422    23597252.048   125963754.400    97971805.934    23597255.052
  23597252.816          40.750          36.000
  22674070.274    22674069.728   121291012.711    94337455.247    22674070.094
  22674070.190          45.250          34.000
  20163350.519    20163347.267   107822523.592    83861955.169    20163350.142
  20163346.764          52.500          46.250
 20 10  1 10 27 30.0000000  0 18G01G03G06G17G19G22G24G28R01R02R08R14
                                R15R16R17R18R23R24
  23375277.177    23375278.470   122837931.1624   95717870.4534   23375277.402
  23375279.095          39.500          36.500
  21648429.430    21648430.516   113763278.3114   88646711.1764   21648429.125
  21648429.804          48.000          47.500
  21926136.304    21926138.130   115222644.0054   89783886.7714   21926136.225
  21926137.221          47.250          37.250
  20648544.408    20648542.428   108508846.9244   84552350.9554   20648543.886
  20648541.802          50.000          53.000
  20902691.551                   109844395.4024   85593032.0054   20902689.999
  20902687.051          48.500          40.000
  22969888.803                   120707594.4174   94057863.9034   22969887.309
  22969883.956          46.250          32.250
  24298967.976    24298967.265   127691931.4184   99500211.4164   24298967.183
  24298967.501          36.750          19.250
  21048423.787                   110610214.0164   86189773.2804   21048422.687
  21048420.984          49.000          38.750
  21644820.086    21644818.789   115703990.642    89991985.027    21644820.375
  21644819.596          45.500          36.750
  23999315.109    23999311.950   128064947.463    99606066.437    23999314.138
  23999313.384          38.750          34.500
  22502022.170    22502017.914   120497303.968    93720118.480    22502022.240
  22502017.747          47.250          39.500
  21515274.091    21515272.642   114688513.137    89202165.166    21515274.226
  21515272.606          49.750          41.750
  20276497.777    20276494.059   108351465.603    84273352.344    20276497.832
  20276494.123          53.500          46.000
  23024241.704    23024237.682   122991352.220    95659948.091    23024241.576
  23024237.434          39.250          32.250
  20043765.706    20043762.261   107258275.829    83423092.788    20043765.540
  20043761.814          53.250          46.500
  23579612.739    23579610.822   125869577.328    97898557.124    23579612.870
  23579610.294          39.250          35.500
  22691722.246    22691721.859   121385439.641    94410898.349    22691721.939
  22691721.939          44.500          33.750
  20173291.066    20173287.669   107875681.004    83903299.808    20173290.682
  20173287.271          52.250          46.250
 20 10  1 10 28  0.0000000  0 18G01G03G06G17G19G22G24G28R01R02R08R14
                                R15R16R17R18R23R24
  23394968.064    23394968.785   122941401.8134   95798496.9114   23394967.783
  23394969.164          41.000          36.750
  21649415.330    21649416.504   113768458.5924   88650747.7474   21649414.834
  21649415.641          46.250          47.500
  21912043.974    21912044.906   115148584.9674   89726178.4394   21912043.676
  21912044.248          48.250          37.500
  20644759.977    20644757.162   108488957.3854   84536852.6024   20644759.050
  20644756.933          49.750          52.000
  20891998.698                   109788205.1334   85549247.3684   20891997.194
  20891994.353          48.750          40.000
  22980631.542                   120764050.0014   94101855.2494   22980630.028
  22980626.856          46.000          32.000
  24302229.912    24302230.112   127709075.7434   99513570.6014   24302229.251
  24302230.126          37.000          18.250
  21058575.239                   110663561.9294   86231343.0704   21058574.377
  21058572.636          49.500          38.000
  21634635.256    21634633.067   115649544.953    89949638.373    21634634.626
  21634634.270          44.000          36.500
  23975588.030    23975589.133   127938345.750    99507598.612    23975586.836
  23975588.769          31.500          34.000
  22508326.734    22508322.187   120531066.218    93746378.009    22508326.708
  22508322.003          46.250          39.250
  21536921.538    21536920.919   114803902.310    89291912.277    21536921.432
  21536920.302          50.000          42.250
  20278113.328    20278110.638   108360100.934    84280068.696    20278113.554
  20278110.638          53.500          46.500
  23005697.041    23005693.225   122892287.642    95582897.852    23005696.617
  23005693.764          39.000          31.500
  20035873.486    20035869.882   107216042.403    83390244.564    20035873.239
  20035869.679          53.000          46.500
  23561993.153    23561988.120   125775512.591    97825395.710    23561992.316
  23561989.567          39.250          35.000
  22709384.129    22709381.460   121479915.689    94484379.693    22709383.515
  22709383.426          45.500          33.250
  20183283.272    20183280.147   107929110.918    83944856.386    20183282.837
  20183279.090          52.500          46.500
 20 10  1 10 28 30.0000000  0 18G01G03G06G17G19G22G24G28R01R02R08R14
                                R15R16R17R18R23R24
  23414677.081    23414677.604   123044970.6504   95879199.8824   23414676.387
  23414677.803          40.250          35.750
  21650521.268    21650522.383   113774271.3454   88655277.1634   21650520.938
  21650521.701          47.750          47.500
  21898012.261    21898013.718   115074851.3914   89668723.7124   21898012.224
  21898013.344          48.250          37.500
  20641024.514    20641022.118   108469329.1664   84521557.8804   20641023.900
  20641021.755          50.500          51.750
  20881360.303                   109732299.4144   85505684.4604   20881358.720
  20881356.005          49.000          40.250
  22991464.862                   120820975.5554   94146212.8044   22991463.231
  22991459.693          46.500          32.750
  24305591.033    24305593.124   127726745.3044   99527339.1044   24305591.731
  24305592.846          35.250          18.500
  21068811.612                   110717352.8554   86273258.0584   21068810.569
  21068808.852          48.750          38.500
  21624580.254    21624579.092   115595798.490    89907835.562    21624580.492
  21624579.336          45.250          36.500
  23951856.768    23951855.995   127811713.335    99409106.799    23951857.111
  23951856.181          36.750          33.000
  22514772.166    22514768.696   120565588.332    93773228.515    22514773.276
  22514768.493          45.500          39.000
  21558641.404    21558640.178   114919682.198    89381963.259    21558641.944
  21558639.592          50.250          42.000
  20279885.705    20279882.666   108369570.266    84287433.723    20279885.821
  20279882.370          53.500          46.000
  22987241.451    22987238.316   122793713.068    95506228.769    22987242.524
  22987239.030          38.000          32.250
  20028041.848    20028038.777   107174135.158    83357650.030    20028042.100
  20028038.310          53.500          46.750
  23544391.041    23544388.509   125681560.529    97752321.906    23544391.103
  23544389.312          39.500          34.750
  22727054.144    22727053.073   121574439.463    94557898.142    22727053.815
  22727054.181          45.000          33.500
  20193324.986    20193321.666   107982811.831    83986623.760    20193324.824
  20193321.689          52.750          46.000
 20 10  1 10 29  0.0000000  0 18G01G03G06G17G19G22G24G28R01R02R08R14
                                R15R16R17R18R23R24
  23434403.792    23434404.868   123148636.8494   95959978.7024   23434403.358
  23434405.272          40.500          36.000
  21651747.707    21651749.189   113780717.4994   88660300.1284   21651747.562
  21651748.439          47.000          47.000
  21884043.840    21884045.220   115001445.2154   89611524.0914   21884043.766
  21884044.359          48.500          37.250
  20637339.328    20637337.071   108449963.7974   84506467.9654   20637338.827
  20637336.782          49.250          52.250
  20870776.680                   109676680.7594   85462345.2374   20870774.985
  20870771.912          49.500          40.250
  23002386.586                   120878370.3484   94190935.9934   23002384.860
  23002381.687          46.250          32.250
  24309054.698    24309054.940   127744940.0394   99541516.8234   24309054.448
  24309055.035          37.000          18.500
  21079131.892                   110771586.9164   86315518.3404   21079131.045
  21079129.164          49.000          38.500
  21614657.307    21614655.169   115542755.016    89866579.521    21614657.893
  21614656.665          45.000          36.500
  23928123.246    23928119.448   127685055.131    99310594.906    23928122.812
  23928121.144          43.000          32.250
  22521360.364    22521358.246   120600870.290    93800670.037    22521361.390
  22521358.453          45.500          39.000
  21580434.078    21580432.466   115035849.375    89472315.483    21580434.187
  21580432.452          50.500          42.000
  20281813.615    20281811.159   108379874.143    84295447.840    20281813.525
  20281810.862          53.250          46.000
  22968881.942    22968879.878   122695633.017    95429944.259    22968883.158
  22968878.641          40.250          31.500
  20020272.145    20020268.413   107132555.334    83325310.160    20020271.400
  20020268.119          53.500          46.000
  23526813.499    23526809.367   125587722.604    97679336.906    23526812.282
  23526808.994          41.000          33.000
  22744734.254    22744730.364   121669011.436    94631454.076    22744733.361
  22744732.543          45.750          33.000
  20203418.189    20203414.879   108036783.645    84028601.825    20203417.725
  20203414.445          52.750          45.750
 20 10  1 10 29 30.0000000  0 18G01G03G06G17G19G22G24G28R01R02R08R14
                                R15R16R17R18R23R24
  23454148.905    23454149.722   123252396.6854   96040830.5124   23454148.471
  23454149.810          40.000          36.000
  21653094.189    21653095.848   113787794.9624   88665815.0274   21653094.394
  21653095.290          46.750          47.250
  21870136.988    21870138.517   114928365.3564   89554578.7394   21870136.741
  21870137.999          48.250          37.250
  20633704.126    20633701.663   108430860.0334   84491581.9094   20633703.455
  20633701.421          49.500          52.250
  20860247.114                   109621348.3974   85419229.1044   20860245.341
  20860242.833          49.250          39.750
  23013396.818                   120936230.8434   94236022.0644   23013395.308
  23013391.944          46.250          32.250
  24312615.532    24312615.757   127763656.9954   99556101.4474   24312616.051
  24312616.169          37.250          19.000
  21089536.399                   110826261.1404   86358121.6184   21089535.188
  21089533.518          48.750          38.250
  21604867.721    21604864.634   115490415.775    89825871.219    21604867.204
  21604865.048          45.500          36.500
  23904383.029    23904382.107   127558373.294    99212064.674    23904382.097
  23904381.784          43.250          34.250
  22528090.883    22528086.940   120636908.512    93828699.777    22528092.159
  22528086.889          46.750          38.750
  21602298.235    21602296.862   115152397.786    89562964.226    21602298.284
  21602297.038          49.750          42.000
  20283897.758    20283895.540   108391010.083    84304109.109    20283898.051
  20283894.962          53.250          46.250
  22950615.985    22950609.864   122598049.688    95354046.091    22950615.434
  22950610.277          40.250          31.000
  20012562.391    20012558.762   107091300.939    83293223.402    20012562.397
  20012558.506          53.750          46.750
  23509253.566    23509250.920   125493996.970    97606439.234    23509253.456
  23509250.128          40.500          32.250
  22762420.862    22762419.451   121763628.911    94705045.418    22762420.918
  22762420.630          44.750          32.250
  20213561.217    20213557.615   108091023.058    84070788.020    20213561.129
  20213557.277          52.750          46.250
 20 10  1 10 30  0.0000000  0 18G01G03G06G17G19G22G24G28R01R02R08R14
                                R15R16R17R18R23R24
  23473911.191    23473912.499   123356250.2594   96121755.3354   23473910.563
  23473912.530          40.250          35.250
  21654562.093    21654563.604   113795505.5144   88671823.2404   21654561.725
  21654562.596          48.000          47.750
  21856293.375    21856294.358   114855614.7094   89497889.9294   21856293.128
  21856293.721          48.250          37.250
  20630119.066    20630117.015   108412020.8394   84476902.0044   20630118.512
  20630116.443          50.250          52.500
  20849772.677                   109566305.3204   85376338.3854   20849771.052
  20849768.308          49.250          40.250
  23024496.165                   120994557.0694   94281471.0454   23024494.154
  23024491.201          45.500          32.250
  24316278.684    24316278.256   127782896.0394   99571092.8864   24316277.415
  24316277.986          37.250          18.750
  21100024.195                   110881377.0974   86401069.0934   21100023.522
  21100021.750          49.750          38.500
  21595209.076    21595206.273   115438785.783    89785714.542    21595208.499
  21595207.266          46.000          36.500
  23880639.403    23880638.985   127431673.832    99113520.761    23880638.441
  23880637.028          43.500          33.500
  22534962.702    22534958.485   120673703.744    93857318.278    22534963.721
  22534958.926          47.000          39.000
  21624233.518    21624232.328   115269325.226    89653907.759    21624233.819
  21624232.087          50.000          41.750
  20286137.244    20286134.866   108402979.990    84313419.025    20286137.969
  20286134.838          53.750          45.500
  22932442.391    22932436.421   122500968.961    95278538.840    22932441.607
  22932438.177          40.250          30.750
  20004914.292    20004910.470   107050374.201    83261391.482    20004914.033
  20004910.561          53.000          46.750
  23491718.206    23491714.907   125400386.423    97533630.992    23491716.701
  23491715.905          42.000          32.750
  22780118.511    22780117.344   121858292.947    94778672.952    22780118.145
  22780117.823          45.250          32.250
  20223754.645    20223751.354   108145531.214    84113183.231    20223754.316
  20223751.104          52.500          46.250
 20 10  1 10 30 30.0000000  0 18G01G03G06G17G19G22G24G28R01R02R08R14
                                R15R16R17R18R23R24
  23493691.954    23493691.983   123460194.3414   96202750.6904   23493690.880
  23493692.175          40.250          35.250
  21656149.602    21656150.748   113803847.5514   88678323.5244   21656149.195
  21656149.963          48.000          47.500
  21842511.837    21842513.076   114783192.7234   89441457.2214   21842511.582
  21842512.435          47.750          37.500
  20626584.031    20626582.079   108393445.3474   84462427.5884   20626583.712
  20626581.658          50.000          52.500
  20839353.320                   109511551.4474   85333673.0194   20839351.874
  20839349.012          49.250          40.500
  23035683.189                   121053345.7954   94327280.4084   23035681.685
  23035678.361          46.500          32.000
  24320037.845    24320038.742   127802655.5824   99586489.9354   24320036.909
  24320038.031          37.500          18.500
  21110596.217                   110936932.2384   86444358.7994   21110595.255
  21110593.464          49.500          38.250
  21585682.801    21585681.096   115387866.798    89746110.883    21585683.338
  21585682.045          44.750          36.750
  23856893.445    23856892.168   127304960.406    99014965.934    23856893.066
  23856892.636          44.500          32.000
  22541975.170    22541970.577   120711253.273    93886523.455    22541975.443
  22541970.857          47.000          38.500
  21646239.065    21646237.714   115386625.881    89745141.575    21646238.928
  21646237.004          49.750          41.250
  20288533.539    20288530.397   108415781.681    84323375.875    20288533.780
  20288530.290          54.000          46.000
  22914361.291    22914357.691   122404393.459    95203424.550    22914361.830
  22914357.207          40.500          30.500
  19997327.130    19997323.535   107009773.635    83229813.259    19997327.134
  19997323.351          53.500          46.250
  23474202.979    23474199.692   125306890.001    97460911.594    23474201.945
  23474200.808          42.250          34.000
  22797822.894    22797821.383   121953001.726    94852335.276    22797822.306
  22797822.317          44.500          31.750
  20233997.504    20233994.132   108200305.618    84155785.542    20233997.309
  20233993.963          52.750          45.750
 20 10  1 10 31  0.0000000  0 18G01G03G06G17G19G22G24G28R01R02R08R14
                                R15R16R17R18R23R24
  23513487.828    23513488.824   123564226.9704   96283815.0454   23513487.897
  23513488.845          39.500          35.500
  21657856.985    21657857.884   113812820.6894   88685315.5604   21657856.863
  21657857.537          47.000          47.250
  21828792.691    21828794.652   114711100.0054   89385281.0784   21828792.614
  21828793.702          47.750          37.500
  20623099.507    20623097.684   108375134.1274   84448159.0944   20623099.162
  20623097.135          49.250          52.000
  20828989.212                   109457087.7294   85291233.7524   20828987.703
  20828984.912          48.750          40.000
  23046957.768                   121112594.7754   94373448.4284   23046956.248
  23046953.126          45.250          31.750
  24323896.386    24323895.808   127822933.4624   99602290.8634   24323896.142
  24323896.477          36.500          19.500
  21121251.570                   110992925.2164   86487989.6824   21121250.479
  21121248.702          49.250          38.500
  21576291.194    21576288.680   115337661.410    89707062.246    21576290.446
  21576289.945          45.500          36.500
  23833144.062    23833144.157   127178235.371    98916402.073    23833143.606
  23833142.948          44.250          30.250
  22549128.048    22549122.699   120749555.240    93916313.866    22549128.887
  22549122.989          47.000          38.250
  21668313.763    21668312.374   115504295.487    89836662.347    21668314.189
  21668312.333          50.500          42.250
  20291084.759    20291081.781   108429414.428    84333979.122    20291084.892
  20291081.602          53.750          46.250
  22896378.731    22896374.763   122308326.710    95128705.947    22896378.317
  22896374.981          41.750          31.500
  19989800.840    19989797.441   106969499.131    83198488.635    19989800.668
  19989796.901          53.500          46.250
  23456709.365    23456705.501   125213507.857    97388281.065    23456708.877
  23456705.335          43.250          33.000
  22815534.874    22815534.184   122047754.204    94926031.622    22815535.172
  22815535.243          43.500          31.750
  20244289.969    20244286.855   108255344.637    84198593.657    20244289.987
  20244286.864          52.500          46.500
 20 10  1 10 31 30.0000000  0 18G01G03G06G17G19G22G24G28R01R02R08R14
                                R15R16R17R18R23R24
  23533300.657    23533301.731   123668347.2794   96364947.7164   23533300.762
  23533302.632          39.250          35.500
  21659684.704    21659686.034   113822425.5854   88692799.8854   21659684.583
  21659685.239          47.500          47.750
  21815137.143    21815138.882   114639338.4424   89329362.9884   21815136.894
  21815138.003          48.500          37.500
  20619666.050    20619663.429   108357088.8234   84434097.8054   20619665.293
  20619663.286          51.500          52.000
  20818680.459                   109402916.5434   85249022.4314   20818679.172
  20818676.540          49.250          39.750
  23058319.684                   121172303.3014   94419974.5204   23058318.301
  23058315.251          44.500          31.750
  24327853.050    24327854.181   127843729.7344   99618495.7524   24327853.623
  24327853.749          37.000          19.500
  21131989.725                   111049356.3004   86531961.9334   21131989.003
  21131987.106          48.750          38.250
  21567033.430    21567032.343   115288173.443    89668571.585    21567033.274
  21567032.063          46.000          36.750
  23809396.521    23809394.873   127051504.991    98817834.058    23809395.286
  23809395.397          44.000          31.250
  22556420.135    22556416.267   120788609.066    93946689.050    22556420.633
  22556415.256          46.000          37.750
  21690456.743    21690454.795   115622330.753    89928467.536    21690456.561
  21690454.840          49.250          41.750
  20293791.737    20293788.319   108443878.732    84345229.129    20293791.815
  20293787.972          53.500          45.750
  22878491.628    22878484.808   122212773.773    95054386.979    22878490.832
  22878485.619          42.500          31.750
  19982335.805    19982332.268   106929551.665    83167418.374    19982335.791
  19982332.050          53.500          46.500
  23439237.678    23439233.219   125120241.516    97315740.583    23439237.277
  23439233.711          44.750          33.250
  22833256.923    22833255.820   122142550.423    94999761.982    22833256.545
  22833256.652          44.250          31.500
  20254632.545    20254629.077   108310648.359    84241607.647    20254632.285
  20254628.691          52.750          46.250
 20 10  1 10 32  0.0000000  0 18G01G03G06G17G19G22G24G28R01R02R08R14
                                R15R16R17R18R23R24
  23553131.705    23553132.312   123772553.7594   96446147.5274   23553131.238
  23553132.397          39.500          35.750
  21661632.775    21661634.229   113832662.2334   88700776.4864   21661632.522
  21661633.189          47.250          47.250
  21801544.334    21801545.825   114567909.0744   89273703.7334   21801544.541
  21801545.238          48.750          37.750
  20616283.010    20616280.446   108339310.6064   84420244.6424   20616282.247
  20616280.187          50.250          52.250
  20808427.983                   109349039.4234   85207040.2474   20808426.736
  20808423.901          49.500          40.250
  23069768.902                   121232469.6804   94466857.3924   23069767.527
  23069764.559          45.750          31.250
  24331908.851    24331910.860   127865044.1474   99635104.3574   24331908.966
  24331910.238          36.250          18.250
  21142811.465                   111106224.8644   86576275.0934   21142810.613
  21142808.732          48.500          38.250
  21557910.900    21557908.573   115239406.475    89630641.742    21557910.454
  21557908.925          45.500          37.000
  23785646.603    23785644.875   126924773.084    98719264.864    23785645.492
  23785643.629          45.000          31.000
  22563853.749    22563850.276   120828413.451    93977648.025    22563853.949
  22563849.924          46.000          38.250
  21712668.499    21712666.424   115740727.637    90020553.960    21712667.965
  21712666.029          50.500          41.500
  20296653.852    20296650.945   108459174.219    84357125.608    20296654.132
  20296651.131          53.750          46.500
  22860699.216    22860695.877   122117738.657    94980470.769    22860699.978
  22860696.844          41.750          33.000
  19974931.733    19974928.272   106889931.900    83136602.989    19974931.886
  19974928.068          53.000          46.500
  23421787.217    23421784.460   125027091.483    97243290.576    23421786.492
  23421784.473          43.500          35.500
  22850985.509    22850985.773   122237390.828    95073526.701    22850985.664
  22850985.268          42.250          31.250
  20265023.701    20265020.274   108366216.206    84284827.069    20265023.250
  20265020.261          52.500          46.000
 20 10  1 10 32 30.0000000  0 18G01G03G06G17G19G22G24G28R01R02R08R14
                                R15R16R17R18R23R24
  23572977.509    23572978.424   123876843.0254   96527411.8704   23572977.232
  23572978.679          40.000          36.000
  21663700.786    21663701.589   113843528.7804   88709243.9144   21663700.362
  21663700.989          47.750          47.250
  21788014.944    21788016.230   114496811.2074   89218302.8014   21788014.853
  21788015.822          47.500          37.500
  20612950.349    20612948.130   108321798.6584   84406598.9624   20612949.768
  20612947.834          49.250          52.750
  20798231.765                   109295455.7964   85165286.7594   20798230.279
  20798227.385          49.000          39.500
  23081305.595                   121293090.5224   94514094.3884   23081303.587
  23081300.253          46.750          31.500
  24336063.614    24336063.378   127886873.0914   99652113.9064   24336063.381
  24336063.815          35.500          17.500
  21153715.574                   111163528.0004   86620926.8734   21153714.951
  21153713.332          48.000          38.250
  21548922.662    21548921.102   115191361.512    89593273.437    21548922.191
  21548921.406          45.250          36.500
  23761895.879    23761893.989   126798042.407    98620696.549    23761896.213
  23761893.591          44.750          29.500
  22571426.380    22571422.909   120868965.651    94009188.610    22571426.852
  22571422.609          46.000          38.500
  21734945.576    21734943.610   115859480.517    90112917.293    21734945.430
  21734943.658          49.500          41.250
  20299671.871    20299668.208   108475298.777    84369666.922    20299671.486
  20299668.080          53.750          46.250
  22843005.278    22843002.362   122023223.639    94906959.100    22843005.286
  22843002.986          40.000          33.250
  19967589.340    19967585.470   106850637.977    83106041.042    19967588.842
  19967585.109          53.000          46.500
  23404359.522    23404353.907   124934056.721    97170930.186    23404357.933
  23404354.762          43.250          33.250
  22868723.623    22868722.333   122332272.596    95147323.598    22868723.251
  22868721.944          43.750          31.750
  20275464.993    20275461.395   108422044.934    84328249.399    20275464.255
  20275460.161          53.000          45.500
 20 10  1 10 33  0.0000000  0 18G01G03G06G17G19G22G24G28R01R02R08R14
                                R15R16R17R18R23R24
  23592837.721    23592839.493   123981214.1294   96608739.9364   23592837.411
  23592839.333          38.250          35.250
  21665888.364    21665889.259   113855025.6054   88718202.4664   21665888.093
  21665888.840          47.000          47.250
  21774548.955    21774550.296   114426046.4074   89163161.4024   21774548.823
  21774549.699          48.500          38.500
  20609668.751    20609666.585   108304554.3604   84393161.8374   20609668.269
  20609666.306          50.000          52.250
  20788091.235                   109242167.8124   85123763.6464   20788089.774
  20788087.077          48.500          40.250
  23092926.919                   121354164.5624   94561684.5254   23092925.105
  23092922.348          45.000          31.500
  24340315.468    24340315.981   127909215.9474   99669523.9224   24340313.935
  24340315.426          33.250          16.750
  21164703.149                   111221265.8284   86665917.3654   21164702.182
  21164700.437          49.000          38.500
  21540070.473    21540068.583   115144042.312    89556469.624    21540070.083
  21540069.435          45.500          36.750
  23738148.878    23738147.347   126671317.679    98522132.851    23738148.315
  23738146.255          45.000          30.000
  22579139.138    22579134.426   120910264.464    94041309.913    22579139.442
  22579134.421          46.500          38.000
  21757288.963    21757287.734   115978585.856    90205554.743    21757288.984
  21757288.533          49.500          41.750
  20302844.330    20302841.011   108492252.484    84382853.125    20302844.446
  20302841.113          53.750          46.250
  22825411.296    22825407.520   121929233.367    94833855.535    22825411.611
  22825407.761          41.500          33.750
  19960307.096    19960303.489   106811670.904    83075733.310    19960306.595
  19960303.119          53.500          46.500
  23386952.231    23386948.045   124841138.639    97098660.620    23386951.571
  23386948.475          43.750          33.000
  22886468.283    22886467.846   122427195.804    95221152.736    22886468.237
  22886467.309          44.250          31.250
  20285952.604    20285949.901   108478134.793    84371874.832    20285952.622
  20285949.742          52.000          46.250
 20 10  1 10 33 30.0000000  0 18G01G03G06G17G19G22G24G28R01R02R08R14
                                R15R16R17R18R23R24
  23612714.039    23612715.066   124085664.0774   96690129.4754   23612713.872
  23612715.401          39.500          35.750
  21668196.146    21668196.688   113867151.2734   88727651.0294   21668195.552
  21668196.296          48.000          47.250
  21761145.819    21761147.674   114355614.3684   89108279.2964   21761146.051
  21761146.974          48.250          38.000
  20606438.249    20606435.875   108287577.5234   84379933.1214   20606437.816
  20606435.777          50.750          52.750
  20778007.156                   109189175.2094   85082470.6994   20778005.723
  20778002.860          48.250          40.000
  23104635.576                   121415688.6884   94609625.3724   23104633.419
  23104630.186          45.750          31.750
  24344665.073    24344664.894   127932070.9764   99687333.0254   24344663.568
  24344664.638          35.750          17.500
  21175772.431                   111279435.9844   86711244.7444   21175771.660
  21175769.726          48.750          38.250
  21531354.423    21531352.795   115097450.345    89520231.429    21531353.772
  21531352.639          45.250          36.750
  23714400.957    23714400.781   126544602.320    98423576.541    23714400.906
  23714400.626          42.000          33.750
  22586990.104    22586986.915   120952307.394    94074009.947    22586990.763
  22586986.536          46.500          38.750
  21779698.492    21779696.317   116098037.974    90298461.911    21779698.243
  21779695.598          49.500          40.250
  20306171.444    20306168.036   108510033.343    84396682.678    20306171.518
  20306167.984          53.250          46.000
  22807914.627    22807910.412   121835770.738    94761162.351    22807914.119
  22807911.733          41.250          34.750
  19953086.022    19953082.325   106773029.524    83045678.889    19953085.855
  19953082.160          53.250          46.500
  23369566.381    23369564.598   124748336.433    97026481.128    23369566.227
  23369564.284          43.750          34.250
  22904221.466    22904219.340   122522159.029    95295012.973    22904220.750
  22904220.022          44.500          31.250
  20296490.433    20296487.288   108534483.260    84415701.405    20296490.064
  20296487.141          52.250          45.250
 20 10  1 10 34  0.0000000  0 18G01G03G06G17G19G22G24G28R01R02R08R14
                                R15R16R17R18R23R24
  23632605.730    23632605.994   124190191.6554   96771579.4984   23632605.240
  23632606.570          40.000          36.250
  21670622.673    21670623.858   113879905.7624   88737589.5864   21670622.555
  21670623.334          47.500          47.500
  21747807.002    21747808.685   114285516.2804   89053657.4094   21747806.935
  21747807.797          48.250          38.500
  20603259.267    20603256.561   108270869.2394   84366913.6714   20603258.348
  20603256.266          51.250          52.500
  20767979.445                   109136480.1584   85041409.6104   20767978.108
  20767975.427          49.250          40.500
  23116427.392                   121477661.2934   94657915.6984   23116426.173
  23116423.349          45.000          31.750
  24349111.535    24349111.245   127955436.6914   99705540.0664   24349110.539
  24349111.133          36.250          17.000
  21186924.273                   111338038.1974   86756908.7924   21186923.255
  21186921.626          49.250          38.250
  21522775.121    21522773.567   115051588.828    89484561.364    21522775.040
  21522773.829          45.500          36.500
  23690655.993    23690655.914   126417900.684    98325030.842    23690656.969
  23690655.675          41.250          33.000
  22594980.313    22594976.145   120995093.538    94107288.051    22594980.298
  22594976.011          45.750          38.250
  21802171.556    21802170.455   116217833.289    90391636.023    21802171.288
  21802170.225          49.500          41.000
  20309653.783    20309650.552   108528640.993    84411155.272    20309653.997
  20309650.601          54.250          46.500
  22790517.817    22790514.111   121742839.972    94688882.847    22790517.795
  22790514.622          41.250          34.750
  19945925.885    19945922.197   106734714.470    83015878.286    19945925.585
  19945921.963          53.500          46.750
  23352203.982    23352200.478   124655650.870    96954392.342    23352203.201
  23352201.254          43.000          35.000
  22921980.790    22921978.819   122617161.225    95368903.509    22921980.177
  22921979.638          44.250          32.000
  20307076.349    20307072.910   108591089.671    84459728.599    20307076.689
  20307072.543          52.750          46.000
 20 10  1 10 34 30.0000000  0 18G01G03G06G17G19G22G24G28R01R02R08R14
                                R15R16R17R18R23R24
  23652510.383    23652512.809   124294795.3034   96853088.8014   23652510.312
  23652512.388          40.000          36.250
  21673169.300    21673170.806   113893288.9374   88748018.0184   21673169.391
  21673170.078          47.000          47.000
  21734531.735    21734533.090   114215753.2554   88999296.6144   21734531.591
  21734532.463          49.000          38.500
  20600130.881    20600128.044   108254430.5494   84354104.3014   20600130.117
  20600128.149          50.250          52.750
  20758008.944                   109084084.0314   85000581.4454   20758007.428
  20758004.656          48.500          40.500
  23128305.815                   121540080.7634   94706554.2134   23128304.386
  23128301.127          45.500          31.500
  24353654.139    24353654.324   127979312.4474   99724144.5194   24353654.152
  24353654.305          35.750          17.750
  21198157.855                   111397070.9084   86802908.2854   21198156.752
  21198154.959          49.500          38.000
  21514333.397    21514332.291   115006460.786    89449461.785    21514332.860
  21514331.477          44.500          37.000
  23666917.125    23666916.606   126291217.305    98226499.333    23666917.545
  23666916.553          41.000          34.250
  22603108.245    22603104.193   121038620.247    94141142.154    22603108.499
  22603103.609          45.750          38.500
  21824708.569    21824706.845   116337967.823    90485073.962    21824708.419
  21824706.989          49.250          41.250
  20313290.198    20313287.124   108548074.957    84426270.580    20313290.409
  20313287.581          53.250          45.750
  22773221.144    22773217.053   121650445.140    94617020.209    22773221.522
  22773218.645          41.250          34.750
  19938826.612    19938823.153   106696725.949    82986331.645    19938826.398
  19938823.229          53.500          46.750
  23334862.139    23334860.007   124563082.685    96882394.939    23334861.864
  23334860.027          42.000          35.500
  22939745.929    22939746.565   122712203.076    95442824.950    22939746.597
  22939745.730          42.500          31.500
  20317709.475    20317706.777   108647953.451    84503955.981    20317709.345
  20317706.750          52.000          46.000
 20 10  1 10 35  0.0000000  0 18G01G03G06G17G19G22G24G28R01R02R08R14
                                R15R16R17R18R23R24
  23672430.542    23672431.545   124399472.9694   96934655.7704   23672430.192
  23672431.222          41.250          36.000
  21675835.865    21675836.875   113907300.0314   88758935.7504   21675835.527
  21675836.362          47.750          47.000
  21721320.113    21721320.719   114146325.7034   88945197.2284   21721319.831
  21721320.547          48.750          38.750
  20597053.946    20597051.386   108238262.0484   84341505.4524   20597053.383
  20597051.348          49.750          52.250
  20748095.287                   109031987.5784   84959986.8014   20748093.962
  20748090.904          48.500          40.250
  23140268.489                   121602944.9034   94755539.2454   23140267.327
  23140264.018          45.500          31.750
  24358294.329    24358295.262   128003695.7154   99743144.4774   24358294.127
  24358293.862          36.500          17.000
  21209473.278                   111456533.3294   86849242.6274   21209472.296
  21209470.354          49.000          38.000
  21506028.599    21506026.197   114962068.805    89414934.706    21506028.558
  21506026.898          45.750          36.750
  23643181.482    23643179.706   126164555.801    98127984.867    23643179.336
  23643179.512          40.000          35.500
  22611375.638    22611370.894   121082886.365    94175571.357    22611376.163
  22611371.370          46.500          38.500
  21847307.914    21847306.282   116458437.066    90578772.227    21847308.119
  21847306.264          49.000          40.750
  20317081.778    20317078.547   108568333.798    84442027.449    20317081.948
  20317078.552          54.250          45.750
  22756025.801    22756021.338   121558589.670    94545577.056    22756025.973
  22756022.439          41.500          34.750
  19931788.349    19931785.574   106659063.632    82957038.727    19931788.180
  19931785.015          53.250          47.000
  23317543.349    23317540.518   124470632.013    96810488.870    23317541.905
  23317540.570          42.750          36.000
  22957520.779    22957520.924   122807283.094    95516776.010    22957520.670
  22957520.809          42.750          31.500
  20328391.528    20328388.235   108705073.014    84548382.279    20328391.512
  20328388.013          52.250          46.000
 20 10  1 10 35 30.0000000  0 18G01G03G06G17G19G22G24G28R01R02R08R14
                                R15R16R17R18R23R24
  23692363.651    23692365.433   124504223.1654   97016279.2704   23692363.200
  23692365.099          40.000          36.000
  21678621.743    21678622.851   113921938.7934   88770342.5644   21678621.293
  21678621.977          46.750          46.750
  21708172.826    21708173.436   114077234.6654   88891360.0584   21708172.272
  21708173.158          48.000          38.500
  20594029.126    20594026.430   108222364.8224   84329118.0004   20594028.247
  20594026.206          49.750          52.000
  20738239.046                   108980192.2994   84919626.8354   20738237.670
  20738234.891          48.000          40.750
  23152315.120                   121666251.8524   94804869.3034   23152313.842
  23152310.817          45.500          31.250
  24363030.864    24363030.928   128028586.0804   99762539.5484   24363030.247
  24363031.135          36.000          17.000
  21220870.115                   111516424.7024   86895911.2074   21220869.168
  21220867.342          49.500          37.750
  21497862.410    21497860.397   114918415.317    89380982.014    21497862.013
  21497861.052          45.750          36.750
  23619449.937    23619448.933   126037920.833    98029491.035    23619449.248
  23619449.101          41.500          38.000
  22619779.089    22619773.792   121127890.338    94210574.435    22619780.243
  22619774.608          45.500          37.250
  21869970.450    21869968.664   116579237.099    90672727.759    21869969.460
  21869968.617          48.500          41.000
  20321027.459    20321023.973   108589417.187    84458425.620    20321027.091
  20321024.154          53.250          46.250
  22738931.261    22738928.342   121467277.349    94474556.349    22738931.394
  22738928.704          40.500          34.250
  19924811.960    19924808.231   106621728.083    82927999.956    19924811.833
  19924808.053          53.500          46.750
  23300245.165    23300244.010   124378299.563    96738674.788    23300245.620
  23300243.408          42.500          36.000
  22975302.987    22975302.078   122902401.071    95590756.626    22975302.244
  22975302.972          44.500          33.250
  20339120.681    20339117.447   108762447.536    84593006.900    20339120.780
  20339117.414          52.000          45.750
 20 10  1 10 36  0.0000000  0 18G01G03G06G17G19G22G24G28R01R02R08R14
                                R15R16R17R18R23R24
  23712311.164    23712311.588   124609043.9574   97097957.7884   23712310.760
  23712311.698          41.000          36.500
  21681526.748    21681527.446   113937204.5184   88782237.9254   21681526.296
  21681527.042          46.750          47.000
  21695088.738    21695090.173   114008480.6794   88837785.5264   21695088.732
  21695089.622          48.500          38.750
  20591055.495    20591052.951   108206739.2694   84316942.2374   20591054.744
  20591052.809          50.500          52.500
  20728440.493                   108928699.3434   84879502.4424   20728438.737
  20728435.843          48.750          40.250
  23164446.455                   121729999.3074   94854542.6304   23164444.779
  23164441.328          46.500          31.000
  24367863.039    24367863.715   128053981.8534   99782328.4514   24367862.939
  24367863.973          33.750          15.750
  21232348.229                   111576743.5224   86942912.8684   21232347.457
  21232345.685          49.000          37.750
  21489835.290    21489832.425   114875503.019    89347605.785    21489834.678
  21489833.880          45.750          36.750
  23595723.791    23595722.971   125911316.869    97931021.332    23595723.822
  23595722.602          39.750          37.500
  22628319.746    22628316.683   121173629.493    94246149.320    22628320.691
  22628316.970          45.750          38.750
  21892693.311    21892692.030   116700363.117    90766936.861    21892693.721
  21892691.899          49.500          41.000
  20325126.677    20325123.641   108611323.754    84475464.054    20325126.793
  20325123.695          53.250          46.500
  22721941.017    22721936.039   121376512.275    94403961.311    22721940.554
  22721938.330          41.250          34.500
  19917895.426    19917892.214   106584718.928    82899215.044    19917895.359
  19917891.781          53.000          46.500
  23282971.669    23282969.300   124286085.572    96666952.802    23282970.830
  23282969.274          43.000          36.250
  22993092.276    22993090.406   122997556.065    95664766.001    22993091.969
  22993090.563          44.750          33.250
  20349897.858    20349894.822   108820075.787    84637828.865    20349897.717
  20349894.128          52.000          45.500
 20 10  1 10 36 30.0000000  0 18G01G03G06G17G19G22G24G28R01R02R08R14
                                R15R16R17R18R23R24
  23732270.308    23732271.474   124713933.9564   97179690.2064   23732270.026
  23732271.329          40.250          35.750
  21684551.287    21684552.025   113953096.9814   88794621.6524   21684550.580
  21684551.190          47.750          47.000
  21682069.802    21682071.221   113940064.8114   88784474.4634   21682069.647
  21682070.578          48.750          38.750
  20588133.664    20588131.525   108191386.4434   84304978.9924   20588133.208
  20588131.250          49.500          52.500
  20718699.625                   108877510.2274   84839614.8114   20718697.984
  20718695.065          49.500          40.750
  23176660.016                   121794185.8794   94904558.1284   23176658.833
  23176656.001          44.000          31.000
  24372790.605    24372791.643   128079881.7264   99802510.1534   24372791.698
  24372791.761          33.750          15.000
  21243907.825                   111637488.9664   86990246.9644   21243906.985
  21243904.994          47.500          38.000
  21481946.072    21481944.608   114833334.618    89314808.158    21481945.938
  21481945.148          45.750          36.750
  23572004.873    23572004.548   125784747.982    97832578.909    23572004.324
  23572004.384          40.750          37.750
  22636997.759    22636995.409   121220102.798    94282295.218    22636998.599
  22636995.310          44.500          39.000
  21915475.885    21915474.585   116821811.551    90861396.726    21915476.032
  21915474.827          48.250          40.500
  20329379.954    20329376.618   108634052.665    84493142.086    20329380.164
  20329376.544          53.500          45.750
  22705052.539    22705046.980   121286298.520    94333795.042    22705052.504
  22705049.340          41.500          34.000
  19911040.475    19911037.246   106548036.655    82870684.388    19911040.300
  19911037.003          53.500          46.500
  23265718.765    23265716.923   124193991.047    96595323.736    23265718.247
  23265715.795          43.000          36.250
  23010886.980    23010884.986   123092747.826    95738803.993    23010886.318
  23010885.792          44.750          33.000
  20360721.701    20360718.823   108877957.270    84682847.781    20360721.615
  20360718.589          52.250          45.750
 20 10  1 10 37  0.0000000  0 18G01G03G06G17G19G22G24G28R01R02R08R14
                                R15R16R17R18R23R24
  23752243.422    23752244.238   124818891.3734   97261475.1764   23752243.111
  23752244.115          40.250          36.000
  21687694.716    21687694.942   113969615.5474   88807493.2524   21687693.885
  21687694.624          47.250          47.000
  21669115.019    21669116.397   113871987.7104   88731427.3744   21669114.933
  21669115.815          48.750          38.750
  20585264.268    20585261.908   108176306.9324   84293228.7134   20585263.674
  20585261.708          49.500          52.500
  20709016.684                   108826626.0674   84799964.8114   20709014.985
  20709012.104          49.750          40.750
  23188957.751                   121858809.3074   94954914.0274   23188956.321
  23188953.347          43.750          31.000
  24377815.824    24377817.338   128106284.3314   99823083.6074   24377815.904
  24377816.357          35.250          15.250
  21255548.145                   111698659.7424   87037912.4814   21255547.201
  21255545.793          48.750          38.000
  21474196.976    21474195.304   114791912.813    89282591.200    21474196.704
  21474196.003          44.750          37.000
  23548294.754    23548292.178   125658218.594    97734167.190    23548294.396
  23548291.833          43.750          37.250
  22645814.368    22645810.025   121267308.000    94319010.364    22645814.257
  22645809.572          45.500          38.750
  21938319.782    21938318.373   116943577.807    90956103.771    21938319.244
  21938318.243          48.500          41.000
  20333787.210    20333784.293   108657602.854    84511458.894    20333787.588
  20333784.445          54.000          46.500
  22688267.573    22688264.323   121196639.363    94264060.122    22688267.578
  22688265.562          40.750          34.250
  19904246.918    19904243.415   106511681.179    82842407.897    19904246.420
  19904242.661          53.500          46.500
  23248490.369    23248485.610   124102015.866    96523787.508    23248490.447
  23248486.000          44.750          36.750
  23028688.883    23028686.899   123187975.745    95812870.108    23028688.557
  23028688.343          45.250          33.250
  20371593.469    20371589.978   108936090.648    84728062.626    20371593.149
  20371589.812          52.500          45.500
 20 10  1 10 37 30.0000000  0 18G01G03G06G17G19G22G24G28R01R02R08R14
                                R15R16R17R18R23R24
  23772228.512    23772229.057   124923913.4534   97343310.5344   23772228.281
  23772229.230          40.750          35.500
  21690956.446    21690957.603   113986758.5964   88820851.4674   21690956.026
  21690956.870          48.500          47.000
  21656225.282    21656226.683   113804249.1044   88678644.0504   21656224.939
  21656225.696          49.000          39.000
  20582446.886    20582444.633   108161500.5274   84281691.2494   20582446.143
  20582444.153          50.250          52.750
  20699391.840                   108776047.1114   84760552.6284   20699390.178
  20699387.273          48.500          41.000
  23201337.880                   121923866.4344   95005607.8604   23201336.085
  23201333.096          44.750          30.500
  24382936.710    24382935.328   128133187.3494   99844046.9884   24382935.558
  24382935.301          36.500          15.750
  21267269.062                   111760253.9734   87085907.9724   21267268.224
  21267266.604          48.750          37.750
  21466588.414    21466586.333   114751238.939    89250955.979    21466587.849
  21466587.459          45.500          36.750
  23524590.110    23524588.739   125531731.304    97635788.197    23524589.549
  23524588.737          43.500          37.500
  22654765.914    22654761.186   121315242.617    94356292.822    22654766.707
  22654762.075          45.500          39.250
  21961220.810    21961220.192   117065656.630    91051053.942    21961221.188
  21961219.842          48.250          40.500
  20338347.701    20338344.811   108681972.258    84530412.861    20338347.375
  20338344.599          53.750          46.000
  22671587.886    22671584.396   121107537.954    94194759.008    22671587.743
  22671584.183          41.500          34.000
  19897514.006    19897510.203   106475651.600    82814384.888    19897513.586
  19897510.142          53.250          46.500
  23231281.508    23231278.276   124010159.490    96452343.677    23231280.810
  23231278.808          45.500          38.250
  23046496.922    23046494.776   123283237.848    95886962.804    23046496.391
  23046496.565          44.750          33.250
  20382511.611    20382508.345   108994473.897    84773471.805    20382511.120
  20382508.021          52.250          45.750
 20 10  1 10 38  0.0000000  0 18G01G03G06G17G19G22G24G28R01R02R08R14
                                R15R16R17R18R23R24
  23792225.717    23792227.000   125028999.3384   97425195.5834   23792225.338
  23792226.981          39.500          35.750
  21694337.342    21694338.731   114004526.3494   88834696.4554   21694337.273
  21694338.063          47.250          47.250
  21643399.497    21643400.381   113736850.5184   88626125.6784   21643399.308
  21643399.992          48.250          38.750
  20579681.516    20579679.401   108146968.9944   84270367.9714   20579680.920
  20579678.940          50.250          52.750
  20689825.228                   108725775.3224   84721379.7954   20689823.596
  20689820.800          49.750          40.500
  23213800.099                   121989356.1294   95056638.7854   23213798.841
  23213795.886          45.750          30.500
  24388150.248    24388150.251   128160589.1314   99865399.0234   24388149.844
  24388150.585          35.500          16.250
  21279070.739                   111822271.0884   87134232.9734   21279069.758
  21279068.443          49.000          37.750
  21459120.822    21459118.660   114711316.465    89219905.158    21459120.136
  21459119.026          45.750          36.750
  23500895.386    23500894.897   125405292.022    97537446.546    23500894.640
  23500894.082          44.000          37.750
  22663852.263    22663849.235   121363904.713    94394141.127    22663853.081
  22663849.735          44.250          39.000
  21984181.128    21984179.677   117188044.529    91146244.493    21984181.807
  21984179.891          49.500          40.000
  20343061.118    20343058.259   108707160.672    84550003.836    20343061.500
  20343058.172          53.250          46.000
  22655013.019    22655008.846   121018998.331    94125894.851    22655012.789
  22655009.604          40.750          34.250
  19890841.999    19890838.154   106439948.710    82786615.964    19890841.907
  19890837.877          53.250          46.500
  23214095.801    23214093.330   123918423.240    96380993.268    23214095.346
  23214093.699          45.000          38.250
  23064311.380    23064308.925   123378534.734    95961082.561    23064311.308
  23064310.554          45.250          33.250
  20393475.261    20393472.514   109053106.647    84819075.047    20393475.534
  20393472.242          52.000          45.750
 20 10  1 10 38 30.0000000  0 18G01G03G06G17G19G22G24G28R01R02R08R14
                                R15R16R17R18R23R24
  23812234.340    23812235.219   125134146.9614   97507128.7744   23812234.246
  23812235.003          40.000          34.250
  21697837.244    21697838.530   114022917.7184   88849027.3804   21697837.029
  21697837.755          47.750          47.000
  21630638.662    21630639.894   113669792.2834   88573872.5144   21630638.536
  21630639.474          49.750          38.750
  20576968.975    20576966.215   108132712.4874   84259258.9954   20576968.078
  20576965.988          50.250          52.750
  20680317.240                   108675811.6334   84682447.0464   20680315.971
  20680313.096          49.750          40.500
  23226344.550                   122055275.9894   95108004.8894   23226342.776
  23226339.565          45.500          30.250
  24393458.978    24393458.809   128188488.3234   99887138.6274   24393458.109
  24393458.711          35.250          15.500
  21290952.301                   111884709.5924   87182886.3444   21290951.580
  21290949.660          50.000          37.000
  21451792.561    21451791.119   114672147.201    89189440.186    21451792.144
  21451790.980          45.500          37.000
  23477210.684    23477208.885   125278904.631    97439145.257    23477210.256
  23477208.979          45.250          36.750
  22673075.041    22673071.878   121413292.781    94432554.053    22673076.218
  22673072.357          44.000          38.750
  22007197.274    22007195.580   117310736.952    91241671.918    22007197.560
  22007196.087          48.750          39.750
  20347927.347    20347925.186   108733166.252    84570230.386    20347927.934
  20347924.791          53.000          46.000
  22638544.500    22638540.494   120931024.036    94057470.401    22638544.232
  22638541.247          40.500          33.750
  19884231.328    19884227.336   106404572.187    82759100.877    19884230.911
  19884227.061          53.000          46.500
  23196933.427    23196930.315   123826807.057    96309736.257    23196932.227
  23196931.123          44.750          38.500
  23082132.920    23082131.806   123473865.312    96035228.507    23082132.593
  23082132.289          45.500          34.250
  20404487.126    20404483.649   109111987.659    84864871.382    20404486.658
  20404483.310          52.500          45.500
 20 10  1 10 39  0.0000000  0 18G01G03G06G17G19G22G24G28R01R02R08R14
                                R15R16R17R18R23R24
  23832254.558    23832256.432   125239354.7254   97589108.8104   23832254.019
  23832256.099          39.000          34.000
  21701455.337    21701456.270   114041932.1624   88863843.8264   21701455.393
  21701456.086          48.500          46.750
  21617942.676    21617944.073   113603075.1454   88521885.1354   21617942.616
  21617943.540          49.000          39.000
  20574308.264    20574305.727   108118731.7294   84248364.8964   20574307.566
  20574305.599          49.500          53.000
  20670868.457                   108626157.2514   84643755.3114   20670867.029
  20670864.356          48.500          41.250
  23238970.157                   122121624.3144   95159704.8664   23238968.577
  23238965.433          45.000          30.500
  24398863.058    24398861.900   128216883.7104   99909264.8804   24398862.361
  24398862.874          37.250          15.500
  21302913.904                   111947568.1334   87231867.0084   21302913.036
  21302911.656          48.750          37.250
  21444606.768    21444604.875   114633733.643    89159562.961    21444606.315
  21444605.107          45.500          37.000
  23453536.228    23453534.651   125152572.284    97340886.757    23453535.399
  23453535.309          45.000          36.750
  22682433.864    22682430.299   121463404.241    94471529.601    22682434.089
  22682430.312          44.750          39.250
  22030271.027    22030269.639   117433729.604    91337332.831    22030271.018
  22030269.167          48.750          40.500
  20352946.948    20352944.683   108759987.870    84591091.644    20352947.299
  20352944.680          53.000          46.750
  22622182.710    22622177.386   120843618.860    93989488.602    22622182.697
  22622177.611          41.750          33.500
  19877680.698    19877677.430   106369522.177    82731839.752    19877680.506
  19877677.090          52.750          46.500
  23179793.487    23179790.091   123735311.655    96238573.169    23179792.361
  23179790.743          45.500          38.750
  23099960.542    23099958.170   123569229.015    96109400.242    23099959.822
  23099959.767          44.750          33.500
  20415544.172    20415540.770   109171115.883    84910859.987    20415543.711
  20415540.377          52.000          45.500
 20 10  1 10 39 30.0000000  0 18G01G03G06G17G19G22G24G28R01R02R08R14
                                R15R16R17R18R23R24
  23852286.392    23852287.515   125344620.3394   97671133.9124   23852286.307
  23852287.544          40.250          34.500
  21705192.270    21705193.609   114061568.3394   88879144.7354   21705192.004
  21705192.825          47.500          47.000
  21605312.146    21605313.075   113536699.2314   88470163.6484   21605311.730
  21605312.428          49.750          39.250
  20571700.188    20571697.908   108105027.4014   84237686.1904   20571699.692
  20571697.676          50.000          52.750
  20661478.745                   108576812.7654   84605305.0514   20661477.089
  20661474.191          50.250          41.250
  23251676.619                   122188397.9094   95211736.2274   23251675.086
  23251671.952          44.250          30.000
  24404361.278    24404360.025   128245773.0304   99931776.0474   24404360.482
  24404359.910          36.750          17.000
  21314955.482                   112010845.3164   87281173.8824   21314954.183
  21314952.596          48.750          37.250
  21437562.732    21437560.357   114596077.533    89130274.876    21437562.417
  21437561.087          46.000          37.250
  23429871.412    23429871.502   125026299.797    97242674.826    23429871.458
  23429871.525          43.750          36.000
  22691926.378    22691922.770   121514236.725    94511065.966    22691927.144
  22691922.557          45.000          39.500
  22053400.276    22053398.499   117557017.506    91433223.393    22053400.298
  22053398.035          50.000          40.000
  20358119.089    20358115.987   108787623.794    84612586.230    20358118.920
  20358115.999          53.250          45.500
  22605926.166    22605922.851   120756785.921    93921951.843    22605926.214
  22605923.352          40.750          33.750
  19871191.676    19871188.621   106334798.174    82704832.187    19871191.552
  19871188.321          53.000          46.750
  23162675.447    23162673.153   123643936.744    96167503.836    23162675.023
  23162673.327          45.500          39.250
  23117792.513    23117791.044   123664624.816    96183596.945    23117792.579
  23117793.020          43.500          33.250
  20426646.889    20426644.163   109230489.806    84957039.687    20426647.026
  20426644.062          52.000          45.750
 20 10  1 10 40  0.0000000  0 18G01G03G06G17G19G22G24G28R01R02R08R14
                                R15R16R17R18R23R24
  23872328.667    23872329.308   125449942.7774   97753203.3214   23872327.637
  23872329.229          38.750          33.250
  21709047.249    21709048.466   114081826.2094   88894930.0764   21709047.060
  21709047.692          46.750          47.000
  21592746.195    21592747.283   113470665.8794   88418709.0904   21592746.104
  21592746.868          48.500          39.000
  20569145.350    20569142.964   108091600.7104   84227223.8274   20569144.745
  20569142.669          51.000          52.750
  20652147.983                   108527780.3764   84567097.9894   20652146.444
  20652143.857          49.750          41.000
  23264463.930                   122255595.2954   95264097.8244   23264462.196
  23264459.064          44.750          30.250
  24409950.673    24409950.596   128275155.2394   99954671.2614   24409951.459
  24409951.409          36.500          16.500
  21327075.908                   112074540.2924   87330806.3124   21327074.967
  21327073.685          49.250          37.250
  21430660.489    21430658.345   114559182.084    89101578.412    21430660.108
  21430659.432          46.000          37.250
  23406221.674    23406220.113   124900091.730    97144513.008    23406220.846
  23406219.159          45.000          35.250
  22701553.281    22701549.084   121565788.699    94551161.912    22701554.106
  22701549.607          45.000          39.500
  22076582.465    22076581.881   117680597.487    91529341.115    22076582.997
  22076580.711          48.500          39.750
  20363442.874    20363439.795   108816073.353    84634713.664    20363443.025
  20363439.808          53.000          45.750
  22589778.387    22589774.339   120670529.240    93854863.322    22589779.911
  22589776.345          41.500          33.750
  19864763.794    19864760.540   106300400.909    82678078.756    19864763.439
  19864760.360          53.000          46.500
  23145579.829    23145577.562   123552683.384    96096528.999    23145579.381
  23145577.484          44.750          38.500
  23135632.045    23135631.214   123760052.837    96257818.647    23135631.292
  23135631.257          43.000          33.500
  20437796.489    20437793.186   109290109.040    85003410.199    20437795.848
  20437792.914          52.250          45.500
 20 10  1 10 40 30.0000000  0 18G01G03G06G17G19G22G24G28R01R02R08R14
                                R15R16R17R18R23R24
  23892381.713    23892381.955   125555320.6234   97835315.8944   23892380.796
  23892382.065          39.250          32.750
  21713020.375    21713021.566   114102705.1684   88911199.3904   21713020.096
  21713020.796          47.500          47.250
  21580245.683    21580246.959   113404975.8914   88367522.0944   21580245.594
  21580246.340          49.000          39.000
  20566643.320    20566640.962   108078452.3704   84216978.3654   20566642.738
  20566640.645          50.250          53.000
  20642877.066                   108479061.2254   84529135.0064   20642875.597
  20642872.654          49.500          40.250
  23277330.684                   122323214.7374   95316788.2824   23277329.778
  23277326.616          43.750          30.250
  24415635.395    24415636.664   128305029.4444   99977949.8464   24415635.894
  24415636.447          35.750          15.000
  21339276.110                   112138652.0314   87380763.4904   21339275.091
  21339273.360          48.250          36.750
  21423900.666    21423898.117   114523049.509    89073475.289    21423900.476
  21423899.558          45.750          37.250
  23382583.270    23382581.711   124773952.641    97046404.817    23382582.150
  23382581.974          45.750          35.000
  22711313.746    22711310.061   121618058.005    94591815.828    22711314.095
  22711310.175          44.250          39.500
  22099819.742    22099818.992   117804464.908    91625682.420    22099819.897
  22099818.851          48.500          40.000
  20368918.281    20368915.981   108845335.299    84657472.941    20368918.794
  20368915.849          53.250          46.000
  22573740.420    22573734.506   120584853.095    93788226.271    22573741.064
  22573737.154          42.500          34.250
  19858397.077    19858393.844   106266330.389    82651579.453    19858396.661
  19858393.321          53.000          46.750
  23128509.411    23128506.093   123461552.242    96025649.201    23128508.442
  23128506.387          46.750          38.750
  23153477.587    23153476.824   123855512.588    96332065.072    23153477.108
  23153477.693          43.000          32.500
  20448991.447    20448987.528   109349972.600    85049970.740    20448991.408
  20448987.796          53.000          45.500
 20 10  1 10 41  0.0000000  0 18G01G03G06G17G19G22G24G28R01R02R08R14
                                R15R16R17R18R23R24
  23912444.836    23912444.963   125660751.5564   97917469.8464   23912444.118
  23912445.065          40.250          33.000
  21717111.251    21717112.541   114124203.8454   88927951.6034   21717111.175
  21717111.957          47.500          47.000
  21567810.375    21567812.149   113339629.3364   88316602.7024   21567810.186
  21567811.388          48.250          39.250
  20564194.346    20564191.698   108065582.6074   84206949.9704   20564193.733
  20564191.585          50.500          52.750
  20633665.659                   108430656.0164   84491416.6524   20633664.420
  20633661.657          49.750          41.000
  23290278.962                   122391253.4264   95369805.4254   23290277.058
  23290274.401          43.750          30.250
  24421413.498    24421414.884   128335392.5554  100001609.3904   24421413.923
  24421414.280          36.500          16.000
  21351555.347                   112203178.6314   87431043.9304   21351554.212
  21351552.682          49.000          36.500
  21417284.665    21417282.750   114487681.375    89045966.753    21417284.124
  21417283.609          46.000          37.500
  23358957.867    23358956.917   124647886.325    96948353.223    23358957.956
  23358956.330          44.750          34.500
  22721208.208    22721205.378   121671041.882    94633025.484    22721209.168
  22721204.693          44.250          39.750
  22123110.494    22123109.678   117928615.171    91722243.697    22123110.734
  22123109.418          48.750          40.500
  20374545.704    20374543.187   108875407.409    84680862.356    20374546.479
  20374543.409          53.000          46.000
  22557809.824    22557806.615   120499760.197    93722042.886    22557811.096
  22557808.010          40.750          34.250
  19852090.896    19852087.540   106232586.090    82625333.882    19852090.641
  19852087.204          52.500          46.750
  23111459.085    23111457.360   123370543.038    95954864.270    23111459.277
  23111456.753          47.000          38.000
  23171328.134    23171328.433   123951002.939    96406335.326    23171327.991
  23171327.705          42.500          31.750
  20460231.619    20460228.474   109410079.058    85096720.198    20460231.365
  20460228.071          52.500          45.500
 20 10  1 10 41 30.0000000  0 18G01G03G06G17G19G22G24G28R01R02R08R14
                                R15R16R17R18R23R24
  23932516.485    23932517.536   125766233.3564   97999663.4234   23932515.848
  23932518.032          38.750          31.750
  21721320.105    21721321.708   114146320.7754   88945185.5654   21721319.899
  21721320.742          46.750          47.000
  21555441.086    21555442.174   113274626.2214   88265950.9214   21555440.755
  21555441.682          49.250          39.250
  20561798.574    20561795.947   108052991.2344   84197138.5064   20561797.627
  20561795.588          51.250          53.000
  20624514.394                   108382565.1204   84453943.2194   20624512.915
  20624510.167          49.250          40.750
  23303304.540                   122459708.5924   95423147.1044   23303303.736
  23303300.784          44.250          29.750
  24427284.530    24427285.064   128366242.6734  100025648.4164   24427284.145
  24427284.543          37.000          16.250
  21363912.558                   112268118.3324   87481646.2804   21363911.916
  21363910.006          47.500          36.750
  21410811.820    21410810.330   114453079.134    89019053.880    21410811.756
  21410810.266          46.500          37.250
  23335347.541    23335346.173   124521896.387    96850361.075    23335346.603
  23335345.902          44.250          34.250
  22731236.009    22731232.104   121724737.830    94674788.963    22731236.979
  22731231.901          45.250          39.250
  22146452.947    22146450.843   118053043.271    91819021.071    22146452.874
  22146451.257          48.750          40.250
  20380325.293    20380322.327   108906287.712    84704880.355    20380325.296
  20380322.122          53.000          46.000
  22541990.217    22541986.651   120415253.452    93656315.426    22541990.467
  22541987.918          40.500          33.750
  19845846.315    19845842.461   106199167.582    82599341.698    19845846.198
  19845842.293          53.500          46.750
  23094433.817    23094430.108   123279655.668    95884174.087    23094432.880
  23094430.169          46.000          37.750
  23189185.055    23189184.796   124046522.952    96480628.580    23189184.335
  23189184.125          42.000          31.250
  20471516.336    20471513.603   109470426.582    85143657.143    20471516.353
  20471513.423          52.000          45.250
 20 10  1 10 42  0.0000000  0 18G01G03G06G17G19G22G24G28R01R02R08R14
                                R15R16R17R18R23R24
  23952598.635    23952599.448   125871764.7654   98081895.6404   23952598.204
  23952599.151          38.750          31.000
  21725646.756    21725647.338   114169055.5594   88962900.9704   21725646.165
  21725646.982          47.500          47.250
  21543136.666    21543138.172   113209967.6174   88215567.5934   21543136.536
  21543137.510          48.500          39.250
  20559455.573    20559453.199   108040680.2664   84187545.5334   20559454.947
  20559452.813          50.500          53.250
  20615423.270                   108334790.2164   84416716.0134   20615421.776
  20615419.067          48.250          41.000
  23316411.483                   122528578.9784   95476812.3294   23316409.628
  23316406.480          45.750          30.250
  24433248.035    24433247.895   128397578.0124  100050065.5644   24433247.182
  24433247.392          36.750          16.000
  21376349.053                   112333470.0614   87532569.6844   21376347.940
  21376346.407          49.500          36.500
  21404482.434    21404480.614   114419245.834    88992739.098    21404481.968
  21404480.505          45.750          37.250
  23311751.422    23311749.213   124395987.633    96752431.987    23311750.869
  23311750.048          44.000          32.500
  22741395.766    22741392.703   121779143.726    94717104.650    22741396.692
  22741392.845          44.750          39.750
  22169846.736    22169845.300   118177745.229    91916011.458    22169846.436
  22169844.662          47.750          39.750
  20386255.063    20386252.211   108937975.091    84729526.089    20386255.248
  20386252.271          53.500          46.000
  22526281.793    22526277.516   120331336.906    93591047.005    22526282.288
  22526278.535          41.750          34.000
  19839662.181    19839658.789   106166075.181    82573603.158    19839661.915
  19839658.421          53.750          47.000
  23077429.309    23077427.930   123188890.873    95813579.235    23077429.120
  23077427.344          44.750          38.250
  23207047.073    23207045.207   124142071.871    96554944.310    23207046.310
  23207046.915          42.250          31.250
  20482847.394    20482843.709   109531014.769    85190781.272    20482847.027
  20482843.583          52.000          45.250
 20 10  1 10 42 30.0000000  0 18G01G03G06G17G19G22G24G28R01R02R08R14
                                R15R16R17R18R23R24
  23972690.274    23972690.804   125977344.4434   98164165.5144   23972689.366
  23972690.517          37.750          31.000
  21730090.696    21730091.215   114192407.5944   88981097.3564   21730089.973
  21730090.674          48.750          47.500
  21530898.762    21530900.265   113145654.4324   88165453.4184   21530898.448
  21530899.255          48.500          39.500
  20557166.447    20557164.061   108028650.4864   84178171.6724   20557165.778
  20557163.687          51.250          52.750
  20606392.115                   108287333.0224   84379736.3734   20606390.880
  20606388.143          48.250          40.500
  23329594.943                   122597862.6714   95530799.6084   23329593.259
  23329590.304          44.000          29.750
  24439302.288    24439302.354   128429397.8744  100074860.2704   24439303.050
  24439303.089          35.500          15.250
  21388863.014                   112399232.8154   87583813.3704   21388862.089
  21388860.429          48.250          36.500
  21398296.777    21398295.818   114386183.407    88967023.873    21398296.503
  21398296.370          45.500          37.250
  23288172.698    23288171.371   124270164.028    96654569.187    23288172.318
  23288171.462          43.000          34.000
  22751687.419    22751683.908   121834257.159    94759970.641    22751688.718
  22751684.336          44.250          39.500
  22193290.917    22193289.626   118302717.230    92013211.863    22193290.456
  22193289.139          47.750          40.000
  20392335.667    20392332.774   108970468.360    84754798.619    20392336.184
  20392332.828          53.250          45.750
  22510683.968    22510679.421   120248014.392    93526240.570    22510683.886
  22510680.562          42.750          33.750
  19833539.377    19833535.550   106133309.399    82548118.651    19833539.278
  19833535.206          53.500          47.250
  23060450.117    23060446.695   123098249.146    95743080.118    23060450.062
  23060446.690          45.750          37.750
  23224914.741    23224913.752   124237649.829    96629282.692    23224914.515
  23224912.872          42.500          30.750
  20494222.420    20494218.902   109591842.933    85238092.063    20494222.235
  20494218.512          52.250          45.250
 20 10  1 10 43  0.0000000  0 18G01G03G06G17G19G22G24G28R01R02R08R14
                                R15R16R17R18R23R24
  23992789.497    23992790.230   126082971.1024   98246471.9624   23992789.661
  23992790.975          38.250          31.250
  21734651.378    21734652.606   114216376.3074   88999774.2704   21734651.084
  21734651.798          47.000          47.000
  21518725.940    21518727.492   113081687.5474   88115609.1004   21518725.933
  21518726.808          49.000          39.500
  20554930.755    20554928.676   108016902.6954   84169017.5434   20554930.177
  20554928.110          49.750          53.250
  20597422.399                   108240195.0884   84343005.5124   20597420.806
  20597418.027          48.500          40.750
  23342857.766                   122667557.3934   95585107.1634   23342856.133
  23342853.149          44.250          29.750
  24445449.455    24445449.647   128461700.7344  100100031.3104   24445450.200
  24445449.654          35.000          14.000
  21401455.685                   112465405.8234   87635376.7324   21401454.496
  21401452.649          48.000          36.750
  21392256.680    21392255.053   114353894.426    88941910.220    21392256.553
  21392256.118          45.250          37.500
  23264610.958    23264609.318   124144431.009    96556776.861    23264610.047
  23264609.763          43.250          34.750
  22762112.160    22762108.478   121890076.686    94803385.808    22762111.522
  22762108.000          45.000          39.750
  22216785.923    22216784.371   118427955.257    92110619.181    22216785.812
  22216784.269          49.250          40.000
  20398566.505    20398563.799   109003766.042    84780696.805    20398566.910
  20398563.966          53.250          45.750
  22495196.954    22495193.185   120165290.150    93461899.449    22495197.120
  22495193.958          41.500          34.500
  19827476.685    19827473.702   106100870.229    82522888.182    19827476.466
  19827473.678          53.000          47.000
  23043492.210    23043490.266   123007731.455    95672677.467    23043492.146
  23043490.213          44.750          37.500
  23242787.208    23242786.527   124333256.569    96703643.455    23242787.638
  23242787.760          42.750          29.750
  20505642.432    20505639.136   109652910.296    85285588.890    20505641.862
  20505638.509          52.000          45.250
 20 10  1 10 43 30.0000000  0 18G01G03G06G17G19G22G24G28R01R02R08R14
                                R15R16R17R18R23R24
  24012898.156    24012900.099   126188642.2864   98328813.1054   24012897.962
  24012899.666          37.250          30.750
  21739329.448    21739330.835   114240959.9644   89018930.3564   21739329.230
  21739329.783          47.250          46.500
  21506619.418    21506620.778   113018066.8174   88066034.5034   21506619.264
  21506620.136          49.000          39.250
  20552748.998    20552746.636   108005436.7294   84160083.0174   20552748.328
  20552746.295          51.000          53.000
  20588513.201                   108193376.7864   84306523.7114   20588511.563
  20588508.877          48.750          41.000
  23356198.488                   122737660.1544   95639732.6954   23356196.445
  23356193.437          45.250          29.750
  24451687.995    24451688.982   128494483.6024  100125576.4054   24451687.352
  24451688.652          34.500          14.500
  21414125.677                   112531986.6864   87687257.9104   21414124.552
  21414122.789          48.750          36.500
  21386360.846    21386359.694   114322379.993    88917398.984    21386361.135
  21386360.405          45.250          37.500
  23241066.274    23241064.293   124018791.609    96459057.347    23241065.552
  23241064.591          43.500          35.000
  22772667.514    22772663.858   121946599.237    94847347.776    22772667.724
  22772663.590          45.000          40.250
  22240328.548    22240326.579   118553454.124    92208229.396    22240328.747
  22240327.117          47.500          39.250
  20404948.647    20404945.512   109037865.756    84807218.785    20404948.795
  20404945.492          53.750          45.750
  22479822.802    22479820.715   120083166.518    93398025.530    22479823.149
  22479821.053          41.250          35.000
  19821475.924    19821472.712   106068757.321    82497911.466    19821475.837
  19821472.293          53.000          47.500
  23026558.189    23026556.892   122917336.959    95602370.655    23026558.062
  23026556.458          44.000          36.750
  23260664.637    23260664.894   124428890.891    96778025.611    23260664.654
  23260663.907          42.250          29.750
  20517106.765    20517103.169   109714215.136    85333270.418    20517106.413
  20517102.759          52.250          45.000
 20 10  1 10 44  0.0000000  0 18G01G03G06G17G19G22G24G28R01R02R08R14
                                R15R16R17R18R23R24
  24033015.690    24033014.948   126294356.7224   98411187.9684   24033014.941
  24033016.297          38.750          32.000
  21744124.247    21744125.068   114266157.9004   89038565.1034   21744124.202
  21744124.931          47.000          47.250
  21494578.718    21494580.017   112954793.0664   88016730.2834   21494578.614
  21494579.322          48.500          40.000
  20550620.711    20550618.609   107994253.9394   84151369.1494   20550620.334
  20550618.294          50.250          53.000
  20579665.073                   108146879.7244   84270292.2294   20579663.806
  20579660.646          49.500          41.000
  23369615.224                   122808169.1704   95694674.7704   23369613.647
  23369610.618          44.250          30.000
  24458018.005    24458018.363   128527745.2894  100151494.6044   24458017.764
  24458017.789          36.500          16.750
  21426872.814                   112598974.3134   87739456.0364   21426871.746
  21426869.995          48.750          36.250
  21380611.479    21380609.851   114291642.550    88893492.081    21380611.179
  21380610.226          46.500          37.500
  23217538.829    23217537.623   123893250.468    96361414.262    23217539.095
  23217538.008          43.250          36.000
  22783353.129    22783348.748   122003822.345    94891854.614    22783353.191
  22783349.160          44.750          39.250
  22263919.289    22263919.051   118679209.947    92306039.432    22263920.167
  22263918.615          47.500          39.750
  20411479.313    20411477.089   109072766.210    84834363.572    20411479.691
  20411476.749          52.750          45.750
  22464563.307    22464559.088   120001647.236    93334621.638    22464563.436
  22464560.008          42.500          35.000
  19815535.579    19815532.421   106036970.762    82473188.588    19815535.199
  19815531.903          53.000          47.000
  23009647.433    23009645.450   122827066.822    95532160.535    23009647.766
  23009644.954          43.500          36.750
  23278547.451    23278546.357   124524552.163    96852428.835    23278547.056
  23278547.078          43.000          29.000
  20528615.284    20528611.599   109775756.632    85381136.025    20528614.990
  20528611.791          52.500          45.250
 20 10  1 10 44 30.0000000  0 18G01G03G06G17G19G22G24G28R01R02R08R14
                                R15R16R17R18R23R24
  24053138.867    24053141.016   126400112.2624   98493594.8334   24053139.399
  24053141.333          37.500          32.250
  21749035.700    21749037.417   114291968.5774   89058677.3144   21749035.812
  21749036.522          47.000          46.500
  21482604.157    21482605.963   112891866.3764   87967696.4994   21482604.081
  21482605.114          49.250          39.750
  20548547.001    20548544.498   107983354.0044   84142875.6854   20548546.115
  20548544.038          50.250          52.750
  20570878.017                   108100704.4454   84234311.4794   20570876.482
  20570873.986          48.250          41.000
  23383109.255                   122879081.6784   95749931.2594   23383107.953
  23383104.997          44.000          29.500
  24464437.750    24464439.116   128561483.4404  100177784.0664   24464437.922
  24464439.189          36.750          17.000
  21439697.008                   112666366.9214   87791969.7374   21439696.097
  21439694.501          48.750          36.000
  21375006.074    21375005.617   114261683.251    88870190.399    21375006.649
  21375005.605          45.500          37.500
  23194032.194    23194030.574   123767811.599    96263850.730    23194031.848
  23194030.302          43.500          36.250
  22794169.600    22794166.146   122061743.057    94936904.055    22794170.199
  22794166.062          45.000          40.250
  22287559.777    22287558.368   118805217.844    92404045.542    22287559.638
  22287557.259          48.750          39.500
  20418159.587    20418157.279   109108464.915    84862129.217    20418159.878
  20418157.069          53.000          46.000
  22449416.916    22449412.148   119920735.288    93271690.114    22449416.490
  22449412.722          43.250          35.500
  19809656.503    19809652.826   106005509.932    82448719.038    19809656.400
  19809652.737          53.250          47.000
  22992759.529    22992758.173   122736920.832    95462047.001    22992759.198
  22992758.543          42.750          36.250
  23296437.640    23296432.284   124620239.435    96926852.160    23296435.932
  23296433.654          44.750          28.500
  20540167.205    20540164.212   109837533.276    85429184.500    20540167.387
  20540164.188          52.250          45.000
 20 10  1 10 45  0.0000000  0 18G01G03G06G17G19G22G24G28R01R02R08R14
                                R15R16R17R18R23R24
  24073272.891    24073272.722   126505908.5014   98576033.4044   24073272.094
  24073273.314          39.000          32.500
  21754064.444    21754065.500   114318392.2354   89079267.1694   21754064.171
  21754064.786          46.500          47.250
  21470696.087    21470697.038   112829288.4704   87918934.5014   21470695.910
  21470696.627          49.000          39.750
  20546526.924    20546524.389   107972739.4774   84134604.6184   20546526.225
  20546524.274          50.250          53.000
  20562153.335                   108054853.1614   84198583.2054   20562151.620
  20562148.563          48.750          40.500
  23396680.292                   122950396.7994   95805501.4784   23396678.954
  23396675.835          44.750          29.500
  24470947.847    24470948.433   128595697.6564  100204444.4624   24470948.510
  24470947.680          35.750          14.750
  21452598.410                   112734164.1734   87844798.7444   21452597.349
  21452595.874          48.750          36.250
  21369548.396    21369546.706   114232505.317    88847496.431    21369548.149
  21369547.130          45.750          37.250
  23170545.000    23170543.826   123642480.347    96166370.883    23170543.791
  23170543.937          43.500          36.500
  22805115.662    22805112.414   122120360.159    94982495.108    22805116.645
  22805112.641          45.500          40.000
  22311244.574    22311242.755   118931474.530    92502245.155    22311244.440
  22311243.352          47.750          40.000
  20424989.437    20424987.377   109144961.480    84890515.425    20424989.943
  20424987.090          53.250          45.750
  22434383.729    22434379.551   119840435.240    93209234.507    22434383.303
  22434379.485          41.750          34.250
  19803838.758    19803834.989   105974376.161    82424503.882    19803838.438
  19803834.686          53.750          46.250
  22975897.038    22975893.782   122646900.190    95392030.936    22975896.261
  22975893.447          44.000          35.750
  23314328.889    23314326.058   124715953.754    97001296.590    23314328.693
  23314327.279          44.250          28.750
  20551764.210    20551761.081   109899545.402    85477416.151    20551764.124
  20551761.181          52.250          45.250
 20 10  1 10 45 30.0000000  0 18G01G03G06G17G19G22G24G28R01R02R08R14
                                R15R16R17R18R23R24
  24093411.786    24093413.027   126611742.7544   98658501.6264   24093411.707
  24093413.126          39.500          33.500
  21759208.607    21759210.074   114345426.7864   89100333.0464   21759208.562
  21759209.320          48.000          46.750
  21458854.354    21458855.778   112767058.9464   87870443.9654   21458854.007
  21458854.923          49.250          39.500
  20544561.154    20544558.997   107962409.8904   84126555.5814   20544560.614
  20544558.563          50.500          53.000
  20553489.513                   108009326.0414   84163107.5164   20553487.918
  20553485.437          49.500          41.000
  23410326.964                   123022111.2404   95861382.8454   23410325.411
  23410322.459          44.750          29.250
  24477549.409    24477549.702   128630384.5794  100231473.1964   24477549.094
  24477549.277          37.250          14.250
  21465576.644                   112802363.6914   87897941.2094   21465575.766
  21465573.717          49.000          36.250
  21364236.525    21364234.883   114204109.354    88825410.681    21364236.536
  21364235.625          45.500          37.500
  23147078.514    23147078.031   123517260.527    96068977.700    23147078.174
  23147077.802          44.000          37.250
  22816191.376    22816187.957   122179670.206    95028625.123    22816192.250
  22816187.671          45.250          39.500
  22334975.082    22334974.549   119057974.932    92600634.298    22334975.236
  22334974.016          47.250          39.750
  20431967.730    20431965.714   109182253.062    84919519.969    20431968.434
  20431965.212          52.750          45.500
  22419466.905    22419462.811   119760749.876    93147256.970    22419466.525
  22419462.909          42.000          34.750
  19798081.435    19798078.007   105943568.580    82400542.419    19798081.040
  19798077.868          53.000          47.250
  22959056.149    22959053.474   122557004.510    95322112.077    22959056.322
  22959054.576          43.750          35.750
  23332226.137    23332224.930   124811693.189    97075760.582    23332226.169
  23332226.122          44.000          29.250
  20563404.123    20563400.735   109961790.940    85525829.327    20563404.233
  20563400.923          52.250          45.500
 20 10  1 10 46  0.0000000  0 18G01G03G06G17G19G22G24G28R01R02R08R14
                                R15R16R17R18R23R24
  24113558.240    24113559.988   126717613.2784   98740998.1154   24113558.668
  24113559.978          39.000          34.500
  21764469.100    21764470.487   114373070.9364   89121873.9334   21764469.044
  21764469.785          47.000          46.500
  21447078.396    21447080.017   112705178.0184   87822225.0594   21447078.395
  21447079.335          49.750          40.000
  20542650.141    20542647.372   107952365.9014   84118729.0884   20542649.340
  20542647.358          51.000          53.250
  20544887.596                   107964124.4214   84127885.4714   20544886.497
  20544883.395          49.000          41.500
  23424049.849                   123094222.4124   95917573.3634   23424048.114
  23424045.172          45.250          29.750
  24484240.041    24484238.136   128665542.4614  100258868.9404   24484239.794
  24484238.604          37.500          11.750
  21478631.135                   112870963.9004   87951395.8894   21478629.810
  21478628.197          48.500          36.000
  21359071.051    21359069.423   114176497.221    88803934.569    21359071.129
  21359069.518          45.750          37.500
  23123633.806    23123633.156   123392155.538    95971673.844    23123633.658
  23123632.934          44.750          37.250
  22827395.533    22827392.255   122239670.364    95075291.901    22827396.598
  22827392.123          45.000          39.500
  22358751.807    22358749.949   119184714.388    92699209.399    22358751.915
  22358750.286          48.000          39.000
  20439095.500    20439093.242   109220337.342    84949141.063    20439095.860
  20439092.774          53.500          45.750
  22404664.738    22404661.633   119681681.968    93085759.732    22404665.393
  22404662.145          42.250          35.500
  19792385.507    19792381.721   105913086.615    82376834.221    19792385.315
  19792381.472          53.750          46.500
  22942239.199    22942236.381   122467234.085    95252290.634    22942238.169
  22942236.786          43.250          35.500
  23350128.456    23350127.038   124907457.129    97150243.613    23350128.067
  23350126.746          44.250          30.000
  20575088.071    20575085.412   110024268.581    85574423.035    20575087.781
  20575084.671          51.500          45.000
 20 10  1 10 46 30.0000000  0 18G01G03G06G17G19G22G24G28R01R02R08R14
                                R15R16R17R18R23R24
  24133712.208    24133713.755   126823519.4514   98823522.3394   24133711.494
  24133713.345          39.500          35.000
  21769845.671    21769847.047   114401324.5704   89143889.7434   21769845.491
  21769846.218          47.000          46.250
  21435369.964    21435371.038   112643647.2494   87774279.0054   21435369.654
  21435370.376          50.250          40.000
  20540793.155    20540790.849   107942608.8414   84111126.1744   20540792.591
  20540790.547          50.750          53.000
  20536348.771                   107919250.4364   84092918.7204   20536347.194
  20536344.460          48.500          41.250
  23437847.274                   123166729.3424   95974072.2424   23437845.628
  23437842.247          43.500          29.250
  24491020.086    24491019.771   128701170.5014  100286631.0454   24491019.534
  24491019.093          37.250          13.250
  21491761.001                   112939964.1834   88005162.3274   21491759.949
  21491758.316          49.000          36.000
  21354053.167    21354050.677   114149671.472    88783070.081    21354052.703
  21354051.898          46.500          37.750
  23100211.356    23100210.683   123267171.298    95874463.892    23100211.230
  23100210.877          44.250          37.750
  22838729.399    22838726.035   122300359.203    95122494.303    22838730.096
  22838725.628          45.750          39.500
  22382572.195    22382570.753   119311689.650    92797967.909    22382572.571
  22382570.424          48.250          39.750
  20446370.466    20446367.309   109259213.564    84979378.118    20446371.135
  20446367.647          53.500          46.500
  22389980.089    22389975.411   119603236.136    93024746.292    22389980.208
  22389975.619          42.000          35.750
  19786749.754    19786746.669   105882931.690    82353380.383    19786749.852
  19786746.327          53.250          47.000
  22925445.655    22925442.734   122377589.982    95182567.451    22925445.767
  22925442.889          44.250          35.500
  23368035.099    23368032.472   125003245.901    97224745.915    23368034.728
  23368034.385          44.250          30.250
  20586815.201    20586811.897   110086978.280    85623197.233    20586814.709
  20586811.787          51.250          45.500
 20 10  1 10 47  0.0000000  0 18G01G03G06G17G19G22G24G28R01R02R08R14
                                R15R16R17R18R23R24
  24153871.649    24153872.580   126929458.9794   98906072.5574   24153870.910
  24153872.805          39.000          34.500
  21775338.318    21775339.634   114430185.8024   89166379.0144   21775337.622
  21775338.403          46.750          46.500
  21423727.410    21423728.962   112582466.3584   87726605.5814   21423727.269
  21423728.095          49.500          40.500
  20538991.246    20538988.717   107933138.9364   84103747.0194   20538990.611
  20538988.577          50.250          53.250
  20527871.897                   107874703.9644   84058207.1804   20527870.290
  20527867.540          49.250          41.000
  23451719.102                   123239628.8834   96030877.0874   23451717.684
  23451714.633          43.750          29.000
  24497887.098    24497889.243   128737265.9434  100314757.3594   24497887.746
  24497887.997          36.500          14.000
  21504967.157                   113009362.4464   88059238.8764   21504966.169
  21504964.243          48.500          35.750
  21349181.738    21349180.491   114123633.109    88762818.022    21349181.999
  21349181.000          46.250          37.750
  23076814.480    23076812.758   123142311.175    95777350.475    23076813.723
  23076812.243          46.000          37.750
  22850190.785    22850186.589   122361733.252    95170229.675    22850190.943
  22850187.025          45.750          39.000
  22406434.651    22406434.080   119438895.520    92896905.757    22406435.132
  22406433.786          46.750          39.000
  20453792.825    20453790.698   109298878.977    85010228.977    20453793.143
  20453790.449          52.500          46.000
  22375411.826    22375406.956   119525414.567    92964218.406    22375411.696
  22375407.842          43.500          35.250
  19781175.978    19781172.756   105853102.816    82330180.138    19781175.843
  19781172.362          53.000          47.250
  22908676.813    22908673.843   122288071.844    95112942.235    22908676.200
  22908673.483          47.000          35.750
  23385945.318    23385944.363   125099058.138    97299266.487    23385945.155
  23385945.412          43.250          30.750
  20598585.622    20598582.040   110149918.436    85672150.675    20598585.432
  20598581.958          51.750          45.000
 20 10  1 10 47 30.0000000  0 18G01G03G06G17G19G22G24G28R01R02R08R14
                                R15R16R17R18R23R24
  24174038.240    24174039.151   127035430.9964   98988648.1314   24174037.223
  24174038.523          39.750          35.250
  21780945.993    21780946.663   114459654.2874   89189341.4654   21780945.428
  21780946.142          46.000          46.500
  21412151.815    21412153.044   112521636.6414   87679205.8074   21412151.514
  21412152.529          49.500          40.250
  20537244.132    20537241.625   107923957.6914   84096592.7964   20537243.442
  20537241.411          51.000          53.250
  20519457.867                   107830487.5844   84023752.8474   20519456.218
  20519453.287          49.000          41.250
  23465665.806                   123312919.2834   96087986.4754   23465664.599
  23465661.560          43.750          29.500
  24504846.634    24504845.295   128773827.9764  100343247.2384   24504845.834
  24504845.202          37.000          14.000
  21518248.790                   113079157.8504   88113624.8744   21518247.775
  21518246.174          47.500          35.750
  21344458.369    21344457.497   114098384.603    88743180.301    21344458.391
  21344457.178          46.000          38.000
  23053439.339    23053437.447   123017579.778    95680337.150    23053438.494
  23053438.178          46.250          38.000
  22861779.932    22861775.986   122423790.510    95218496.418    22861779.761
  22861775.820          45.750          39.250
  22430341.858    22430339.963   119566328.666    92996020.394    22430341.609
  22430340.217          48.000          39.000
  20461363.593    20461360.356   109339332.251    85041692.625    20461364.130
  20461360.870          53.000          45.750
  22360960.048    22360957.832   119448222.217    92904179.896    22360961.150
  22360957.556          41.750          35.000
  19775662.494    19775659.206   105823600.693    82307234.033    19775662.351
  19775658.963          52.500          46.750
  22891929.474    22891927.153   122198680.918    95043415.939    22891929.575
  22891927.523          44.750          36.750
  23403862.163    23403860.009   125194894.454    97373805.766    23403861.267
  23403860.941          43.500          31.250
  20610398.237    20610395.102   110213088.895    85721283.244    20610398.106
  20610395.050          51.750          44.750
 20 10  1 10 48  0.0000000  0 18G01G03G06G17G19G22G24G28R01R02R08R14
                                R15R16R17R18R23R24
  24194208.632    24194209.643   127141432.7424   99071246.8384   24194208.427
  24194209.913          39.250          34.750
  21786668.209    21786669.296   114489727.5844   89212775.1964   21786668.200
  21786668.806          47.250          46.500
  21400642.948    21400644.527   112461157.3584   87632079.0924   21400642.851
  21400643.808          50.250          40.000
  20535551.635    20535549.577   107915064.1354   84089662.7424   20535551.046
  20535549.062          51.000          53.250
  20511106.321                   107786601.2064   83989555.6644   20511104.926
  20511102.234          48.750          41.000
  23479685.992                   123386597.0294   96145397.6954   23479684.927
  23479682.073          44.500          29.500
  24511891.268    24511892.291   128810852.8074  100372097.7404   24511890.957
  24511891.382          37.750          15.250
  21531605.642                   113149347.6844   88168318.2304   21531604.765
  21531602.657          48.250          36.000
  21339883.609    21339881.021   114073926.161    88724157.047    21339883.052
  21339882.072          45.500          37.750
  23030089.553    23030088.148   122892981.077    95583427.077    23030088.959
  23030087.933          45.500          37.500
  22873494.517    22873491.901   122486527.409    95267291.756    22873495.467
  22873491.559          45.000          39.500
  22454289.594    22454287.621   119693983.332    93095307.330    22454289.399
  22454288.054          48.250          39.000
  20469080.725    20469077.988   109380570.230    85073766.596    20469081.137
  20469077.908          53.000          45.500
  22346628.893    22346624.695   119371660.348    92844631.759    22346629.195
  22346624.930          42.250          34.250
  19770210.366    19770207.114   105794424.332    82284541.307    19770210.163
  19770206.690          53.250          47.250
  22875207.282    22875205.502   122109416.183    94973987.832    22875207.633
  22875205.428          46.500          37.750
  23421781.365    23421779.718   125290752.672    97448362.062    23421780.882
  23421781.145          44.000          32.750
  20622254.876    20622250.870   110276487.323    85770593.122    20622254.316
  20622250.603          52.000          44.500
 20 10  1 10 48 30.0000000  0 19G01G02G03G06G17G19G22G24G28R01R02R08
                                R14R15R16R17R18R23R24
  24214385.515    24214387.345   127247463.8204   99153868.4224   24214385.172
  24214387.240          38.500          34.750
  24840489.820                   130537665.3704  101717652.8194   24840488.594
  24840486.139          36.000          13.750
  21792506.282    21792507.262   114520405.7264   89236680.2434   21792506.076
  21792506.701          47.250          46.500
  21389201.068    21389202.681   112401030.2394   87585226.7974   21389200.820
  21389201.835          49.500          40.250
  20533914.398    20533911.970   107906460.8354   84082958.8684   20533913.854
  20533911.861          50.000          53.000
  20502818.114                   107743047.1604   83955617.4394   20502816.802
  20502813.910          48.750          41.000
  23493780.926                   123460661.2854   96203110.0844   23493778.912
  23493775.645          45.000          29.000
  24519025.427    24519025.010   128848340.2094  100401308.6704   24519025.335
  24519024.291          38.750          15.750
  21545037.108                   113219931.5964   88223318.6654   21545036.238
  21545034.675          48.750          36.000
  21335456.000    21335454.154   114050260.811    88705750.658    21335456.251
  21335454.232          45.250          37.500
  23006765.510    23006764.359   122768520.642    95486624.543    23006765.020
  23006764.471          46.000          38.000
  22885336.952    22885333.764   122549942.166    95316614.312    22885337.684
  22885333.804          45.000          39.250
  22478277.881    22478277.054   119821856.515    93194764.224    22478277.894
  22478276.541          47.750          38.000
  20476944.266    20476941.628   109422592.083    85106450.248    20476944.448
  20476941.776          52.750          45.750
  22332415.337    22332411.171   119295733.852    92785577.802    22332415.654
  22332411.473          42.500          35.250
  19764818.910    19764815.908   105765574.847    82262102.804    19764818.846
  19764815.423          53.000          47.250
  22858509.217    22858506.498   122020279.505    94904659.267    22858508.890
  22858507.169          46.000          36.750
  23439705.562    23439704.798   125386633.653    97522936.079    23439705.473
  23439705.391          44.750          33.000
  20634152.600    20634149.478   110340114.091    85820080.599    20634152.550
  20634149.197          51.250          44.750
 20 10  1 10 49  0.0000000  0 19G01G02G03G06G17G19G22G24G28R01R02R08
                                R14R15R16R17R18R23R24
  24234568.531    24234569.770   127353521.9954   99236511.0884   24234567.680
  24234569.988          38.750          34.750
  24824189.620                   130452009.4514  101650907.9794   24824188.719
  24824186.358          36.500          16.000
  21798459.099    21798459.845   114551686.6794   89261055.0024   21798458.493
  21798459.151          47.000          46.250
  21377826.167    21377827.667   112341254.8704   87538648.5854   21377825.948
  21377827.158          49.750          40.500
  20532332.735    20532330.159   107898147.6634   84076481.0614   20532332.011
  20532329.940          50.500          53.250
  20494593.669                   107699825.6874   83921938.3644   20494592.095
  20494589.452          49.000          41.500
  23507946.556                   123535109.0554   96261121.3404   23507945.800
  23507942.746          43.750          29.000
  24526245.840    24526247.214   128886287.3194  100430877.8684   24526245.894
  24526245.849          38.000          14.500
  21558543.271                   113290907.2784   88278624.3644   21558542.430
  21558540.685          49.000          35.500
  21331177.311    21331176.130   114027389.207    88687961.621    21331176.858
  21331176.421          45.000          37.750
  22983468.750    22983466.643   122644201.234    95389931.693    22983468.395
  22983466.411          46.500          37.750
  22897306.005    22897301.383   122614031.385    95366461.481    22897306.814
  22897301.477          45.000          37.750
  22502306.125    22502305.516   119949943.124    93294387.101    22502306.507
  22502305.202          47.000          38.250
  20484954.893    20484951.771   109465394.567    85139741.053    20484955.134
  20484951.967          53.750          45.500
  22318320.888    22318316.484   119220444.910    92727019.731    22318320.773
  22318316.724          42.500          35.250
  19759488.423    19759485.255   105737051.459    82239917.948    19759488.460
  19759485.274          53.000          47.500
  22841835.345    22841832.230   121931269.980    94835429.644    22841834.732
  22841832.254          45.750          38.250
  23457633.214    23457633.160   125482536.313    97597526.932    23457632.995
  23457633.522          42.500          32.250
  20646094.154    20646090.867   110403967.513    85869744.348    20646093.506
  20646090.309          51.750          45.000
 20 10  1 10 49 30.0000000  0 19G01G02G03G06G17G19G22G24G28R01R02R08
                                R14R15R16R17R18R23R24
  24254754.997    24254755.906   127459605.8334   99319173.7754   24254754.756
  24254756.775          38.000          32.750
  24807915.797                   130366488.2204  101584268.0624   24807914.994
  24807911.882          39.000          17.750
  21804525.670    21804527.169   114583569.3364   89285898.6354   21804525.564
  21804526.258          47.250          46.250
  21366518.317    21366519.717   112281831.9374   87492344.9954   21366518.203
  21366519.212          50.500          40.000
  20530805.967    20530803.628   107890125.2084   84070229.7924   20530805.380
  20530803.332          50.250          53.250
  20486432.566                   107656937.7674   83888519.1954   20486430.942
  20486427.869          49.250          41.250
  23522186.857                   123609938.3404   96319429.8494   23522185.251
  23522182.587          44.250          29.000
  24533554.865    24533553.146   128924692.1304  100460803.7034   24533554.087
  24533553.950          38.750          15.000
  21572123.699                   113362273.6474   88334234.4954   21572122.895
  21572121.339          48.750          35.500
  21327048.180    21327046.604   114005312.896    88670791.165    21327047.393
  21327046.990          46.250          37.500
  22960197.466    22960197.397   122520028.287    95293352.799    22960197.946
  22960197.049          45.000          37.750
  22909399.103    22909394.941   122678792.632    95416831.315    22909399.883
  22909394.980          45.250          37.750
  22526375.098    22526373.232   120078238.964    93394172.735    22526374.868
  22526373.275          47.750          38.250
  20493110.126    20493107.399   109508975.995    85173637.695    20493110.468
  20493107.456          53.250          46.000
  22304345.481    22304341.327   119145796.826    92668960.087    22304345.392
  22304342.689          41.500          34.750
  19754219.823    19754215.894   105708854.127    82217986.678    19754219.153
  19754215.472          53.500          47.000
  22825184.749    22825181.599   121842388.279    94766299.463    22825184.187
  22825182.562          46.250          38.750
  23475566.573    23475564.575   125578460.179    97672134.292    23475565.009
  23475565.361          42.000          32.250
  20658075.978    20658073.578   110468046.536    85919583.582    20658076.544
  20658073.541          51.500          44.750
 20 10  1 10 50  0.0000000  0 19G01G02G03G06G17G19G22G24G28R01R02R08
                                R14R15R16R17R18R23R24
  24274947.312    24274947.713   127565713.5894   99401855.0834   24274946.346
  24274948.198          37.500          31.500
  24791666.104                   130281101.1634  101517732.6934   24791665.205
  24791662.557          37.000          17.000
  21810707.202    21810707.934   114616052.2564   89311210.0014   21810706.843
  21810707.614          47.500          46.250
  21355277.737    21355279.177   112222761.6654   87446316.2164   21355277.636
  21355278.589          50.000          40.500
  20529334.803    20529332.376   107882393.8214   84064205.3264   20529334.073
  20529332.102          51.000          53.000
  20478334.776                   107614385.1774   83855361.3314   20478333.183
  20478330.718          48.750          41.000
  23536498.554                   123685146.0764   96378033.2604   23536497.219
  23536494.107          43.500          28.500
  24540950.234    24540948.912   128963552.3954  100491084.4114   24540949.418
  24540949.447          38.500          15.750
  21585778.312                   113434028.4134   88390147.2754   21585777.621
  21585775.930          48.500          35.250
  21323066.386    21323065.146   113984033.197    88654240.276    21323066.519
  21323065.535          45.750          37.750
  22936956.679    22936955.164   122396005.411    95196890.608    22936955.910
  22936955.031          45.500          37.750
  22921616.713    22921614.537   122744222.676    95467721.342    22921617.426
  22921614.187          44.250          37.750
  22550481.339    22550480.097   120206739.607    93494117.656    22550481.330
  22550479.720          47.500          38.750
  20501410.627    20501408.124   109553333.887    85208138.278    20501411.297
  20501408.032          52.500          45.250
  22290492.099    22290488.307   119071792.851    92611401.446    22290491.746
  22290489.204          42.000          35.750
  19749011.417    19749007.616   105680982.904    82196309.053    19749010.951
  19749007.099          53.250          46.500
  22808558.025    22808556.042   121753634.565    94697268.789    22808556.983
  22808555.460          46.250          39.000
  23493500.907    23493500.944   125674404.633    97746757.653    23493501.113
  23493501.676          41.000          32.750
  20670101.561    20670098.555   110532350.052    85969597.416    20670101.690
  20670098.571          51.500          45.250
 20 10  1 10 50 30.0000000  0 19G01G02G03G06G17G19G22G24G28R01R02R08
                                R14R15R16R17R18R23R24
  24295142.603    24295144.789   127671844.2054   99484554.2474   24295142.397
  24295144.247          37.000          31.000
  24775444.618                   130195849.5394  101451302.8794   24775443.218
  24775440.598          38.250          18.250
  21817002.217    21817003.908   114649134.5954   89336988.4464   21817002.251
  21817002.997          46.500          46.250
  21344104.208    21344105.686   112164044.9844   87400562.9594   21344104.364
  21344105.180          50.000          39.750
  20527919.209    20527916.770   107874955.0034   84058408.8344   20527918.623
  20527916.537          50.750          53.000
  20470301.432                   107572169.3734   83822465.8934   20470299.929
  20470297.074          49.250          41.000
  23550882.315                   123760730.6514   96436930.3094   23550880.028
  23550877.038          44.750          28.500
  24548430.466    24548431.480   129002866.3324  100521718.6434   24548430.622
  24548430.577          37.750          17.000
  21599506.389                   113506170.7644   88446362.0764   21599505.822
  21599504.251          48.000          35.500
  21319235.536    21319233.629   113963551.945    88638310.397    21319235.038
  21319234.093          46.000          37.750
  22913744.409    22913741.329   122272138.185    95100549.497    22913743.487
  22913741.503          46.250          36.750
  22933960.712    22933957.970   122810319.227    95519129.738    22933961.873
  22933957.536          45.000          38.000
  22574624.902    22574623.261   120335441.082    93594218.776    22574625.129
  22574623.062          46.250          38.000
  20509857.257    20509853.723   109598466.322    85243241.269    20509857.347
  20509854.397          53.250          45.750
  22276759.572    22276756.109   118998436.865    92554346.816    22276759.821
  22276756.952          41.750          35.750
  19743863.612    19743860.421   105653438.224    82174885.404    19743863.589
  19743859.958          52.750          47.500
  22791954.785    22791951.952   121665009.788    94628338.414    22791954.766
  22791952.330          46.000          38.500
  23511441.194    23511439.600   125770369.407    97821396.856    23511441.070
  23511440.634          41.500          33.500
  20682168.816    20682165.832   110596877.780    86019785.642    20682168.709
  20682165.658          51.250          44.500
 20 10  1 10 51  0.0000000  0 19G01G02G03G06G17G19G22G24G28R01R02R08
                                R14R15R16R17R18R23R24
  24315344.056    24315344.519   127777995.9574   99567269.8204   24315342.735
  24315344.460          36.250          30.250
  24759247.704                   130110734.0354  101384979.1354   24759246.459
  24759243.448          39.500          18.750
  21823411.901    21823412.443   114682814.8014   89363232.7614   21823411.548
  21823412.174          47.750          46.500
  21332998.586    21332999.725   112105682.0504   87355085.3434   21332998.304
  21332998.969          50.250          40.250
  20526559.551    20526556.782   107867809.0584   84052840.5604   20526558.774
  20526556.743          51.000          53.250
  20462332.654                   107530290.7884   83789833.2254   20462330.803
  20462327.895          49.000          41.250
  23565335.779                   123836689.5764   96496119.0894   23565334.802
  23565331.734          43.750          28.250
  24555997.363    24555998.022   129042632.3904  100552705.1684   24555997.220
  24555998.343          37.500          17.750
  21613308.423                   113578699.1224   88502877.6464   21613307.593
  21613305.922          48.000          35.250
  21315553.930    21315552.775   113943870.472    88623002.579    21315553.648
  21315552.683          46.250          37.750
  22890560.646    22890559.631   122148429.542    95004331.696    22890559.684
  22890558.802          44.000          36.750
  22946428.321    22946423.787   122877079.267    95571054.208    22946428.938
  22946423.687          46.250          37.750
  22598806.039    22598804.419   120464339.178    93694472.835    22598806.591
  22598805.391          46.500          38.250
  20518447.714    20518445.139   109644370.801    85278944.743    20518447.643
  20518444.894          52.250          45.500
  22263148.974    22263144.962   118925731.407    92497798.109    22263149.847
  22263146.238          42.750          35.750
  19738777.198    19738774.105   105626219.734    82153715.456    19738777.089
  19738773.759          53.000          47.500
  22775377.497    22775374.717   121576514.031    94559508.351    22775376.617
  22775374.858          46.000          38.750
  23529386.251    23529383.467   125866353.792    97896051.289    23529385.062
  23529385.000          41.250          33.000
  20694277.934    20694274.620   110661628.253    86070147.102    20694277.349
  20694274.250          51.750          44.750
 20 10  1 10 51 30.0000000  0 19G01G02G03G06G17G19G22G24G28R01R02R08
                                R14R15R16R17R18R23R24
  24335546.455    24335547.333   127884167.5984   99650000.8784   24335546.675
  24335547.783          36.000          28.250
  24743076.393                   130025755.3654  101318762.0024   24743075.078
  24743072.581          38.500          18.250
  21829934.232    21829935.269   114717091.7614   89389942.0834   21829934.231
  21829934.821          47.250          46.000
  21321959.579    21321960.913   112047673.5674   87309883.9314   21321959.603
  21321960.465          50.000          41.000
  20525255.272    20525253.221   107860957.0594   84047501.3364   20525254.899
  20525252.844          51.000          53.000
  20454427.377                   107488751.2394   83757464.7434   20454425.844
  20454423.191          49.000          41.250
  23579861.857                   123913020.8434   96555597.9724   23579860.111
  23579857.476          42.750          28.000
  24563651.022    24563651.314   129082848.1174  100584042.0704   24563650.616
  24563651.443          40.000          17.750
  21627183.315                   113651611.9034   88559692.7754   21627182.304
  21627180.626          47.000          35.000
  21312021.169    21312019.695   113924990.154    88608317.891    21312021.243
  21312020.157          46.250          38.000
  22867409.025    22867406.539   122024884.678    94908241.313    22867407.479
  22867405.942          45.500          36.500
  22959018.312    22959014.373   122944500.457    95623492.876    22959018.793
  22959015.099          45.000          37.750
  22623023.099    22623022.903   120593429.712    93794876.522    22623023.490
  22623021.735          45.500          38.250
  20527182.203    20527178.943   109691045.313    85315247.131    20527182.397
  20527178.972          53.250          44.500
  22249660.564    22249656.869   118853679.971    92441758.078    22249660.797
  22249657.297          42.000          35.000
  19733751.306    19733748.655   105599327.637    82132799.381    19733751.541
  19733748.286          53.000          47.000
  22758823.348    22758820.834   121488147.905    94490779.126    22758823.258
  22758820.683          46.500          40.000
  23547331.299    23547330.528   125962357.868    97970720.992    23547330.360
  23547331.513          38.250          32.500
  20706427.948    20706424.057   110726601.170    86120681.584    20706427.560
  20706423.881          51.000          44.750
 20 10  1 10 52  0.0000000  0 19G01G02G03G06G17G19G22G24G28R01R02R08
                                R14R15R16R17R18R23R24
  24355754.738    24355755.067   127990357.4804   99732746.2024   24355753.856
  24355755.337          36.250          28.000
  24726931.017                   129940914.1054  101252651.9694   24726930.137
  24726927.715          36.000          15.750
  21836570.335    21836571.859   114751963.9704   89417115.2314   21836570.262
  21836570.806          47.000          46.250
  21310988.170    21310989.504   111990019.8204   87264958.9324   21310988.373
  21310989.175          50.250          40.250
  20524007.566    20524005.518   107854399.5144   84042391.5544   20524007.029
  20524004.907          50.750          53.250
  20446587.160                   107447551.8564   83725361.3244   20446586.040
  20446583.209          48.750          42.000
  23594457.660                   123989722.0684   96615365.1384   23594455.995
  23594452.828          43.250          28.250
  24571387.876    24571388.440   129123512.0024  100615728.1774   24571388.770
  24571388.530          39.250          18.000
  21641130.847                   113724907.1874   88616805.9524   21641130.064
  21641128.222          48.000          35.000
  21308639.716    21308637.765   113906912.116    88594257.188    21308639.472
  21308639.106          45.500          37.750
  22844286.550    22844286.200   121901508.382    94812282.008    22844286.654
  22844285.680          44.000          37.000
  22971730.762    22971727.970   123012579.494    95676443.237    22971731.800
  22971727.644          44.500          36.250
  22647275.013    22647274.058   120722707.999    93895426.288    22647275.333
  22647274.961          45.500          37.750
  20536060.051    20536057.725   109738487.344    85352146.468    20536060.266
  20536057.697          53.000          45.250
  22236296.825    22236292.356   118782285.751    92386229.247    22236296.512
  22236293.027          42.750          35.500
  19728787.332    19728784.349   105572761.922    82112137.149    19728787.640
  19728783.930          53.500          47.500
  22742294.417    22742291.189   121399911.499    94422150.813    22742293.023
  22742291.804          46.250          40.250
  23565280.918    23565282.671   126058380.872    98045405.484    23565281.339
  23565283.805          39.500          31.500
  20718619.835    20718616.690   110791795.261    86171388.073    20718619.184
  20718616.069          51.500          44.750
 20 10  1 10 52 30.0000000  0 19G01G02G03G06G17G19G22G24G28R01R02R08
                                R14R15R16R17R18R23R24
  24375965.106    24375965.330   128096564.3884   99815504.7734   24375964.003
  24375965.880          35.750          27.000
  24710812.529                   129856211.0354  101186649.5714   24710811.128
  24710808.845          35.500          15.000
  21843319.330    21843320.405   114787430.3734   89444751.3914   21843319.189
  21843319.808          47.250          46.500
  21300084.937    21300086.668   111932721.5194   87220310.9024   21300084.818
  21300085.869          50.500          41.000
  20522816.046    20522813.810   107848137.6134   84037512.1414   20522815.475
  20522813.369          50.250          53.000
  20438812.643                   107406693.8574   83693523.9144   20438811.109
  20438808.198          49.750          41.750
  23609122.870                   124066790.8724   96675418.7544   23609121.559
  23609118.338          43.000          27.250
  24579212.142    24579212.321   129164622.0124  100647761.9524   24579211.628
  24579211.580          38.500          17.500
  21655151.157                   113798583.8314   88674216.3034   21655149.944
  21655148.664          48.500          34.500
  21305408.414    21305407.754   113889637.774    88580821.584    21305408.108
  21305407.372          45.750          38.000
  22821197.715    22821197.177   121778304.475    94716456.764    22821197.825
  22821196.770          44.000          36.000
  22984567.054    22984563.897   123081313.673    95729903.131    22984567.830
  22984563.349          44.000          37.250
  22671562.376    22671560.892   120852170.462    93996119.264    22671562.449
  22671561.177          46.000          39.000
  20545081.569    20545078.732   109786694.874    85389641.192    20545082.249
  20545078.867          53.250          45.250
  22223055.395    22223050.288   118711551.608    92331213.788    22223055.338
  22223051.620          43.000          36.000
  19723884.083    19723880.657   105546522.977    82091729.071    19723883.811
  19723880.451          53.500          47.750
  22725787.784    22725785.472   121311805.663    94353624.099    22725787.610
  22725785.606          44.500          39.000
  23583236.477    23583235.011   126154422.682    98120104.615    23583235.799
  23583236.324          42.000          31.000
  20730852.828    20730849.010   110857209.908    86222266.123    20730852.593
  20730849.040          51.750          44.500
 20 10  1 10 53  0.0000000  0 19G01G02G03G06G17G19G22G24G28R01R02R08
                                R14R15R16R17R18R23R24
  24396177.565    24396179.182   128202786.7564   99898275.4054   24396177.735
  24396179.208          35.250          26.250
  24694721.285                   129771646.3424  101120755.0564   24694719.798
  24694715.677          37.250          12.500
  21850181.572    21850182.553   114823489.3824   89472849.3104   21850181.060
  21850181.642          47.250          46.000
  21289249.292    21289250.390   111875778.8974   87175940.0294   21289248.839
  21289250.003          50.500          41.000
  20521681.042    20521678.481   107842171.5294   84032863.2364   20521680.191
  20521678.076          51.250          53.500
  20431102.755                   107366178.5624   83661953.5454   20431101.104
  20431098.391          48.750          41.250
  23623858.685                   124144224.8694   96735756.9164   23623856.858
  23623854.155          42.750          27.750
  24587118.681    24587118.311   129206175.6444  100680141.3614   24587118.247
  24587119.424          37.500          17.750
  21669243.724                   113872640.0484   88731922.4144   21669242.620
  21669241.068          48.000          34.750
  21302327.216    21302324.893   113873168.347    88568012.031    21302327.294
  21302325.899          45.750          37.500
  22798144.348    22798142.383   121655278.090    94620769.592    22798143.603
  22798142.178          45.750          36.500
  22997525.243    22997519.784   123150699.729    95783870.041    22997525.456
  22997520.740          44.500          36.750
  22695882.744    22695881.789   120981812.470    94096951.870    22695883.282
  22695882.090          45.750          39.250
  20554245.445    20554242.495   109835665.077    85427729.130    20554245.784
  20554242.721          52.250          44.750
  22209937.554    22209933.215   118641480.957    92276714.400    22209937.412
  22209933.957          42.750          36.000
  19719041.984    19719038.507   105520610.534    82071574.938    19719041.801
  19719038.009          53.500          47.000
  22709308.630    22709304.889   121223830.621    94285199.020    22709307.034
  22709305.700          45.500          38.500
  23601193.556    23601191.517   126250482.565    98194817.841    23601193.704
  23601192.591          42.000          30.000
  20743126.700    20743123.472   110922844.003    86273314.846    20743126.245
  20743122.811          51.750          44.500
 20 10  1 10 53 30.0000000  0 19G01G02G03G06G17G19G22G24G28R01R02R08
                                R14R15R16R17R18R23R24
  24416394.116    24416393.227   128309022.5134   99981056.4664   24416393.904
  24416395.269          38.000          26.750
  24678655.019                   129687220.3254  101054968.5794   24678653.787
  24678650.396          37.750          15.250
  21857155.732    21857156.712   114860139.0114   89501407.4724   21857155.360
  21857155.875          46.750          46.250
  21278480.953    21278482.578   111819191.7834   87131846.1714   21278480.824
  21278481.828          50.000          41.000
  20520601.670    20520599.545   107836501.6304   84028445.1274   20520601.143
  20520599.177          50.500          53.250
  20423458.446                   107326006.3494   83630650.5194   20423456.837
  20423453.949          48.750          41.750
  23638661.869                   124222021.1754   96796377.3914   23638660.808
  23638657.930          43.000          27.250
  24595109.786    24595111.533   129248169.8384  100712864.1204   24595109.717
  24595110.868          37.250          17.000
  21683407.785                   113947073.5634   88789922.5264   21683406.715
  21683405.343          47.750          34.250
  21299396.891    21299394.858   113857504.505    88555829.042    21299396.694
  21299395.372          46.250          37.500
  22775123.272    22775122.363   121532432.626    94525223.125    22775122.553
  22775122.280          45.750          37.250
  23010602.522    23010599.100   123220734.433    95838341.464    23010603.178
  23010600.122          42.250          36.250
  22720235.886    22720235.242   121111629.210    94197920.405    22720236.054
  22720234.681          45.750          38.500
  20563551.975    20563549.141   109885395.129    85466408.049    20563552.341
  20563548.665          52.750          45.000
  22196945.213    22196940.054   118572075.945    92222732.702    22196944.256
  22196940.980          42.250          36.250
  19714260.389    19714256.681   105495023.973    82051674.279    19714260.148
  19714256.673          53.250          47.500
  22692851.714    22692848.786   121135985.707    94216875.212    22692851.322
  22692849.402          45.500          39.750
  23619154.199    23619152.909   126346559.704    98269544.422    23619154.738
  23619153.099          43.000          30.250
  20755441.123    20755438.412   110988696.114    86324533.144    20755440.991
  20755438.007          51.250          44.500
 20 10  1 10 54  0.0000000  0 19G01G02G03G06G17G19G22G24G28R01R02R08
                                R14R15R16R17R18R23R24
  24436612.627    24436612.976   128415270.3474  100063846.9424   24436612.506
  24436614.209          37.750          29.750
  24662616.145                   129602933.5534  100989290.5754   24662614.912
  24662612.482          37.250          15.750
  21864241.607    21864242.940   114897377.9414   89530424.8184   21864241.442
  21864242.101          46.500          46.250
  21267780.605    21267782.030   111762960.7404   87088029.7684   21267780.480
  21267781.324          50.250          41.000
  20519579.421    20519577.154   107831129.1914   84024258.8024   20519578.755
  20519576.846          50.500          53.250
  20415879.574                   107286178.4684   83599615.7974   20415877.620
  20415874.832          48.500          41.250
  23653534.550                   124300177.8894   96857278.7084   23653533.382
  23653530.769          42.750          27.500
  24603184.949    24603185.630   129290603.3474  100745929.1704   24603184.957
  24603184.847          37.500          17.750
  21697643.563                   114021882.6094   88848215.2694   21697642.654
  21697640.836          47.250          34.250
  21296617.555    21296615.862   113842647.321    88544273.462    21296617.391
  21296616.109          46.000          37.750
  22752136.173    22752135.214   121409772.630    94429820.904    22752135.473
  22752135.078          45.750          37.250
  23023802.027    23023799.295   123291415.171    95893315.348    23023802.191
  23023798.835          43.500          36.750
  22744621.840    22744621.018   121241616.550    94299021.638    22744621.713
  22744620.426          47.000          38.000
  20573000.362    20572997.504   109935882.661    85505676.114    20573000.642
  20572997.198          53.000          45.500
  22184076.949    22184073.396   118503339.927    92169271.358    22184076.904
  22184074.141          42.500          36.250
  19709540.065    19709536.539   105469763.581    82032027.291    19709539.986
  19709536.117          53.500          47.250
  22676419.139    22676417.168   121048271.864    94148653.354    22676418.690
  22676417.346          44.750          39.500
  23637117.442    23637115.869   126442653.549    98344284.007    23637117.178
  23637117.569          43.250          30.250
  20767796.323    20767793.358   111054765.310    86375920.289    20767796.097
  20767793.100          51.000          45.000
 20 10  1 10 54 30.0000000  0 19G01G02G03G06G17G19G22G24G28R01R02R08
                                R14R15R16R17R18R23R24
  24456833.493    24456834.371   128521529.2374  100146646.0304   24456832.926
  24456833.946          40.000          28.750
  24646602.615                   129518786.8934  100923721.7794   24646601.904
  24646599.350          37.750          16.000
  21871440.045    21871441.025   114935205.1284   89559900.5514   21871439.663
  21871440.451          46.250          45.500
  21257148.126    21257149.559   111707086.5024   87044491.3974   21257147.886
  21257148.872          51.000          41.000
  20518613.936    20518611.544   107826054.9314   84020304.8284   20518613.184
  20518611.217          51.000          53.250
  20408365.981                   107246696.6964   83568850.7734   20408364.714
  20408361.786          48.750          41.750
  23668476.300                   124378692.6744   96918459.0444   23668474.388
  23668471.749          42.750          27.250
  24611343.714    24611344.370   129333473.8024  100779334.6664   24611343.355
  24611343.917          38.000          20.000
  21711950.637                   114097066.1954   88906799.8514   21711949.670
  21711947.791          46.750          34.500
  21293989.303    21293988.173   113828598.496    88533346.598    21293989.044
  21293988.453          46.000          37.750
  22729186.059    22729183.827   121287303.221    94334566.910    22729185.594
  22729184.121          46.250          37.000
  23037120.829    23037117.961   123362739.256    95948789.617    23037121.902
  23037118.265          42.500          36.750
  22769038.130    22769036.702   121371770.679    94400252.605    22769038.225
  22769035.799          46.750          38.250
  20582589.339    20582586.651   109987125.338    85545531.517    20582589.483
  20582586.699          53.000          45.500
  22171335.486    22171331.447   118435276.514    92116333.141    22171334.939
  22171331.951          43.000          35.750
  19704879.834    19704877.061   105444829.634    82012634.222    19704879.538
  19704876.521          53.000          47.250
  22660012.650    22660009.464   120960689.763    94080533.936    22660012.258
  22660010.446          45.250          39.500
  23655084.098    23655083.326   126538764.148    98419036.606    23655083.808
  23655082.926          45.000          28.250
  20780192.521    20780189.327   111121051.559    86427476.244    20780192.105
  20780189.071          51.500          44.500
 20 10  1 10 55  0.0000000  0 19G01G02G03G06G17G19G22G24G28R01R02R08
                                R14R15R16R17R18R23R24
  24477054.524    24477056.890   128627797.7054  100229452.6304   24477054.595
  24477056.323          38.250          29.750
  24630617.618                   129434781.1204  100858262.7084   24630616.031
  24630613.032          38.250          15.000
  21878750.081    21878750.738   114973619.0774   89589833.5004   21878749.672
  21878750.251          45.750          45.750
  21246583.518    21246584.782   111651569.4734   87001231.3704   21246583.513
  21246584.270          50.250          41.000
  20517705.442    20517703.236   107821279.7874   84016583.9254   20517704.590
  20517702.530          51.250          53.750
  20400918.749                   107207562.0474   83538356.2404   20400917.388
  20400914.617          49.250          41.250
  23683485.348                   124457563.3944   96979916.7184   23683482.907
  23683479.976          43.500          27.250
  24619583.178    24619584.766   129376779.1924  100813079.0984   24619583.598
  24619584.505          38.250          19.750
  21726328.589                   114172622.7134   88965675.0304   21726327.229
  21726326.043          48.250          34.250
  21291512.429    21291511.556   113815358.774    88523049.039    21291512.483
  21291511.348          46.000          37.750
  22706270.992    22706269.779   121165028.800    94239464.591    22706270.626
  22706269.830          46.500          38.000
  23050559.227    23050557.397   123434703.031    96004761.435    23050560.619
  23050555.972          43.250          37.000
  22793484.013    22793483.829   121502087.246    94501609.895    22793484.908
  22793483.486          46.000          38.500
  20592319.886    20592317.104   110039120.746    85585972.384    20592320.328
  20592317.202          52.750          45.500
  22158719.804    22158716.230   118367888.369    92063920.141    22158720.463
  22158716.819          42.500          35.500
  19700281.575    19700278.458   105420222.406    81993495.266    19700281.672
  19700278.236          53.250          47.500
  22643629.750    22643627.409   120873239.637    94012517.182    22643629.792
  22643627.470          45.000          39.000
  23673055.334    23673051.595   126634891.273    98493802.130    23673054.491
  23673054.761          45.250          26.000
  20792628.842    20792625.248   111187553.633    86479200.063    20792628.324
  20792624.857          51.250          44.250
 20 10  1 10 55 30.0000000  0 20G01G02G03G06G12G17G19G22G24G28R01R02
                                R08R14R15R16R17R18R23R24
  24497279.077    24497280.873   128734074.5704  100312265.6974   24497279.067
  24497280.691          39.000          32.000
  24614657.808                   129350916.8254  100792913.8984   24614657.092
  24614654.821          36.500          16.250
  21886171.288    21886172.138   115012618.3764   89620222.5714   21886170.983
  21886171.614          46.750          46.000
  21236087.119    21236088.346   111596410.1474   86958250.0744   21236086.970
  21236087.724          50.000          41.000
  24604234.758    24604232.290   129296130.9724  100750222.4684   24604232.904
  24604231.641          35.250          11.250
  20516853.638    20516851.067   107816804.3894   84013096.5974   20516852.917
  20516850.961          50.750          53.250
  20393538.523                   107168776.2144   83508133.4984   20393536.958
  20393534.153          49.500          41.750
  23698561.103                   124536787.8464   97041650.0574   23698559.253
  23698556.223          43.000          28.000
  24627907.670    24627907.812   129420518.2074  100847161.4264   24627906.857
  24627907.292          39.250          19.250
  21740777.136                   114248550.8404   89024839.7824   21740776.019
  21740774.550          47.750          34.250
  21289187.482    21289186.568   113802929.503    88513381.825    21289187.560
  21289187.043          46.000          38.000
  22683394.918    22683392.797   121042953.662    94144517.281    22683395.164
  22683392.278          47.250          38.000
  23064118.178    23064113.478   123507304.518    96061229.233    23064118.635
  23064113.841          43.000          36.000
  22817962.291    22817961.474   121632562.369    94603090.491    22817961.945
  22817960.661          47.250          38.250
  20602189.989    20602187.748   110091866.290    85626996.683    20602190.381
  20602187.649          52.250          45.500
  22146232.453    22146228.132   118301178.865    92012034.947    22146232.482
  22146229.108          43.500          35.250
  19695744.384    19695740.769   105395941.843    81974610.369    19695744.286
  19695740.506          53.250          47.250
  22627273.096    22627269.787   120785922.206    93944603.582    22627272.183
  22627269.673          45.750          38.250
  23691027.969    23691029.133   126731034.278                    23691027.652
                        45.250
  20805105.179    20805102.198   111254270.820    86531091.201    20805104.907
  20805101.678          51.750          44.500
 20 10  1 10 56  0.0000000  0 20G01G02G03G06G12G17G19G22G24G28R01R02
                                R08R14R15R16R17R18R23R24
  24517504.558    24517505.369   128840358.1154  100395083.9754   24517503.672
  24517505.954          38.750          32.500
  24598726.474                   129267194.3654  100727675.6424   24598725.471
  24598723.297          35.750          16.500
  21893703.825    21893704.525   115052201.2954   89651066.4034   21893703.346
  21893703.977          47.250          45.750
  21225658.814    21225660.198   111541608.6274   86915547.5884   21225658.558
  21225659.488          50.250          41.000
  24583924.437    24583922.498   129189409.7884  100667063.0824   24583925.695
  24583922.870          34.500          13.000
  20516059.020    20516056.684   107812629.1464   84009843.1554   20516058.354
  20516056.418          48.750          53.250
  20386224.213                   107130340.0374   83478183.2354   20386222.756
  20386219.869          49.000          41.750
  23713702.632                   124616363.2144   97103656.8144   23713701.646
  23713698.702          42.250          27.500
  24636312.262    24636313.412   129464687.3424  100881578.9124   24636312.224
  24636312.157          39.750          18.750
  21755296.320                   114324848.2814   89084292.3064   21755294.929
  21755293.370          47.250          34.000
  21287014.851    21287013.073   113791310.985    88504345.210    21287014.672
  21287013.262          46.250          37.750
  22660556.306    22660553.903   120921082.563    94049728.681    22660555.957
  22660554.135          47.250          38.750
  23077794.669    23077789.794   123580539.747    96118189.922    23077795.591
  23077789.690          43.250          36.250
  22842467.437    22842467.066   121763191.445    94704690.865    22842467.506
  22842466.787          46.500          38.500
  20612200.331    20612197.980   110145359.009    85668602.114    20612200.532
  20612197.909          52.500          45.000
  22133871.115    22133867.167   118235149.987    91960679.137    22133871.355
  22133867.820          43.500          36.000
  19691268.189    19691264.312   105371987.697    81955979.363    19691267.715
  19691264.006          53.250          47.250
  22610940.915    22610937.038   120698737.391    93876793.195    22610940.141
  22610937.106          46.250          38.000
  23709003.440    23709000.963   126827192.845    98643358.109    23709003.111
  23709003.215          44.250          25.250
  20817620.883    20817618.411   111321202.223    86583148.938    20817621.081
  20817618.129          51.000          44.500
 20 10  1 10 56 30.0000000  0 20G01G02G03G06G12G17G19G22G24G28R01R02
                                R08R14R15R16R17R18R23R24
  24537729.911    24537731.229   128946646.9774  100477906.3984   24537729.768
  24537731.308          38.750          32.000
  24582821.679                   129183613.8924  100662548.0494   24582820.673
  24582818.285          38.500          18.000
  21901347.089    21901347.342   115092366.2544   89682363.7694   21901346.433
  21901347.092          46.500          45.750
  21215298.342    21215299.980   111487165.3124   86873124.2204   21215298.264
  21215299.239          50.500          41.000
  24563655.053    24563651.746   129082885.8874  100584057.4254   24563655.431
  24563651.295          34.750          13.000
  20515321.903    20515319.305   107808754.8564   84006824.2204   20515321.188
  20515319.102          51.000          53.500
  20378976.471                   107092254.5294   83448506.2074   20378975.234
  20378972.349          47.750          42.000
  23728912.285                   124696287.1384   97165935.1684   23728910.952
  23728907.893          43.750          28.000
  24644798.804    24644799.890   129509284.7784  100916330.1434   24644799.888
  24644799.083          39.000          19.250
  21769885.206                   114401513.3584   89144031.3014   21769884.008
  21769882.844          48.250          34.250
  21284992.610    21284991.231   113780504.598    88495940.252    21284992.567
  21284991.294          45.750          38.000
  22637756.896    22637755.516   120799419.578    93955101.933    22637755.893
  22637755.101          46.750          38.750
  23091587.526    23091584.778   123654405.529    96175641.058    23091588.531
  23091585.029          43.750          37.000
  22867002.421    22866999.925   121893970.247    94806407.679    22867002.130
  22866999.557          47.500          36.500
  20622350.810    20622347.290   110199596.369    85710786.714    20622350.929
  20622347.327          53.250          44.500
  22121638.241    22121634.252   118169805.373    91909855.535    22121638.801
  22121634.867          43.500          35.750
  19686852.243    19686849.650   105348360.156    81937602.388    19686852.008
  19686848.942          53.000          47.250
  22594632.731    22594630.462   120611685.636    93809086.264    22594631.948
  22594630.291          46.000          39.000
  23726982.618    23726982.192   126923366.221    98718159.579    23726981.406
  23726982.847          44.500          26.500
  20830177.787    20830174.722   111388346.686    86635372.399    20830177.365
  20830174.301          51.750          44.250
 20 10  1 10 57  0.0000000  0 20G01G02G03G06G12G17G19G22G24G28R01R02
                                R08R14R15R16R17R18R23R24
  24557957.758    24557959.627   129052939.3944  100560731.6114   24557956.934
  24557958.847          39.500          33.250
  24566944.403                   129100176.0554  100597531.5564   24566943.104
  24566940.651          41.000          21.250
  21909100.256    21909101.436   115133111.3854   89714113.2144   21909099.955
  21909100.555          46.750          45.500
  21205006.469    21205007.656   111433080.1644   86830979.9504   21205006.369
  21205007.219          49.750          41.000
  24543422.139    24543419.615   128976560.9224  100501206.7794   24543421.872
  24543420.422          36.250          14.250
  20514641.870    20514639.733   107805182.0454   84004040.1994   20514641.367
  20514639.295          51.000          53.500
  20371796.322                   107054520.5034   83419103.0634   20371794.792
  20371791.885          48.750          41.750
  23744186.805                   124776557.0064   97228483.1114   23744185.319
  23744183.151          43.500          27.750
  24653367.617    24653367.405   129554308.3584  100951413.4344   24653366.551
  24653366.871          40.000          18.500
  21784543.973                   114478543.9144   89204055.0774   21784542.697
  21784540.934          48.500          34.000
  21283123.332    21283122.104   113770510.457    88488167.020    21283122.845
  21283122.182          46.250          38.000
  22614996.353    22614995.859   120677968.530    93860640.055    22614995.865
  22614994.930          46.000          39.000
  23105498.980    23105496.077   123728898.604    96233580.091    23105499.526
  23105495.898          43.250          37.750
  22891563.387    22891561.304   122024894.247    94908237.421    22891563.304
  22891561.543          47.250          37.000
  20632639.355    20632636.783   110254575.384    85753548.160    20632639.394
  20632636.437          53.000          45.500
  22109534.910    22109531.075   118105147.293    91859565.900    22109534.567
  22109530.824          43.500          36.000
  19682498.227    19682494.656   105325058.821    81919479.120    19682498.065
  19682494.479          53.000          47.250
  22578350.264    22578346.567   120524767.031    93741482.904    22578349.563
  22578346.903          46.750          38.000
  23744964.633    23744961.637   127019553.868    98792972.121    23744963.339
  23744962.902          44.250          28.250
  20842773.878    20842771.034   111455703.120    86687760.713    20842773.612
  20842770.680          51.250          44.000
 20 10  1 10 57 30.0000000  0 20G01G02G03G06G12G17G19G22G24G28R01R02
                                R08R14R15R16R17R18R23R24
  24578184.441    24578185.873   129159233.7204  100643558.3064   24578184.263
  24578186.259          39.250          33.250
  24551093.971                   129016880.8434  100532626.2114   24551093.073
  24551089.803          41.000          23.250
  21916963.720    21916965.099   115174434.7284   89746313.2274   21916963.513
  21916964.272          45.500          46.000
  21194782.724    21194783.867   111379353.2434   86789114.8134   21194782.415
  21194783.354          50.250          41.000
  24523228.207    24523224.105   128870437.1074  100418512.8994   24523227.518
  24523224.268          36.750          14.500
  20514019.502    20514017.091   107801910.9034   84001491.2564   20514018.741
  20514016.818          51.000          53.250
  20364682.838                   107017138.9244   83389974.5524   20364681.244
  20364678.368          48.500          41.750
  23759527.664                   124857170.2134   97291298.5674   23759526.074
  23759522.938          44.250          28.000
  24662015.184    24662015.128   129599755.3234  100986826.6384   24662014.643
  24662015.504          38.000          20.250
  21799271.233                   114555937.9564   89264362.0924   21799270.023
  21799268.566          47.250          34.000
  21281405.682    21281403.875   113761329.321    88481026.152    21281405.580
  21281403.770          45.750          38.000
  22592276.844    22592275.428   120556734.016    93766346.588    22592276.749
  22592276.160          46.500          39.250
  23119527.276    23119523.651   123804015.719    96292004.455    23119528.184
  23119523.642          44.750          37.750
  22916149.443    22916148.538   122155958.777    95010176.502    22916149.936
  22916149.075          45.750          36.250
  20643065.678    20643062.994   110310292.881    85796883.981    20643065.979
  20643062.537          52.250          44.750
  22097560.266    22097555.969   118041178.324    91809812.242    22097560.081
  22097556.766          44.000          36.500
  19678204.473    19678201.133   105302083.378    81901609.327    19678204.379
  19678201.088          52.750          47.250
  22562091.556    22562088.503   120437981.635    93673983.160    22562091.322
  22562089.546          45.500          37.750
  23762947.592    23762945.497   127115754.918    98867795.093    23762947.491
  23762947.151          43.250          30.500
  20855409.301    20855406.183   111523270.349    86740312.988    20855409.128
  20855405.718          51.250          44.500
 20 10  1 10 58  0.0000000  0 20G01G02G03G06G12G17G19G22G24G28R01R02
                                R08R14R15R16R17R18R23R24
  24598411.904    24598413.683   129265529.5324  100726386.1584   24598411.490
  24598413.573          37.000          33.000
  24535271.237                   128933730.1914  100467833.5274   24535269.609
  24535267.163          42.500          23.750
  21924937.035    21924938.585   115216335.7644   89778963.3874   21924937.074
  21924937.594          46.750          45.000
  21184627.266    21184628.175   111325985.9254   86747529.8894   21184626.822
  21184627.922          50.250          41.250
  24503071.974    24503070.117   128764518.3544  100335978.7974   24503071.515
  24503069.149          38.000          16.000
  20513454.641    20513452.354   107798943.1484   83999178.7144   20513454.032
  20513452.075          51.000          53.250
  20357636.806                   106980111.8784   83361122.3044   20357635.257
  20357632.341          48.500          42.000
  23774932.446                   124938125.2154   97354380.3624   23774931.235
  23774928.000          42.000          27.750
  24670743.611    24670744.654   129645624.4204  101022568.7824   24670743.622
  24670744.128          37.750          18.750
  21814067.970                   114633694.8174   89324951.8314   21814066.944
  21814065.126          48.500          34.000
  21279840.279    21279839.222   113752962.910    88474518.946    21279840.273
  21279838.802          46.500          38.000
  22569599.554    22569597.179   120435721.553    93672225.833    22569599.337
  22569597.596          46.500          39.000
  23133670.560    23133666.758   123879754.738    96350912.548    23133671.310
  23133666.557          43.750          37.500
  22940763.325    22940762.997   122287160.738    95112222.426    22940764.079
  22940762.667          46.000          37.250
  20653630.035    20653627.720   110366747.027    85840792.745    20653630.534
  20653627.499          51.750          44.750
  22085714.672    22085710.197   117977902.192    91760597.485    22085714.460
  22085711.308          43.500          36.250
  19673972.375    19673969.103   105279434.950    81883993.875    19673972.222
  19673968.702          52.500          47.250
  22545859.596    22545857.166   120351330.909    93606588.109    22545859.165
  22545856.793          46.750          38.000
  23780932.632    23780932.844   127211970.202    98942629.141    23780933.019
  23780933.794          41.750          30.750
  20868084.207    20868081.309   111591048.673    86793029.447    20868084.219
  20868080.895          51.000          44.250
 20 10  1 10 58 30.0000000  0 20G01G02G03G06G12G17G19G22G24G28R01R02
                                R08R14R15R16R17R18R23R24
  24618641.042    24618640.576   129371825.5274  100809214.1394   24618639.206
  24618641.132          37.750          32.250
  24519474.738                   128850724.3424  100403153.6574   24519473.953
  24519471.658          41.000          24.500
  21933020.603    21933021.617   115258812.7564   89812062.3364   21933020.244
  21933020.923          46.250          45.750
  21174540.361    21174541.335   111272978.4314   86706225.3444   21174539.919
  21174540.816          50.500          41.500
  24482954.810    24482954.286   128658807.2054  100253606.4454   24482955.205
  24482953.311          36.750          18.000
  20512947.677    20512945.290   107796279.5294   83997103.1594   20512947.166
  20512945.238          50.500          52.750
  20350658.105                   106943440.5854   83332547.2674   20350656.793
  20350654.119          48.500          41.500
  23790401.303                   125019419.5954   97417726.6174   23790400.864
  23790397.700          42.000          27.250
  24679552.237    24679552.797   129691913.2134  101058637.9374   24679551.480
  24679552.112          38.500          19.750
  21828933.621                   114711812.7034   89385822.8754   21828932.243
  21828930.786          48.000          33.750
  21278427.533    21278425.811   113745411.991    88468646.020    21278427.708
  21278426.561          46.500          37.750
  22546964.644    22546962.732   120314935.503    93578281.185    22546963.806
  22546962.440          46.500          39.250
  23147930.729    23147926.378   123956112.212    96410301.642    23147931.113
  23147926.898          44.750          38.750
  22965401.712    22965400.628   122418495.883    95214371.940    22965401.445
  22965400.667          44.750          37.250
  20664332.355    20664329.771   110423935.131    85885272.363    20664332.548
  20664329.701          52.500          44.750
  22073998.418    22073994.810   117915321.731    91711923.763    22073998.292
  22073994.905          42.250          35.500
  19669801.210    19669797.522   105257113.569    81866632.795    19669801.266
  19669797.312          53.250          47.500
  22529650.834    22529649.422   120264815.060    93539298.008    22529650.536
  22529649.085          45.250          38.500
  23798922.386    23798922.342   127308199.203    99017473.865    23798922.169
  23798923.587          42.000          31.250
  20880798.292    20880795.298   111659037.346    86845909.508    20880798.004
  20880794.934          51.250          44.250
 20 10  1 10 59  0.0000000  0 20G01G02G03G06G12G17G19G22G24G28R01R02
                                R08R14R15R16R17R18R23R24
  24638866.132    24638868.902   129478119.7094  100892040.6684   24638866.337
  24638868.082          34.750          29.750
  24503707.309                   128767863.0634  100338586.4054   24503706.179
  24503703.419          42.750          24.500
  21941212.567    21941213.341   115301863.4554   89845608.3244   21941212.547
  21941213.083          47.000          45.250
  21164521.759    21164522.742   111220330.4594   86665200.9454   21164521.518
  21164522.261          51.250          41.250
  24462879.837    24462877.179   128553306.3264  100171397.9614   24462878.441
  24462876.653          38.500          18.000
  20512499.027    20512496.623   107793920.3844   83995264.8524   20512498.350
  20512496.275          51.000          53.000
  20343748.093                   106907125.4904   83304249.7884   20343746.380
  20343743.574          49.250          41.500
  23805936.263                   125101050.5074   97481335.1014   23805935.003
  23805931.824          43.250          27.250
  24688440.654    24688440.121   129738618.8574  101095031.9124   24688439.774
  24688440.023          39.000          20.250
  21843866.594                   114790289.1304   89446973.3114   21843865.601
  21843864.005          47.750          33.500
  21277167.379    21277166.511   113738676.735    88463407.508    21277167.697
  21277166.729          45.750          37.750
  22524372.165    22524371.285   120194379.380    93484515.348    22524371.292
  22524370.977          46.750          39.250
  23162303.306    23162300.912   124033084.150    96470168.676    23162304.709
  23162300.766          44.000          38.000
  22990062.922    22990061.604   122549959.554    95316621.402    22990063.746
  22990061.925          43.500          35.750
  20675170.953    20675168.525   110481853.482    85930319.951    20675171.169
  20675168.422          51.750          45.000
  22062413.831    22062411.199   117853439.083    91663792.817    22062414.116
  22062411.082          42.500          36.500
  19665690.858    19665687.155   105235118.571    81849525.571    19665690.574
  19665686.868          53.500          47.250
  22513469.505    22513466.845   120178433.687    93472112.474    22513469.351
  22513467.325          47.000          38.250
  23816914.981    23816913.568   127404440.881    99092328.437    23816913.887
  23816915.216          42.750          31.500
  20893551.423    20893548.803   111727234.601    86898951.798    20893551.036
  20893548.581          50.750          44.250
 20 10  1 10 59 30.0000000  0 20G01G02G03G06G12G17G19G22G24G28R01R02
                                R08R14R15R16R17R18R23R24
  24659091.334    24659093.911   129584410.8034  100974864.8324   24659091.889
  24659094.841          33.000          28.250
  24487966.854                   128685146.9644  100274132.3204   24487965.794
  24487962.910          42.250          24.750
  21949513.843    21949515.375   115345486.2494   89879600.1164   21949513.579
  21949514.327          46.000          45.500
  21154571.694    21154572.994   111168042.4114   86624457.0154   21154571.308
  21154572.250          50.250          41.250
  24442844.902    24442842.087   128448018.3864  100089355.4044   24442843.148
  24442841.363          40.000          19.000
  20512108.226    20512105.694   107791866.3084   83993664.2694   20512107.487
  20512105.440          50.000          53.750
  20336905.644                   106871168.5064   83276231.3504   20336903.870
  20336901.322          49.000          42.000
  23821533.582                   125183015.8164   97545204.1304   23821532.258
  23821529.478          42.500          27.000
  24697406.502    24697407.604   129785739.5634  101131749.3314   24697406.152
  24697407.124          37.000          19.250
  21858868.235                   114869122.7934   89508402.1094   21858867.368
  21858865.939          47.500          33.500
  21276061.025    21276059.599   113732757.316    88458803.509    21276060.504
  21276059.192          46.500          38.000
  22501824.005    22501822.950   120074058.202    93390932.258    22501823.790
  22501822.487          46.750          39.000
  23176792.150    23176788.659   124110667.641    96530511.377    23176792.498
  23176788.975          45.000          38.500
  23014748.920    23014747.736   122681547.483    95418967.537    23014749.154
  23014747.645          45.000          35.750
  20686145.511    20686143.606   110540499.488    85975933.510    20686145.944
  20686143.551          51.750          45.250
  22050960.494    22050956.628   117792257.162    91616206.893    22050960.512
  22050957.478          42.250          36.000
  19661641.730    19661638.075   105213450.018    81832672.243    19661641.522
  19661637.848          53.250          47.500
  22497313.014    22497310.713   120092187.486    93405032.089    22497312.671
  22497311.087          48.000          38.750
  23834909.124    23834906.725   127500694.943    99167192.633    23834907.326
  23834907.414          41.750          30.750
  20906344.082    20906340.807   111795639.797    86952155.825    20906343.813
  20906340.138          51.250          44.000
 20 10  1 11  0  0.0000000  0 20G01G02G03G06G12G17G19G22G24G28R01R02
                                R08R14R15R16R17R18R23R24
  24679318.602    24679320.099   129690697.7294  101057685.7434   24679317.706
  24679320.504          34.750          29.250
  24472254.227                   128602576.8744  100209791.9904   24472253.078
  24472250.302          42.750          24.750
  21957923.572    21957924.864   115389679.7994   89914036.6424   21957923.371
  21957924.050          46.500          45.500
  21144690.062    21144691.329   111116114.9284   86583994.0394   21144689.720
  21144690.667          49.750          41.000
  24422849.145    24422846.888   128342946.2944  100007481.0444   24422848.605
  24422846.428          38.000          19.750
  20511775.329    20511772.867   107790118.3524   83992302.2184   20511774.805
  20511772.865          51.500          53.250
  20330131.512                   106835570.6844   83248492.7794   20330129.932
  20330127.064          49.500          41.750
  23837194.466                   125265313.1084   97609331.8804   23837193.141
  23837190.112          43.750          26.500
  24706452.321    24706453.211   129833273.2034  101168788.4904   24706452.036
  24706452.635          36.750          19.250
  21873937.315                   114948311.8434   89570107.8224   21873936.304
  21873934.948          46.500          33.500
  21275106.434    21275104.245   113727655.117    88454835.144    21275105.917
  21275105.500          46.250          37.750
  22479321.106    22479319.290   119953977.014    93297535.823    22479320.192
  22479318.784          47.000          39.250
  23191394.042    23191391.351   124188859.925    96591327.554    23191395.262
  23191390.589          45.500          38.500
  23039457.413    23039456.569   122813255.745    95521407.276    23039457.423
  23039456.372          45.250          36.250
  20697256.563    20697253.673   110599870.368    86022110.840    20697256.862
  20697253.770          52.500          45.000
  22039638.930    22039635.132   117731778.810    91569168.169    22039639.353
  22039635.948          42.750          36.500
  19657653.255    19657650.334   105192108.441    81816073.237    19657653.139
  19657649.633          52.750          47.500
  22481181.497    22481179.196   120006077.266    93338057.446    22481181.012
  22481178.444          46.750          38.250
  23852903.144    23852903.766   127596961.293    99242066.396    23852903.770
  23852902.862          40.000          30.000
  20919174.903    20919171.904   111864252.444    87005521.204    20919174.753
  20919171.325          51.500          44.000
