     2.11           OBSERVATION DATA    M (MIXED)           RINEX VERSION / TYPE
teqc  2018Jun8      root                20201008 02:57:26UTCPGM / RUN BY / DATE
Linux 2.4.21-27.ELsmp|Opteron|gcc|Linux 64|=+               COMMENT
teqc  2013May1      NOAA/NOS/NGS/CORS   20131013 01:08:35UTCCOMMENT
Solaris x86 5.10|AMD64|cc SC5.8 -xarch=amd64|=+|=+          COMMENT
teqc  2013May1      NOAA/NOS/NGS/CORS   20131013 01:08:34UTCCOMMENT
0000.000      (antenna height)                              COMMENT
BIT 2 OF LLI FLAGS DATA COLLECTED UNDER A/S CONDITION       COMMENT
 SNR is mapped to RINEX snr flag value [0-9]                COMMENT
  L1 & L2: min(max(int(snr_dBHz/6), 0), 9)                  COMMENT
teqc edited: all SBAS satellites excluded                   COMMENT
teqc edited: all Galileo satellites excluded                COMMENT
teqc edited: all Compass satellites excluded                COMMENT
teqc edited: all QZSS satellites excluded                   COMMENT
Forced Modulo Decimation to 30 seconds                      COMMENT
WUHN                                                        MARKER NAME
21602M001                                                   MARKER NUMBER
Prof. Guigen Nie    WHU                                     OBSERVER / AGENCY
4918K35018          TRIMBLE NETR8       NP 4.16 / SP 3.59   REC # / TYPE / VERS
4852A62817          TRM59800.00     ENCL                    ANT # / TYPE
 -2267750.2660  5009156.1420  3221291.8980                  APPROX POSITION XYZ
        2.3612       -0.0022       -0.0094                  ANTENNA: DELTA H/E/N
     1     1                                                WAVELENGTH FACT L1/2
    11    L1    L2    L5    C1    P1    C2    P2    C5    S1# / TYPES OF OBSERV
          S2    S5                                          # / TYPES OF OBSERV
    30.0000                                                 INTERVAL
teqc.w windowed: start @ 2013 Oct  1 10:00:00.000           COMMENT
teqc.w windowed:  end  @ 2013 Oct  1 11:00:00.000           COMMENT
  2013    10     1    10     0    0.0000000     GPS         TIME OF FIRST OBS
    16                                                      LEAP SECONDS
                                                            END OF HEADER
 13 10  1 10  0  0.0000000  4  1
0000.000      (antenna height)                              COMMENT
 13 10  1 10  0  0.0000000  0 13G12G10G02R07R23G26G05R08R01R22G29G15
                                G04
 129289685.28914 100745135.98514                  24603016.750
  24603035.813                                          29.600          27.200

 120027549.537 5                                  22840442.422
                                                        34.400

 108017401.856 7  84169599.21043                  20555035.758
                  20555041.406                          42.600          21.300

 118315674.022 6                                  22102325.969    22102326.254
                                                        40.400

 105342234.692 8  81932875.314 5                  19692611.203    19692611.234
                  19692617.879                          53.200          35.400

 111483185.914 6  86869899.34643                  21214501.094
                  21214510.539                          41.600          19.000

 108610913.953 7  84632265.833 7                  20667946.398
  20667953.258    20667953.629                          43.500          42.800

 105260766.986 8  81869447.909 5                  19656660.234    19656659.988
                  19656664.531                          51.800          34.000

 115432179.198 7  89780385.498 4                  21593920.953    21593919.984
                  21593929.836                          47.100          24.400

 107729366.694 8  83789569.154 6                  20181329.063    20181328.160
                  20181333.965                          52.200          38.700

 118891431.402 6  92642824.585 5                  22624307.914
  22624317.500    22624318.566                          37.500          35.400

 125996039.959 5  98178921.865 5                  23976269.547
  23976290.262                                          32.000          32.100

 121444235.271 5                                  23110091.906
                                                        33.700

 13 10  1 10  0 30.0000000  0 13G12G10G02R07R23G26G05R08R01R22G29G15
                                G04
                                                  24617173.016
  24617193.719                                          26.800          27.700

 120112863.289 5                                  22856677.695
                                                        34.200

 108021649.002 6  84172908.70043                  20555844.500
                  20555849.281                          41.500          21.300

 118414726.691 6                                  22120829.977    22120829.793
                                                        40.200

 105292002.168 8  81893805.581 5                  19683221.156    19683220.719
                  19683227.152                          53.200          35.800

 111391137.505 6  86798173.36143                  21196984.867
                  21196994.039                          41.800          18.600

 108625112.262 7  84643329.475 7                  20670648.141
  20670655.160    20670655.176                          43.700          43.400

 105289383.953 8  81891705.562 5                  19662004.141    19662003.426
                  19662007.809                          52.100          33.800

 115362980.307 7  89726564.267 4                  21580976.055    21580974.965
                  21580984.875                          47.300          25.200

 107805740.009 8  83848970.565 6                  20195636.453    20195635.551
                  20195641.207                          52.400          38.100

 118812736.671 5  92581504.054 5                  22609333.141
  22609342.055    22609343.324                          35.700          35.700

 125883636.703 5  98091336.218 5                  23954878.453
  23954898.531                                          33.400          32.300

 121514266.764 5                                  23123417.773
                                                        34.400

 13 10  1 10  1  0.0000000  0 13G12G10G02R07R23G26G05R08R01R22G29G15
                                G04
                                                  24631327.539
  24631350.234                                          26.400          29.600

 120198205.689 5                                  22872917.734
                                                        34.900

 108026195.573 7  84176451.49043                  20556709.008
                  20556714.555                          42.800          21.500

 118513804.927 6                                  22139338.547    22139338.598
                                                        40.700

 105242424.563 8  81855245.254 6                  19673953.375    19673952.820
                  19673959.203                          53.400          36.000

 111299503.364 7  86726770.21243                  21179547.797
                  21179556.066                          42.100          18.300

 108639573.608 7  84654598.068 7                  20673399.445
  20673407.281    20673407.328                          43.200          44.000

 105318429.119 8  81914296.282 5                  19667428.102    19667427.621
                  19667431.930                          52.100          34.100

 115294193.717 7  89673063.702 4                  21568107.086    21568105.762
                  21568116.043                          46.600          26.300

 107882702.472 8  83908830.232 6                  20210053.695    20210052.910
                  20210058.828                          51.900          38.700

 118734404.057 6  92520465.719 5                  22594426.305
  22594435.605    22594436.926                          36.000          35.700

 125771332.151 5  98003827.429 5                  23933507.617
  23933527.016                                          33.300          30.700

 121584484.416 5                                  23136780.609
                                                        33.800

 13 10  1 10  1 30.0000000  0 13G12G10G02R07R23G26G05R08R01R22G29G15
                                G04
                                                  24645486.430
  24645507.777                                          26.400          28.900

 120283578.191 5                                  22889164.188
                                                        33.700

 108031045.022 7  84180230.28943                  20557632.141
                  20557637.656                          42.900          21.500

 118612909.016 6                                  22157852.914    22157852.145
                                                        40.300

 105193507.469 8  81817198.640 5                  19664808.125    19664807.805
                  19664814.141                          53.800          35.300

 111208289.291 7  86655694.40642                  21162190.102
                  21162198.531                          42.100          17.800

 108654299.117 7  84666072.516 7                  20676201.859
  20676209.082    20676209.328                          43.100          42.400

 105347902.932 8  81937220.382 5                  19672932.484    19672932.355
                  19672936.031                          52.400          32.800

 115225822.192 7  89619885.984 4                  21555316.352    21555315.027
                  21555325.699                          45.500          24.300

 107960254.769 8  83969148.666 6                  20224582.078    20224580.707
                  20224586.992                          51.900          39.300

 118656438.935 6  92459713.738 6                  22579589.758
  22579599.082    22579601.008                          36.800          36.300

 125659131.312 5  97916399.437 5                  23912155.297
  23912175.230                                          33.500          30.900

 121654891.051 5                                  23150178.109
                                                        32.600

 13 10  1 10  2  0.0000000  0 13G12G10G02R07R23G26G05R08R01R22G29G15
                                G04
 129587231.24214 100976985.13714                  24659642.602
  24659662.895                                          28.900          29.400

 120368977.814 5                                  22905415.445
                                                        31.800

 108036197.334 6  84184245.11043                  20558611.945
                  20558617.984                          41.600          20.400

 118712035.023 6                                  22176369.922    22176369.621
                                                        39.000

 105145253.108 8  81779667.496 5                  19655787.984    19655787.547
                  19655793.930                          53.500          35.500

 111117496.964 7  86584947.22843                  21144913.227
                  21144921.000                          42.800          19.000

 108669285.917 7  84677750.569 7                  20679054.211
  20679060.977    20679060.762                          44.400          42.700

 105377800.684 8  81960474.203 5                  19678515.219    19678514.973
                  19678519.477                          52.400          33.400

 115157864.782 7  89567030.324 4                  21542603.805    21542602.715
                  21542612.504                          46.900          26.600

 108038393.271 8  84029923.011 6                  20239220.602    20239219.465
                  20239225.203                          51.800          39.000

 118578842.397 6  92399248.975 6                  22564825.359
  22564832.859    22564835.051                          36.600          36.000

 125547035.381 5  97829053.232 5                  23890823.039
  23890843.535                                          33.400          31.100

 121725485.059 5                                  23163611.414
                                                        33.600

 13 10  1 10  2 30.0000000  0 12G10G02R07R23G26G05R08R01R22G29G15G04
 120454405.660 5                                  22921669.945
                                                        31.300

 108041655.862 7  84188498.49843                  20559650.539
                  20559656.188                          42.700          20.600

 118811183.178 6                                  22194892.313    22194891.777
                                                        37.900

 105097666.498 8  81742655.694 5                  19646891.680    19646891.359
                  19646897.652                          53.700          35.200

 111027131.843 7  86514532.93342                  21127717.016
                  21127725.422                          42.500          17.400

 108684535.494 7  84689633.363 7                  20681955.523
  20681962.637    20681962.957                          43.900          42.900

 105408122.188 8  81984057.603 5                  19684177.844    19684177.129
                  19684181.371                          52.200          32.700

 115090324.158 7  89514498.830 4                  21529968.875    21529967.906
                  21529977.641                          47.800          25.000

 108117118.045 8  84091153.360 6                  20253967.992    20253967.324
                  20253973.488                          51.000          38.700

 118501619.059 6  92339074.999 6                  22550129.023
  22550137.309    22550138.695                          36.900          36.000

 125435049.301 5  97741792.642 5                  23869510.914
  23869531.773                                          32.800          31.500

 121796268.589 5                                  23177082.133
                                                        34.000

 13 10  1 10  3  0.0000000  0 12G10G02R07R23G26G05R08R01R22G29G15G04
 120539856.095 5                                  22937932.266
                                                        32.800

 108047417.812 7  84192988.34143                  20560747.414
                  20560753.250                          42.600          21.500

 118910345.866 5                                  22213416.672    22213417.074
                                                        35.700

 105050746.323 8  81706162.232 6                  19638120.492    19638119.938
                  19638126.508                          53.700          36.300

 110937192.639 7  86444450.52142                  21110602.031
                  21110610.695                          42.400          17.400

 108700041.413 7  84701715.918 7                  20684906.492
  20684913.547    20684913.125                          42.800          42.900

 105438860.191 8  82007964.965 5                  19689917.758    19689917.277
                  19689921.285                          52.800          34.300

 115023195.741 7  89462287.944 4                  21517411.445    21517410.238
                  21517419.941                          47.800          27.900

 108196422.560 8  84152834.622 6                  20268824.617    20268823.363
                  20268829.422                          51.300          39.900

 118424767.094 6  92279190.428 6                  22535504.609
  22535513.191    22535514.270                          37.300          37.000

 125323170.869 5  97654615.908 5                  23848220.469
  23848240.652                                          34.300          31.800

 121867236.856 5                                  23190587.328
                                                        35.000

 13 10  1 10  3 30.0000000  0 12G10G02R07R23G26G05R08R01R22G29G15G04
 120625331.579 5                                  22954198.023
                                                        32.000

 108053488.209 6  84197718.55043                  20561901.992
                  20561908.316                          41.600          21.100

 119009525.250 5                                  22231945.984    22231944.039
                                                        35.800

 105004499.322 8  81670192.342 5                  19629475.000    19629474.211
                  19629480.676                          53.900          35.500

 110847686.361 7  86374705.48343                  21093568.773
                  21093577.910                          42.700          19.000

 108715806.457 7  84714000.395 7                  20687906.555
  20687913.301    20687913.367                          43.000          42.400

 105470015.985 8  82032197.280 5                  19695735.945    19695734.996
                  19695739.199                          51.700          32.900

 114956483.958 7  89410401.103 4                  21504931.406    21504929.965
                  21504940.137                          47.800          26.600

 108276308.506 8  84214968.056 6                  20283790.266    20283789.246
                  20283795.313                          51.200          38.900

 118348292.871 6  92219600.188 5                  22520952.078
  22520959.203    22520960.492                          36.800          35.200

 125211406.431 5  97567527.974 5                  23826952.164
  23826971.191                                          34.600          30.800

 121938393.822 5                                  23204126.648
                                                        33.900

 13 10  1 10  4  0.0000000  0 12G10G02R07R23G26G05R08R01R22G29G15G04
 120710829.726 5                                  22970466.656
                                                        31.800

 108059867.158 7  84202689.17043                  20563116.297
                  20563122.398                          42.400          21.300

 119108717.826 5                                  22250474.883    22250474.816
                                                        33.200

 104958927.719 8  81634747.785 5                  19620956.047    19620955.492
                  19620961.660                          53.900          35.900

 110758615.168 7  86305299.44943                  21076620.016
                  21076628.578                          42.600          19.000

 108731828.547 7  84726485.159 7                  20690955.609
  20690962.551    20690962.215                          42.300          43.000

 105501585.964 8  82056751.712 5                  19701631.570    19701630.738
                  19701635.063                          52.200          34.500

 114890188.152 7  89358837.795 4                  21492528.703    21492527.852
                  21492538.066                          46.900          27.400

 108356772.710 8  84277551.302 6                  20298863.781    20298862.762
                  20298868.898                          51.900          39.500

 118272197.985 5  92160305.505 5                  22506472.133
  22506479.211    22506480.777                          34.900          35.500

 125099757.642 5  97480530.146 5                  23805705.156
  23805724.223                                          34.400          31.900

 122009738.469 5                                  23217703.453
                                                        35.100

 13 10  1 10  4 30.0000000  0 12G10G02R07R23G26G05R08R01R22G29G15G04
 120796347.879 5                                  22986739.859
                                                        31.300

 108066554.470 7  84207900.03543                  20564388.961
                  20564394.242                          43.600          20.600

 119207918.977 5                                  22269003.414    22269003.465
                                                        32.200

 104914033.108 8  81599829.755 6                  19612563.148    19612563.180
                  19612569.402                          53.200          36.700

 110669980.601 7  86236233.61843                  21059753.047
                  21059762.109                          42.800          18.300

 108748104.669 7  84739167.874 7                  20694052.898
  20694059.660    20694059.262                          43.200          43.300

 105533565.778 8  82081624.938 5                  19707603.234    19707602.520
                  19707606.316                          52.000          32.700

 114824306.751 7  89307596.810 4                  21480204.758    21480203.199
                  21480213.105                          47.600          26.300

 108437811.530 8  84340581.444 6                  20314045.820    20314044.918
                  20314050.352                          52.100          39.600

 118196483.698 5  92101307.439 6                  22492064.555
  22492071.582    22492072.363                          35.200          36.100

 124988225.808 5  97393623.403 5                  23784480.234
  23784497.156                                          35.300          30.200

 122081269.016 5                                  23231316.031
                                                        32.400

 13 10  1 10  5  0.0000000  0 12G10G02R07R23G26G05R08R01R22G29G15G04
 120881890.073 5                                  23003018.984
                                                        32.600

 108073556.699 7  84213356.34243                  20565721.797
                  20565727.656                          43.100          21.500

 119307133.248 5                                  22287540.578    22287540.160
                                                        34.400

 104869824.250 8  81565445.111 5                  19604298.711    19604298.039
                  19604305.145                          52.400          35.100

 110581791.403 7  86167514.84742                  21042971.453
                  21042979.469                          43.300          17.800

 108764638.832 7  84752051.668 7                  20697199.672
  20697205.836    20697205.949                          43.100          43.000

 105565958.405 8  82106819.219 5                  19713652.547    19713651.832
                  19713655.762                          52.100          32.800

 114758845.865 7  89256682.872 4                  21467958.578    21467957.488
                  21467966.801                          47.200          25.800

 108519428.153 8  84404061.019 6                  20329334.625    20329333.957
                  20329339.461                          52.100          39.000

 118121157.257 5  92042611.573 5                  22477730.203
  22477737.730    22477738.059                          35.800          34.900

 124876818.852 5  97306814.002 5                  23763279.031
  23763297.023                                          35.600          30.800

 122152990.958 5                                  23244963.375
                                                        31.600

 13 10  1 10  5 30.0000000  0 12G10G02R07R23G26G05R08R01R22G29G15G04
 120967449.777 5                                  23019299.180
                                                        30.100

 108080869.409 7  84219054.54543                  20567113.641
                  20567118.563                          43.100          21.300

 119406351.476 4                                  22306077.531    22306075.586
                                                        28.600

 104826297.525 8  81531591.004 5                  19596161.961    19596161.172
                  19596167.746                          52.900          35.500

 110494044.659 7  86099140.82843                  21026273.063
                  21026281.590                          43.600          19.300

 108781424.138 7  84765131.135 7                  20700392.578
  20700400.418    20700400.230                          43.500          42.700

 105598754.793 8  82132327.536 5                  19719776.688    19719776.676
                  19719780.469                          52.100          32.800

 114693799.260 7  89206091.169 4                  21455790.359    21455789.152
                  21455798.547                          47.000          25.700

 108601614.411 8  84467983.640 6                  20344731.250    20344730.113
                  20344735.793                          51.600          38.400

 118046215.698 5  91984215.638 5                  22463469.250
  22463476.723    22463477.688                          35.400          35.200

 124765533.344 5  97220099.208 4                  23742101.188
  23742118.422                                          34.900          29.400

 122224898.028 5                                  23258646.680
                                                        32.000

 13 10  1 10  6  0.0000000  0 11G10G02R23G26G05R08R01R22G29G15G04
 121053021.448 5                                  23035585.891
                                                        30.800

 108088489.872 7  84224992.58143                  20568563.094
                  20568569.281                          43.600          20.900

 104783452.118 8  81498266.788 5                  19588152.547    19588152.461
                  19588158.953                          53.200          35.900

 110406739.527 7  86031110.93943                  21009659.195
                  21009667.887                          43.000          19.300

 108798455.239 7  84778402.134 7                  20703634.344
  20703641.098    20703640.973                          43.000          42.600

 105631948.476 8  82158144.856 5                  19725975.844    19725975.363
                  19725979.074                          53.000          32.800

 114629163.339 8  89155818.893 4                  21443700.008    21443698.566
                  21443707.379                          48.200          26.700

 108684364.106 8  84532344.467 6                  20360233.125    20360232.223
                  20360237.891                          52.000          38.500

 117971657.561 5  91926118.443 5                  22449280.555
  22449288.457    22449291.375                          34.600          35.000

 124654368.046 5  97133478.018 4                  23720947.281
  23720962.898                                          33.000          28.300

 122296986.401 5                                  23272366.820
                                                        32.200

 13 10  1 10  6 30.0000000  0 12G10G02R07R23G26G05R08R01R22G29G15G04
 121138623.719 5                                  23051873.516
                                                        31.300

 108096439.137 7  84231186.82943                  20570075.930
                  20570081.762                          42.600          21.800

 119604637.26414                                  22343152.086    22343149.906
                                                        29.400

 104741311.566 8  81465490.815 6                  19580274.789    19580274.703
                  19580281.379                          53.400          36.100

 110319899.058 7  85963443.09543                  20993134.828
                  20993142.598                          42.300          20.400

 108815750.410 7  84791878.895 7                  20706925.563
  20706932.328    20706932.012                          42.900          42.400

 105665556.978 8  82184284.811 5                  19732251.633    19732251.387
                  19732255.691                          52.300          32.100

 114564958.537 8  89105881.950 4                  21431689.594    21431687.449
                  21431695.602                          48.300          25.200

 108767695.101 8  84597157.423 6                  20375843.008    20375841.520
                  20375847.754                          51.500          38.100

 117897505.452 6  91868337.627 5                  22435171.102
  22435178.082    22435179.340                          36.800          35.900

 124543345.151 5  97046967.787 4                  23699817.391
  23699834.086                                          33.500          28.700

 122369275.597 5                                  23286119.695
                                                        31.500

 13 10  1 10  7  0.0000000  0 12G10G02R07R23G26G05R08R01R22G29G15G04
 121224231.938 5                                  23068163.188
                                                        30.100

 108104695.122 7  84237620.06943                  20571646.953
                  20571652.816                          42.900          20.600

 119703858.58814                                  22361685.305    22361684.652
                                                        28.300

 104699854.367 8  81433246.325 6                  19572524.789    19572524.586
                  19572531.492                          53.200          36.200

 110233502.788 7  85896121.39043                  20976693.484
                  20976701.578                          43.200          19.600

 108833285.455 7  84805542.578 7                  20710262.273
  20710268.945    20710268.406                          43.500          42.200

 105699553.608 8  82210726.644 5                  19738600.453    19738600.090
                  19738604.301                          52.000          33.000

 114501160.820 7  89056261.586 4                  21419752.898    21419752.281
                  21419760.719                          47.100          25.700

 108851581.058 8  84662402.031 6                  20391558.492    20391557.355
                  20391563.387                          51.600          38.500

 117823738.105 6  91810856.628 6                  22421132.352
  22421140.523    22421141.480                          37.100          36.100

 124432443.600 5  96960552.071 4                  23678714.508
  23678728.691                                          35.100          28.100

 122441742.287 5                                  23299911.219
                                                        31.800

 13 10  1 10  7 30.0000000  0 12G10G02R07R23G26G05R08R01R22G29G15G04
 121309852.87315                                  23084458.672
                                                        30.700

 108113266.863 7  84244299.35443                  20573278.344
                  20573284.000                          43.500          20.900

 119803075.18415                                  22380220.477    22380218.180
                                                        30.700

 104659091.773 8  81401542.097 6                  19564905.086    19564904.531
                  19564911.453                          53.300          36.200

 110147561.631 7  85829154.35543                  20960340.563
                  20960348.234                          42.500          19.000

 108851066.303 7  84819397.812 7                  20713645.758
  20713653.160    20713652.855                          43.100          43.000

 105733943.670 8  82237474.474 5                  19745022.406    19745021.809
                  19745025.891                          52.400          33.100

 114437778.484 7  89006964.316 4                  21407896.523    21407895.199
                  21407904.324                          46.400          25.500

 108936027.681 8  84728082.720 6                  20407377.531    20407376.980
                  20407382.895                          50.700          37.600

 117750365.856 6  91753683.516 6                  22407170.563
  22407178.352    22407178.473                          36.500          36.300

 124321673.968 5  96874239.090 5                  23657635.336
  23657649.711                                          33.200          30.500

 122514394.053 5                                  23313736.180
                                                        30.500

 13 10  1 10  8  0.0000000  0 12G10G02R07R23G26G05R08R01R22G29G15G04
 121395495.697 5                                  23100755.016
                                                        32.000

 108122165.705 6  84251233.52243                  20574971.203
                  20574977.238                          41.200          21.300

 119902295.586 5                                  22398755.117    22398753.172
                                                        31.800

 104619036.696 8  81370388.138 6                  19557416.570    19557416.016
                  19557423.438                          53.000          37.700

 110062088.974 7  85762552.35143                  20944074.313
                  20944082.641                          43.000          20.900

 108869102.005 7  84833451.616 7                  20717077.523
  20717085.023    20717084.707                          42.600          43.000

 105768734.794 8  82264534.258 5                  19751518.984    19751518.738
                  19751522.953                          52.000          33.700

 114374822.145 7  88957998.384 4                  21396119.266    21396117.473
                  21396126.684                          47.400          27.400

 109021042.925 8  84794205.652 6                  20423304.359    20423303.105
                  20423308.852                          50.800          38.300

 117677401.789 6  91696828.424 6                  22393286.219
  22393293.367    22393293.926                          36.600          36.700

 124211049.393 5  96788039.126 5                  23636581.664
  23636598.453                                          32.400          31.800

 122587240.907 5                                  23327597.875
                                                        30.800

 13 10  1 10  8 30.0000000  0 12G10G02R07R23G26G05R08R01R22G29G15G04
 121481150.49314                                  23117053.539
                                                        29.100

 108131384.402 7  84258416.93243                  20576725.945
                  20576731.523                          42.600          21.500

 120001508.697 5                                  22417287.281    22417286.746
                                                        31.800

 104579683.507 8  81339780.115 6                  19550059.992    19550059.672
                  19550066.773                          52.700          36.900

 109977079.370 7  85696311.18443                  20927897.555
                  20927906.309                          42.900          19.000

 108887383.000 7  84847696.570 7                  20720556.414
  20720563.480    20720563.363                          42.900          42.800

 105803915.677 8  82291897.208 5                  19758088.945    19758088.348
                  19758093.039                          52.600          33.800

 114312283.445 7  88909357.245 4                  21384420.094    21384418.184
                  21384428.188                          47.800          26.800

 109106616.292 8  84860762.663 6                  20439334.938    20439333.801
                  20439339.973                          50.000          37.400

 117604839.544 6  91640286.449 5                  22379478.000
  22379486.223    22379486.117                          36.700          35.900

 124100563.646 5  96701947.277 5                  23615556.031
  23615572.633                                          32.300          31.400

 122660274.486 5                                  23341496.203
                                                        30.300

 13 10  1 10  9  0.0000000  0 13G10G02R07R23G26G05R08R01R22G29G15R24
                                G04
 121566820.80315                                  23133355.063
                                                        30.500

 108140928.695 7  84265854.02343                  20578542.109
                  20578548.102                          43.100          20.900

 120100716.916 5                                  22435820.555    22435819.199
                                                        34.400

 104541039.346 8  81309723.558 6                  19542836.047    19542835.727
                  19542842.289                          53.700          36.700

 109892540.287 7  85630436.65943                  20911809.664
                  20911818.566                          42.300          20.400

 108905912.876 7  84862135.438 7                  20724082.711
  20724089.762    20724089.465                          43.000          43.500

 105839488.195 8  82319564.720 5                  19764731.391    19764731.027
                  19764736.000                          51.600          34.300

 114250166.864 8  88861044.425 4                  21372799.500    21372798.410
                  21372807.660                          48.300          27.800

 109192749.419 8  84927755.050 6                  20455470.648    20455469.160
                  20455475.395                          49.200          37.600

 117532685.933 6  91584062.904 6                  22365746.516
  22365754.781    22365755.590                          37.100          37.200

 123990223.987 5  96615969.259 5                  23594559.047
  23594573.535                                          32.200          31.600

 121470333.27516  94476957.82413                  22715565.664    22715565.336
                  22715572.242                          36.500          23.600

 122733498.92215                                  23355430.211
                                                        30.500

 13 10  1 10  9 30.0000000  0 13G10G02R07R23G26G05R08R01R22G29G15R24
                                G04
 121652492.64915                                  23149659.813
                                                        31.500

 108150786.927 7  84273535.78443                  20580417.172
                  20580423.348                          42.600          20.100

 120199905.025 5                                  22454346.016    22454344.895
                                                        32.600

 104503094.361 8  81280210.796 6                  19535742.969    19535741.707
                  19535748.605                          53.000          36.000

 109808461.932 7  85564921.12443                  20895810.875
                  20895819.199                          43.500          19.600

 108924676.676 7  84876756.583 7                  20727652.789
  20727660.734    20727660.703                          43.400          42.200

 105875436.481 8  82347524.473 5                  19771444.914    19771444.434
                  19771448.961                          51.300          33.300

 114188459.019 7  88813049.532 4                  21361255.992    21361254.551
                  21361264.168                          47.500          27.800

 109279426.774 8  84995170.745 6                  20471707.789    20471706.652
                  20471712.723                          49.900          36.800

 117460930.837 6  91528149.890 6                  22352091.648
  22352100.461    22352100.527                          37.000          36.400

 123880020.027 5  96530096.956 5                  23573587.930
  23573601.625                                          32.500          31.800

 121350295.544 6  94383595.358 4                  22693117.055    22693116.258
                  22693123.723                          37.900          24.400

 122806901.18215                                  23369398.227
                                                        30.300

 13 10  1 10 10  0.0000000  0 12G10G02R07R23G26G05R08R01R22G29G15R24
                                                  23165964.898
                                                        28.600

 108160970.144 7  84281470.73843                  20582355.914
                  20582361.648                          42.400          21.700

 120299080.719 5                                  22472870.383    22472872.195
                                                        32.500

 104465860.801 8  81251251.370 6                  19528781.797    19528781.242
                  19528787.840                          53.800          36.200

 109724857.116 7  85499774.58943                  20879900.711
                  20879909.543                          42.500          19.600

 108943683.188 7  84891566.878 7                  20731269.773
  20731276.520    20731276.484                          42.100          42.500

 105911767.792 8  82375782.193 5                  19778229.977    19778229.379
                  19778233.387                          51.700          33.900

 114127170.295 7  88765380.604 4                  21349789.789    21349789.172
                  21349798.402                          47.100          26.600

 109366656.054 8  85063015.698 6                  20488049.227    20488047.738
                  20488053.711                          50.200          36.700

 117389586.864 6  91472557.209 6                  22338515.484
  22338523.781    22338524.258                          37.000          36.000

 123769964.01315  96444339.85715                  23552642.359
  23552658.750                                          31.000          33.100

 121230452.831 6                                  22670705.695    22670705.250
                                                        38.600

 13 10  1 10 10 30.0000000  0 12G10G02R07R23G26G05R08R01R22G29G15R24
 121823869.00514                                  23182274.461
                                                        28.300

 108171482.578 7  84289662.25643                  20584356.992
                  20584361.867                          42.900          21.800

 120398245.145 5                                  22491397.469    22491398.223
                                                        32.600

 104429344.590 8  81222849.885 6                  19521955.805    19521955.367
                  19521962.180                          53.800          36.600

 109641731.825 7  85435001.68243                  20864082.508
                  20864090.723                          43.100          20.900

 108962933.986 7  84906567.508 7                  20734933.172
  20734940.430    20734940.578                          43.300          42.600

 105948482.397 8  82404338.005 5                  19785085.961    19785085.715
                  19785090.324                          51.500          34.000

 114066303.622 7  88718039.957 4                  21338404.164    21338402.371
                  21338411.176                          47.300          28.200

 109454437.693 8  85131290.275 6                  20504493.820    20504493.035
                  20504498.527                          50.800          36.800

 117318658.599 6  91417288.501 6                  22325017.984
  22325026.258    22325027.406                          37.200          37.200

 123660061.626 5  96358702.447 5                  23531729.570
  23531743.855                                          32.000          33.600

 121110811.808 6                                  22648332.711    22648331.211
                                                        38.300

 13 10  1 10 11  0.0000000  0 12G10G02R07R23G26G05R08R01R22G29G15R24
 121909563.76114                                  23198578.742
                                                        29.400

 108182315.035 7  84298103.12643                  20586417.875
                  20586423.016                          43.500          21.700

 120497385.319 6                                  22509922.156    22509921.387
                                                        36.600

 104393537.428 9  81194999.870 5                  19515262.789    19515261.883
                  19515267.984                          54.500          35.800

 109559078.502 7  85370596.54643                  20848354.609
                  20848363.121                          42.000          21.100

 108982417.448 7  84921749.450 7                  20738640.922
  20738648.105    20738647.484                          43.400          42.700

 105985566.822 8  82433181.458 5                  19792011.266    19792010.668
                  19792014.996                          52.300          34.400

 114005848.266 7  88671019.178 4                  21327094.016    21327093.633
                  21327102.477                          47.100          24.200

 109542758.344 8  85199984.056 6                  20521039.367    20521038.348
                  20521043.703                          51.000          36.300

 117248138.683 6  91362337.960 6                  22311598.742
  22311607.879    22311607.340                          36.900          37.300

 123550304.72515  96273178.42915                  23510842.703
  23510857.164                                          31.600          32.500

 120991365.891 6                                  22625994.133    22625993.453
                  22626004.289                          38.400          21.900

 13 10  1 10 11 30.0000000  0 12G10G02R07R23G26G05R08R01R22G29G15R24
 121995270.70314                                  23214885.625
                                                        28.000

 108193481.652 7  84306804.41043                  20588542.594
                  20588547.828                          44.000          22.200

 120596512.542 6                                  22528438.188    22528436.949
                                                        37.400

 104358455.646 9  81167714.030 6                  19508704.672    19508703.883
                  19508710.348                          54.000          36.700

 109476913.265 7  85306571.78743                  20832718.813
                  20832727.070                          43.400          19.900

 109002145.656 7  84937122.099 7                  20742394.703
  20742402.262    20742402.051                          42.600          42.900

 106023031.698 8  82462320.834 5                  19799007.000    19799006.285
                  19799011.098                          51.700          34.300

 113945817.724 8  88624328.886 4                  21315864.086    21315863.938
                  21315872.328                          48.000          28.600

 109631629.212 8  85269105.776 6                  20537687.766    20537687.098
                  20537692.543                          50.900          36.800

 117178042.571 6  91307717.636 6                  22298261.250
  22298268.410    22298269.004                          37.100          37.300

 123440709.174 5  96187780.121 5                  23489984.883
  23490001.152                                          30.500          32.900

 120872132.410 6                                  22603697.563    22603696.648
                                                        39.100

 13 10  1 10 12  0.0000000  0 12G10G02R07R23G26G05R08R01R22G29G15R24
 122080975.84514                                  23231198.453
                                                        28.900

 108204970.154 7  84315756.49343                  20590728.852
                  20590734.375                          43.400          22.000

 120695611.195 6                                  22546948.008    22546948.293
                                                        36.800

 104324088.128 8  81140983.754 6                  19502279.336    19502278.547
                  19502285.180                          53.800          36.500

 109395225.689 7  85242919.17743                  20817174.078
                  20817182.238                          42.900          19.600

 109022103.601 7  84952673.762 7                  20746192.773
  20746199.742    20746199.727                          42.500          42.600

 106060860.736 8  82491743.424 5                  19806071.688    19806070.855
                  19806075.523                          51.300          33.800

 113886198.162 7  88577958.172 4                  21304711.641    21304710.434
                  21304718.887                          47.800          29.000

 109721033.936 8  85338642.753 6                  20554436.500    20554435.598
                  20554441.465                          51.600          36.500

 117108358.820 6  91253418.647 6                  22285000.172
  22285007.254    22285008.918                          38.100          36.700

 123331264.03015  96102498.93615                  23469159.734
  23469174.082                                          32.000          33.400

 120753101.620 6                                  22581438.367    22581437.922
                                                        38.900

 13 10  1 10 12 30.0000000  0 12G10G02R07R23G26G05R08R01R22G29G15R24
 122166682.96114                                  23247506.063
                                                        29.400

 108216786.899 7  84324964.35543                  20592977.273
                  20592982.844                          42.800          21.300

 120794684.396 6                                  22565456.039    22565456.559
                                                        37.400

 104290442.785 9  81114815.182 6                  19495989.617    19495990.000
                  19495996.578                          54.100          36.400

 109314023.787 7  85179645.05643                  20801722.109
                  20801730.164                          42.200          19.900

 109042295.359 7  84968407.613 7                  20750035.008
  20750041.598    20750042.039                          43.000          42.000

 106099056.162 8  82521450.983 5                  19813204.703    19813203.516
                  19813207.926                          51.200          33.800

 113826994.603 7  88531911.056 4                  21293635.625    21293633.949
                  21293643.098                          47.600          27.000

 109810975.107 8  85408596.928 6                  20571285.547    20571284.410
                  20571290.055                          51.700          36.800

 117039095.108 6  91199446.930 6                  22271820.211
  22271827.152    22271827.883                          37.500          36.300

 123221977.152 5  96017341.078 5                  23448362.117
  23448376.617                                          32.400          33.100

 120634282.516 6  93826684.75813                  22559217.664    22559218.156
                  22559224.598                          38.600          22.100

 13 10  1 10 13  0.0000000  0 12G10G02R07R23G26G05R08R01R22G29G15R24
 122252397.66114                                  23263820.719
                                                        29.600

 108228939.529 7  84334433.94743                  20595290.000
                  20595295.664                          43.000          22.200

 120893736.500 6                                  22583960.172    22583959.285
                                                        38.200

 104257528.419 9  81089215.119 6                  19489837.008    19489836.336
                  19489842.742                          54.500          36.400

 109233316.915 7  85116756.65143                  20786363.664
                  20786371.832                          42.400          20.100

 109062725.824 7  84984327.473 7                  20753922.539
  20753929.773    20753930.063                          42.900          43.200

 106137621.933 8  82551446.599 5                  19820405.914    19820405.434
                  19820410.059                          51.800          34.600

 113768213.632 7  88486192.630 4                  21282639.219    21282638.484
                  21282647.309                          47.300          27.600

 109901456.652 8  85478971.407 6                  20588235.766    20588234.512
                  20588240.629                          51.600          37.300

 116970260.450 6  91145809.545 6                  22258720.609
  22258728.547    22258728.484                          38.000          38.100

 123112857.720 5  95932313.663 5                  23427596.250
  23427610.734                                          33.000          33.100

 120515685.871 6  93734442.944 3                  22537039.203    22537038.992
                  22537046.578                          39.200          22.300

 13 10  1 10 13 30.0000000  0 12G10G02R07R23G26G05R08R01R22G29G15R24
 122338109.03314                                  23280127.141
                                                        29.400

 108241419.598 7  84344158.68243                  20597664.477
                  20597670.324                          42.500          21.100

 120992755.253 5                                  22602457.211    22602456.910
                                                        35.000

 104225337.618 9  81064177.857 6                  19483818.906    19483818.234
                  19483824.609                          54.000          37.000

 109153098.282 7  85054248.68543                  20771099.109
                  20771106.586                          42.500          20.900

 109083384.077 7  85000424.828 7                  20757854.336
  20757861.141    20757860.879                          43.100          43.400

 106176545.480 8  82581720.496 5                  19827675.094    19827674.379
                  19827678.859                          51.700          35.000

 113709845.574 7  88440795.297 4                  21271720.430    21271719.578
                  21271728.301                          47.200          29.200

 109992466.202 8  85549756.553 6                  20605284.906    20605284.004
                  20605289.535                          51.600          37.600

 116901847.594 6  91092500.867 6                  22245701.813
  22245710.527    22245711.316                          37.400          40.200

 123003898.232 5  95847410.870 5                  23406862.516
  23406876.535                                          32.600          33.600

 120397305.594 6  93642369.541 4                  22514901.898    22514901.805
                  22514908.859                          39.700          25.500

 13 10  1 10 14  0.0000000  0 12G10G02R07R23G26G05R08R01R22G29G15R24
 122423822.55215                                  23296440.164
                                                        30.100

 108254234.702 7  84354144.47043                  20600103.805
                  20600108.961                          42.100          20.100

 121091745.876 5                                  22620952.141    22620950.313
                                                        35.800

 104193879.780 8  81039710.653 6                  19477937.750    19477937.313
                  19477943.758                          53.800          36.300

 109073377.333 7  84992128.55243                  20755927.883
                  20755936.676                          42.000          19.600

 109104275.241 7  85016703.692 7                  20761829.039
  20761836.652    20761836.398                          42.900          42.600

 106215830.580 8  82612275.575 5                  19835010.547    19835010.418
                  19835014.930                          51.300          32.600

 113651896.662 7  88395724.025 4                  21260879.813    21260878.723
                  21260887.625                          47.500          27.400

 110084007.545 8  85620955.307 6                  20622434.297    20622433.277
                  20622438.781                          53.000          37.100

 116833865.232 6  91039527.659 6                  22232765.586
  22232773.891    22232775.242                          37.900          38.300

 122895107.622 5  95762639.615 5                  23386159.570
  23386173.129                                          33.800          31.800

 120279152.351 6  93550472.660 4                  22492807.164    22492807.070
                  22492812.773                          40.600          24.300

 13 10  1 10 14 30.0000000  0 12G10G02R07R23G26G05R08R01R22G29G15R24
 122509531.22715                                  23312749.172
                                                        30.300

 108267379.962 7  84364387.51643                  20602604.781
                  20602610.488                          42.000          20.600

 121190699.947 6                                  22639436.188    22639435.066
                                                        37.900

 104163150.965 8  81015810.461 6                  19472193.617    19472192.945
                  19472199.621                          53.700          37.400

 108994151.019 7  84930393.80843                  20740851.922
                  20740860.074                          42.500          20.100

 109125392.327 7  85033158.582 7                  20765847.688
  20765854.988    20765855.355                          42.300          42.800

 106255468.441 8  82643105.034 5                  19842412.992    19842412.746
                  19842416.852                          51.100          33.000

 113594360.695 7  88350973.920 4                  21250117.164    21250115.605
                  21250124.211                          47.300          28.300

 110176072.047 8  85692560.978 6                  20639680.617    20639679.480
                  20639685.242                          52.600          37.400

 116766309.785 6  90986887.074 6                  22219910.609
  22219918.609    22219918.949                          38.300          39.400

 122786482.728 5  95677997.476 5                  23365488.008
  23365501.875                                          34.000          34.000

 120161224.215 6  93458750.908 3                  22470753.453    22470753.594
                  22470759.094                          40.800          23.000

 13 10  1 10 15  0.0000000  0 12G10G02R07R23G26G05R08R01R22G29G15R24
                                                  23329059.656
                                                        28.600

 108280861.408 6  84374892.54943                  20605170.672
                  20605176.410                          40.700          21.300

 121289620.307 6                                  22657916.289    22657915.051
                                                        40.100

 104133158.731 8  80992483.188 6                  19466586.813    19466586.141
                  19466592.508                          53.100          36.000

 108915426.956 7  84869050.44343                  20725871.109
                  20725879.336                          42.400          21.100

 109146739.122 7  85049792.473 7                  20769909.258
  20769917.141    20769917.320                          43.200          42.900

 106295461.218 8  82674210.533 5                  19849881.938    19849880.750
                  19849885.117                          51.400          32.000

 113537242.508 8  88306548.753 4                  21239431.617    21239430.293
                  21239439.121                          48.400          29.100

 110268661.815 8  85764575.189 6                  20657025.953    20657024.816
                  20657031.184                          52.700          37.600

 116699188.433 6  90934584.794 6                  22207136.906
  22207145.426    22207145.605                          37.900          37.600

 122678030.833 5  95593490.116 5                  23344850.758
  23344863.559                                          34.100          34.400

 120043530.102 6                                  22448744.242    22448743.328
                                                        40.700

 13 10  1 10 15 30.0000000  0 12G10G02R07R23G26G05R08R01R22G29G15R24
 122680941.09914                                  23345366.234
                                                        29.600

 108294677.469 6  84385658.29443                  20607799.039
                  20607805.523                          40.600          19.900

 121388502.582 6                                  22676388.906    22676388.371
                                                        40.900

 104103902.174 8  80969728.110 5                  19461117.453    19461117.484
                  19461123.547                          53.300          35.900

 108837205.328 7  84808098.58643                  20710985.758
                  20710994.359                          42.600          21.500

 109168310.785 7  85066601.573 7                  20774014.672
  20774022.117    20774022.121                          43.000          42.000

 106335803.202 8  82705587.656 5                  19857415.031    19857413.965
                  19857418.668                          51.800          31.900

 113480539.116 7  88262446.198 4                  21228824.477    21228822.566
                  21228831.598                          47.700          27.000

 110361771.601 8  85836993.856 6                  20674468.703    20674467.566
                  20674473.273                          53.500          37.400

 116632500.978 6  90882620.577 6                  22194446.922
  22194455.305    22194455.797                          39.300          38.300

 122569752.029 5  95509117.624 5                  23324245.219
  23324258.293                                          33.700          34.700

 119926071.099 6  93275845.23114                  22426779.359    22426777.508
                  22426783.250                          39.800          24.500

 13 10  1 10 16  0.0000000  0 12G10G02R07R23G26G05R08R01R22G29G15R24
                                                  23361671.797
                                                        28.600

 108308821.049 6  84396679.28243                  20610491.836
                  20610496.152                          41.600          20.600

 121487336.372 6                                  22694849.883    22694849.465
                                                        40.400

 104075376.039 8  80947541.123 6                  19455785.203    19455784.531
                  19455791.020                          53.200          36.000

 108759480.831 7  84747534.10343                  20696195.609
                  20696205.098                          42.100          22.000

 109190098.545 7  85083579.074 7                  20778160.906
  20778168.168    20778167.887                          43.200          42.200

 106376483.462 8  82737227.872 5                  19865011.930    19865011.215
                  19865015.309                          51.100          32.800

 113424241.848 8  88218659.529 4                  21218291.820    21218290.852
                  21218300.605                          48.500          26.800

 110455390.477 8  85909808.474 6                  20692007.070    20692005.816
                  20692011.699                          53.000          37.000

 116566241.073 6  90830989.508 6                  22181838.781
  22181846.242    22181846.680                          38.300          37.900

 122461640.607 5  95424875.531 5                  23303671.227
  23303685.250                                          33.200          34.400

 119808843.154 6  93184668.087 4                  22404856.883    22404855.617
                  22404861.734                          40.100          26.800

 13 10  1 10 16 30.0000000  0 13G09G10G02R07R23G26G05R08R01R22G29G15
                                R24
 126409031.12615                                  24054838.508
                                                        34.100

 122852326.01914                                  23377981.000
                                                        29.600

 108323315.562 7  84407973.71343                  20613249.500
                  20613255.277                          42.100          22.200

 121586142.344 6                                  22713308.938    22713308.051
                                                        41.000

 104047605.025 8  80925941.451 6                  19450593.539    19450592.750
                  19450599.727                          53.400          37.000

 108682278.572 7  84687376.56943                  20681503.961
                  20681512.902                          43.200          21.100

 109212123.429 7  85100741.340 7                  20782352.641
  20782359.414    20782360.176                          43.400          42.900

 106417522.056 8  82769146.808 5                  19872675.547    19872674.949
                  19872679.422                          51.300          33.300

 113368373.673 8  88175206.591 4                  21207840.211    21207839.242
                  21207848.949                          48.000          28.100

 110549538.128 8  85983034.370 6                  20709643.797    20709642.426
                  20709648.551                          53.200          38.800

 116500433.875 6  90779711.207 6                  22169316.078
  22169324.113    22169324.438                          38.600          38.100

 122353721.141 5  95340783.024 5                  23283134.297
  23283148.105                                          33.300          33.500

 119691872.812 6  93093691.287 4                  22382982.828    22382980.625
                  22382987.527                          40.400          26.500

 13 10  1 10 17  0.0000000  0 13G09G10G02R07R23G26G05R08R01R22G29G15
                                R24
 126349304.815 5                                  24043471.633
                                                        33.500

                                                  23394286.195
                                                        29.100

 108338147.352 7  84419530.94243                  20616071.375
                  20616077.074                          43.200          20.600

 121684903.539 6                                  22731758.000    22731758.051
                                                        41.100

 104020576.083 8  80904918.937 6                  19445541.047    19445539.785
                  19445546.824                          53.400          36.700

 108605586.354 7  84627616.46043                  20666910.063
                  20666919.035                          42.400          20.600

 109234369.241 7  85118075.760 7                  20786585.742
  20786592.398    20786592.414                          42.200          42.000

 106458900.848 8  82801330.333 5                  19880402.320    19880401.488
                  19880406.191                          51.300          32.900

 113312918.804 8  88132075.095 4                  21197466.734    21197465.527
                  21197474.887                          48.100          28.300

 110644196.622 8  86056657.607 6                  20727376.219    20727375.551
                  20727381.813                          53.300          37.400

 116435066.515 6  90728775.660 6                  22156876.352
  22156884.445    22156884.586                          38.400          38.800

 122245981.414 5  95256830.518 5                  23262631.055
  23262644.227                                          32.200          32.500

 119575149.375 6  93002906.477 4                  22361153.984    22361153.305
                  22361158.449                          41.300          27.300

 13 10  1 10 17 30.0000000  0 13G09G10G02R07R23G26G05R08R01R22G29G15
                                R24
 126289878.327 5                                  24032163.305
                                                        31.300

                                                  23410588.953
                                                        26.400

 108353314.259 7  84431349.33643                  20618958.195
                  20618963.129                          42.600          20.900

 121783614.649 6                                  22750197.195    22750197.480
                                                        39.100

 103994288.441 8  80884472.991 6                  19440626.883    19440626.328
                  19440633.137                          53.000          36.400

 108529403.965 7  84568253.59343                  20652413.305
                  20652421.133                          43.100          20.900

 109256831.387 7  85135578.757 6                  20790859.656
  20790866.836    20790867.211                          42.800          41.600

 106500613.945 8  82833773.853 5                  19888191.938    19888192.043
                  19888196.242                          51.000          33.700

 113257873.839 8  88089262.439 4                  21187169.578    21187168.727
                  21187176.922                          48.800          26.100

 110739360.036 8  86130673.531 6                  20745203.523    20745202.855
                  20745209.199                          53.400          37.100

 116370138.229 6  90678182.243 6                  22144520.703
  22144529.641    22144529.938                          40.200          38.200

 122138420.889 5  95173017.652 5                  23242164.094
  23242176.500                                          32.600          33.500

 119458673.221 6  92912314.028 4                  22339372.586    22339371.789
                  22339376.801                          40.400          25.900

 13 10  1 10 18  0.0000000  0 13G09G10G02R07R23G26G05R08R01R22G29G15
                                R24
 126230763.032 4                                  24020912.625
                                                        29.400

 123109358.36514                                  23426892.477
                                                        27.600

 108368825.401 6  84443435.91743                  20621909.633
                  20621915.152                          40.900          21.700

 121882282.060 6                                  22768630.445    22768629.207
                                                        37.600

 103968752.298 8  80864611.557 6                  19435853.406    19435851.910
                  19435858.727                          52.800          36.700

 108453742.136 7  84509296.38443                  20638015.148
                  20638023.238                          42.600          21.300

 109279516.755 7  85153255.682 7                  20795176.180
  20795183.523    20795183.672                          42.400          42.600

 106542666.877 8  82866481.721 5                  19896045.070    19896044.941
                  19896049.344                          51.500          33.400

 113203247.007 8  88046774.990 4                  21176950.789    21176949.113
                  21176957.684                          48.300          25.800

 110835033.874 8  86205086.473 6                  20763126.383    20763125.246
                  20763131.676                          52.800          37.500

 116305659.288 6  90627938.956 6                  22132251.367
  22132259.125    22132259.465                          38.500          38.400

 122031050.241 5  95089352.703 5                  23221732.094
  23221743.352                                          34.700          34.200

 119342456.891 6  92821923.605 4                  22317638.945    22317637.680
                  22317643.910                          39.400          24.800

 13 10  1 10 18 30.0000000  0 13G09G10G02R07R23G26G05R08R01R22G29G15
                                R24
 126171955.51215                                  24009725.016
                                                        31.200

 123195014.99914                                  23443191.688
                                                        28.600

 108384675.559 6  84455786.69343                  20624925.469
                  20624931.480                          41.800          22.300

 121980897.277 5                                  22787050.563    22787049.793
                                                        34.700

 103943963.177 8  80845331.120 6                  19431219.102    19431218.195
                  19431224.637                          53.700          37.100

 108378597.109 7  84450741.87743                  20623714.781
                  20623723.680                          43.600          20.600

 109302417.645 7  85171100.542 7                  20799534.156
  20799541.809    20799541.313                          42.100          42.200

 106585050.084 8  82899446.443 5                  19903959.977    19903959.965
                  19903964.316                          51.700          33.600

 113149031.165 8  88004607.180 4                  21166808.102    21166807.250
                  21166815.652                          48.400          27.100

 110931208.366 8  86279888.781 6                  20781142.758    20781142.207
                  20781148.320                          52.100          36.800

 116241625.693 6  90578042.706 6                  22120066.109
  22120074.152    22120074.516                          37.300          37.800

 121923865.139 5  95005832.370 5                  23201335.203
  23201346.660                                          35.700          34.700

 119226497.605 6  92731733.137 4                  22295954.516    22295953.484
                  22295958.645                          41.700          25.600

 13 10  1 10 19  0.0000000  0 13G09G10G02R07R23G26G05R08R01R22G29G15
                                R24
 126113463.130 5                                  23998593.203
                                                        32.200

 123280661.81914                                  23459490.742
                                                        29.600

 108400869.635 7  84468405.43643                  20628007.602
                  20628012.891                          43.400          22.900

 122079462.879 5                                  22805463.477    22805464.465
                                                        31.800

 103919927.761 8  80826636.910 6                  19426725.563    19426725.008
                  19426731.516                          53.200          36.200

 108303975.688 7  84392595.38743                  20609515.945
                  20609523.879                          43.900          20.100

 109325536.986 7  85189115.633 6                  20803933.852
  20803940.879    20803940.711                          42.700          41.700

 106627765.146 8  82932669.294 5                  19911937.078    19911936.480
                  19911940.879                          51.200          33.100

 113095230.078 8  87962761.982 4                  21156743.633    21156742.543
                  21156750.809                          48.400          29.000

 111027885.103 8  86355081.737 6                  20799254.352    20799253.449
                  20799259.215                          52.200          36.500

 116178043.342 6  90528498.045 6                  22107967.328
  22107974.766    22107974.500                          37.300          37.800

 121816872.394 6  94922461.897 5                  23180974.906
  23180986.805                                          37.000          34.800

 119110803.884 7  92641749.213 4                  22274320.633    22274318.898
                  22274324.059                          42.100          27.800

 13 10  1 10 19 30.0000000  0 12G09G10G02R23G26G05R08R01R22G29G15R24
 126055286.999 5                                  23987522.930
                                                        33.300

 123366296.15814                                  23475785.961
                                                        29.600

 108417407.183 7  84481291.84043                  20631154.727
                  20631159.469                          43.500          23.300

 103896645.734 8  80808528.676 6                  19422373.406    19422372.852
                  19422378.879                          53.700          37.700

 108229878.864 7  84334857.65243                  20595414.820
                  20595423.047                          44.200          21.800

 109348871.620 6  85207298.473 7                  20808374.203
  20808381.078    20808381.426                          40.800          42.700

 106670807.385 8  82966146.605 5                  19919974.484    19919974.004
                  19919977.938                          51.300          34.100

 113041841.656 7  87921237.715 4                  21146755.680    21146754.945
                  21146763.492                          47.400          27.800

 111125059.292 8  86430661.589 6                  20817458.055    20817457.152
                  20817463.520                          51.900          37.700

 116114912.896 6  90479305.528 6                  22095953.328
  22095961.477    22095961.500                          38.800          38.000

 121710072.761 6  94839241.884 5                  23160650.695
  23160662.559    23160661.680                          36.300          35.400

 118995377.869 7  92551973.515 4                  22252734.875    22252734.547
                  22252739.031                          43.400          29.600

 13 10  1 10 20  0.0000000  0 12G09G10G02R23G26G05R08R01R22G29G15R24
 125997432.418 5                                  23976514.141
                                                        31.300

 123451918.82314                                  23492079.602
                                                        29.100

 108434290.987 7  84494448.06543                  20634367.039
                  20634372.688                          42.900          21.500

 103874121.366 9  80791009.729 6                  19418162.836    19418162.164
                  19418168.793                          54.100          36.500

 108156311.303 7  84277532.34043                  20581415.953
                  20581423.754                          44.100          22.300

 109372422.243 7  85225649.633 7                  20812855.977
  20812863.035    20812862.715                          42.500          42.000

 106714176.062 8  82999877.834 5                  19928073.227    19928073.449
                  19928077.629                          51.200          34.400

 112988867.876 7  87880036.007 4                  21136845.758    21136844.668
                  21136854.105                          47.500          28.500

 111222730.181 8  86506627.769 6                  20835755.219    20835754.906
                  20835760.500                          51.900          36.900

 116052238.690 6  90430468.516 6                  22084027.313
  22084033.984    22084034.156                          39.500          38.300

 121603470.916 6  94756175.950 5                  23140364.461
  23140375.961    23140376.527                          36.600          34.100

 118880225.556 7  92462410.722 4                  22231200.039    22231200.414
                  22231205.199                          43.400          27.900

 13 10  1 10 20 30.0000000  0 13G09G10G02R07R23G26G05R08R01R22G29G15
                                R24
 125939902.596 5                                  23965565.125
                                                        31.800

                                                  23508371.234
                                                        28.300

 108451522.381 7  84507875.11443                  20637646.258
                  20637651.418                          43.600          21.700

                                                  22860652.852    22860649.617
                                                        31.500

 103852356.977 8  80774081.870 6                  19414094.430    19414093.758
                  19414100.363                          53.700          36.100

 108083275.692 7  84220621.51643                  20567517.547
                  20567525.645                          43.800          20.600

 109396187.866 6  85244168.324 6                  20817377.891
  20817384.961    20817385.340                          41.600          41.600

 106757868.504 8  83033860.845 5                  19936233.125    19936232.176
                  19936236.211                          51.700          33.400

 112936308.322 7  87839156.406 4                  21127012.820    21127011.027
                  21127021.109                          47.300          27.400

 111320894.783 8  86582977.946 6                  20854145.305    20854144.520
                  20854150.668                          50.900          37.000

 115990023.055 6  90381988.859 6                  22072187.391
  22072195.828    22072195.336                          40.500          37.700

 121497069.502 6  94673266.203 5                  23120117.547
  23120127.613    23120129.719                          37.100          34.800

 118765351.416 7  92373064.260 4                  22209719.195    22209717.930
                  22209723.039                          42.800          27.100

 13 10  1 10 21  0.0000000  0 13G09G10G02R07R23G26G05R08R01R22G29G15
                                R24
 125882695.903 5                                  23954677.539
                                                        30.500

 123623121.95014                                  23524659.422
                                                        29.100

 108469097.857 7  84521570.29343                  20640990.563
                  20640995.664                          42.600          21.300

 122473198.85215                                  22879018.578    22879016.164
                                                        35.700

 103831349.455 9  80757742.693 6                  19410167.211    19410166.422
                  19410173.016                          54.100          36.100

 108010770.084 7  84164123.68343                  20553719.883
                  20553728.508                          44.700          21.300

 109420162.446 7  85262849.813 7                  20821940.367
  20821947.664    20821947.898                          42.100          42.200

 106801877.120 8  83068089.795 5                  19944450.836    19944450.590
                  19944454.840                          51.800          32.900

 112884157.578 7  87798594.811 4                  21117257.172    21117255.730
                  21117264.914                          47.200          26.300

 111419545.350 8  86659706.116 6                  20872625.406    20872625.094
                  20872631.324                          50.500          36.900

 115928263.295 6  90333864.404 6                  22060434.883
  22060442.938    22060442.719                          39.400          37.600

 121390866.031 6  94590510.664 5                  23099906.383
  23099918.617    23099920.840                          37.200          35.400

 118650754.572 7  92283933.500 4                  22188286.883    22188287.258
                  22188292.273                          42.100          26.200

 13 10  1 10 21 30.0000000  0 12G09G02R07R23G26G05R08R01R22G29G15R24
 125825821.67215                                  23943858.406
                                                        31.800

 108487024.181 7  84535538.82843                  20644401.984
                  20644407.082                          43.100          22.000

 122571483.602 5                                  22897374.484    22897375.355
                                                        32.600

 103811106.923 8  80741998.500 6                  19406382.758    19406382.672
                  19406389.699                          53.800          36.400

 107938802.905 7  84108045.43543                  20540025.484
                  20540032.859                          44.600          21.800

 109444350.495 7  85281697.663 7                  20826544.008
  20826550.777    20826550.844                          42.600          42.500

 106846205.258 8  83102567.254 5                  19952728.563    19952728.551
                  19952732.723                          51.600          32.600

 112832421.732 7  87758355.871 4                  21107578.633    21107578.133
                  21107587.043                          47.600          27.000

 111518685.368 8  86736814.963 6                  20891197.891    20891196.520
                  20891202.730                          50.600          36.700

 115866967.510 6  90286101.506 6                  22048770.195
  22048778.520    22048778.758                          39.600          37.700

 121284869.128 6  94507916.103 5                  23079736.367
  23079747.875    23079750.063                          38.600          35.500

 118536444.899 7  92195026.104 4                  22166911.125    22166909.508
                  22166915.426                          42.200          25.900

 13 10  1 10 22  0.0000000  0 12G09G02R07R23G26G05R08R01R22G29G15R24
 125769280.739 5                                  23933099.000
                                                        31.000

 108505300.364 7  84549780.01643                  20647880.125
                  20647885.391                          42.300          20.900

 122669706.975 5                                  22915723.398    22915722.160
                                                        33.900

 103791629.005 8  80726848.995 6                  19402741.273    19402740.602
                  19402747.355                          53.000          36.300

 107867374.990 7  84052387.36043                  20526433.070
                  20526440.727                          44.700          21.700

 109468749.061 7  85300709.551 7                  20831185.945
  20831192.926    20831193.035                          43.000          42.600

 106890848.239 8  83137289.576 5                  19961065.594    19961064.762
                  19961069.016                          51.700          33.200

 112781098.183 7  87718437.648 4                  21097977.758    21097976.789
                  21097984.906                          47.600          27.200

 111618309.550 8  86814300.396 6                  20909860.867    20909860.199
                  20909866.473                          50.000          37.100

 115806136.023 6  90238700.400 6                  22037194.203
  22037202.508    22037203.098                          39.200          38.300

 121179079.328 6  94425482.910 5                  23059603.539
  23059615.570    23059618.195                          37.900          35.900

 118422425.043 7  92106344.053 4                  22145588.008    22145587.680
                  22145592.344                          42.600          28.000

 13 10  1 10 22 30.0000000  0 12G09G02R07R23G26G05R08R01R22G29G15R24
 125713077.174 5                                  23922401.867
                                                        32.200

 108523928.254 7  84564295.23543                  20651424.523
                  20651430.055                          43.100          20.900

 122767868.497 5                                  22934061.617    22934062.020
                                                        35.300

 103772918.807 8  80712296.628 5                  19399243.898    19399243.578
                  19399250.363                          53.600          35.800

 107796489.743 7  83997152.14943                  20512943.836
                  20512952.164                          44.300          21.500

 109493357.922 7  85319885.305 6                  20835869.234
  20835875.816    20835875.934                          43.600          41.800

 106935804.113 8  83172255.287 5                  19969460.109    19969460.449
                  19969465.027                          51.200          31.900

 112730187.306 7  87678840.345 4                  21088454.570    21088453.246
                  21088461.879                          47.700          25.200

 111718415.897 8  86892160.793 6                  20928614.469    20928612.980
                  20928619.379                          49.900          36.400

 115745771.952 6  90191663.501 6                  22025707.500
  22025715.570    22025716.016                          40.200          37.900

 121073499.617 6  94343213.387 5                  23039513.406
  23039523.262    23039526.789                          38.400          34.200

 118308699.849 7  92017891.229 4                  22124320.680    22124320.117
                  22124326.234                          42.800          27.000

 13 10  1 10 23  0.0000000  0 12G09G02R07R23G26G05R08R01R22G29G15R24
 125657212.647 5                                  23911771.641
                                                        32.400

 108542907.595 7  84579084.33343                  20655036.102
                  20655041.762                          43.400          21.100

 122865964.922 5                                  22952387.242    22952386.121
                                                        33.600

 103754976.690 8  80698341.650 6                  19395889.797    19395890.063
                  19395895.992                          53.600          36.300

 107726148.450 7  83942340.79243                  20499557.906
                  20499566.121                          43.900          21.100

 109518174.259 7  85339222.726 6                  20840591.438
  20840598.633    20840598.414                          43.500          41.800

 106981068.794 8  83207461.142 5                  19977913.109    19977913.098
                  19977917.574                          51.200          31.900

 112679687.485 8  87639562.780 4                  21079007.570    21079005.660
                  21079013.957                          48.100          27.000

 111819000.088 8  86970392.889 5                  20947456.742    20947455.840
                  20947461.813                          49.500          35.600

 115685875.882 6  90144991.275 6                  22014310.078
  22014317.406    22014318.113                          38.700          37.700

 120968131.430 6  94261108.668 5                  23019462.484
  23019472.523    23019471.328                          39.200          33.800

 118195272.089 7  91929669.712 4                  22103108.172    22103107.727
                  22103113.898                          42.200          28.200

 13 10  1 10 23 30.0000000  0 12G09G02R07R23G26G05R08R01R22G29G15R24
 125601693.737 5                                  23901206.609
                                                        32.800

 108562242.951 7  84594150.83443                  20658716.078
                  20658721.262                          42.800          20.600

 122963998.381 5                                  22970699.078    22970698.191
                                                        32.000

 103737808.082 8  80684988.301 5                  19392680.047    19392679.844
                  19392686.355                          53.700          35.800

 107656357.198 7  83887958.06343                  20486277.219
                  20486285.305                          42.900          20.900

 109543200.400 7  85358723.623 6                  20845353.828
  20845361.039    20845360.570                          42.900          41.400

 107026643.124 8  83242907.838 5                  19986424.820    19986424.457
                  19986428.730                          51.300          32.600

 112629601.835 8  87600607.360 4                  21069638.023    21069636.934
                  21069644.871                          48.500          26.600

 111920062.451 8  87048996.856 5                  20966389.750    20966388.613
                  20966394.629                          50.300          35.400

 115626453.525 6  90098688.170 6                  22003001.961
  22003009.980    22003010.113                          39.200          37.700

 120862980.959 6  94179173.583 5                  22999452.516
  22999462.266    22999463.602                          38.700          33.300

 118082149.394 6  91841685.477 4                  22081954.625    22081953.242
                  22081959.293                          41.400          29.100

 13 10  1 10 24  0.0000000  0 12G09G02R07R23G26G05R08R01R22G29G15R24
 125546517.141 5                                  23890706.875
                                                        33.700

 108581928.765 7  84609490.42743                  20662461.586
                  20662466.918                          43.500          21.300

 123061960.241 5                                  22988996.406    22988997.160
                                                        31.900

 103721407.789 8  80672232.524 5                  19389614.141    19389613.820
                  19389620.219                          53.500          35.300

 107587112.008 7  83834000.84343                  20473100.438
                  20473109.066                          43.400          21.100

 109568428.846 7  85378382.164 6                  20850154.352
  20850161.617    20850161.586                          43.200          41.300

 107072517.779 8  83278588.167 5                  19994991.633    19994991.152
                  19994994.215                          51.600          32.400

 112579923.088 7  87561968.390 4                  21060343.406    21060342.672
                  21060351.320                          47.100          25.600

 112021593.692 8  87127965.519 5                  20985409.789    20985409.711
                  20985415.332                          49.100          35.900

 115567500.722 6  90052750.974 6                  21991783.906
  21991790.953    21991791.418                          38.500          37.700

 120758044.260 6  94097405.100 5                  22979482.859
  22979492.625    22979494.355                          38.700          34.800

 117969329.508 6  91753936.757 4                  22060856.125    22060855.797
                  22060861.660                          41.300          29.700

 13 10  1 10 24 30.0000000  0 12G09G02R07R23G26G05R08R01R22G29G15R24
 125491686.835 5                                  23880273.703
                                                        35.200

 108601967.421 7  84625104.96843                  20666274.844
                  20666280.191                          43.000          21.800

 123159849.967 5                                  23007289.469    23007288.699
                                                        34.800

 103705779.114 8  80660076.889 6                  19386693.164    19386692.137
                  19386698.645                          53.900          36.400

 107518416.579 7  83780471.98043                  20460027.516
                  20460036.535                          42.600          21.500

 109593859.125 7  85398197.980 7                  20854993.992
  20855000.570    20855000.508                          43.000          42.000

 107118691.064 8  83314500.761 5                  20003613.672    20003613.309
                  20003617.641                          51.200          34.000

 112530652.118 7  87523646.595 4                  21051126.547    21051125.578
                  21051134.098                          47.600          27.600

 112123591.833 8  87207297.355 6                  21004518.438    21004516.832
                  21004522.668                          49.000          36.400

 115509020.588 6  90007182.079 6                  21980655.336
  21980663.957    21980663.617                          38.800          38.400

 120653325.136 6  94015806.121 5                  22959554.492
  22959565.285    22959567.438                          38.000          35.500

 117856817.571 7  91666427.585 4                  22039815.539    22039814.977
                  22039821.203                          42.700          27.200

 13 10  1 10 25  0.0000000  0 11G09G02R23G26G05R08R01R22G29G15R24
 125437207.361 5                                  23869905.586
                                                        34.500

 108622361.237 7  84640996.25943                  20670155.992
                  20670161.340                          43.200          22.300

 103690924.759 8  80648523.499 6                  19383915.945    19383915.391
                  19383921.645                          53.300          37.700

 107450274.779 7  83727374.51143                  20447061.414
                  20447069.004                          43.300          22.200

 109619491.872 7  85418171.560 7                  20859871.406
  20859879.160    20859879.270                          42.400          43.200

 107165161.858 8  83350644.703 5                  20012291.961    20012291.598
                  20012295.570                          51.400          33.700

 112481789.701 8  87485642.548 4                  21041986.305    21041984.980
                  21041992.773                          48.300          27.700

 112226055.090 8  87286990.914 6                  21023713.414    21023711.926
                  21023717.902                          49.000          36.900

 115451016.517 6  89961984.145 6                  21969617.227
  21969624.984    21969625.609                          38.400          38.900

 120548827.022 6  93934379.363 6                  22939669.211
  22939680.313    22939682.359                          37.600          36.100

 117744619.324 7  91579162.309 4                  22018835.883    22018834.852
                  22018839.168                          43.300          29.400

 13 10  1 10 25 30.0000000  0 12G09G02R07R23G26G05R08R01R22G29G15R24
 125383082.500 5                                  23859606.125
                                                        35.400

 108643111.499 7  84657165.28143                  20674104.484
                  20674110.016                          43.900          20.900

 123355412.153 5                                  23043819.453    23043818.098
                                                        33.000

 103676847.191 8  80637574.306 5                  19381284.125    19381283.219
                  19381289.691                          53.000          35.800

 107382689.803 7  83674710.95343                  20434200.344
                  20434208.285                          44.300          21.700

 109645326.480 7  85438302.432 7                  20864787.164
  20864795.324    20864795.609                          42.300          42.900

 107211928.076 8  83387018.448 5                  20021025.039    20021025.379
                  20021029.289                          51.900          33.500

 112433335.920 8  87447956.346 4                  21032921.750    21032920.309
                  21032928.930                          48.000          28.500

 112328981.168 8  87367044.448 5                  21042994.406    21042993.977
                  21042999.430                          49.200          35.300

 115393491.390 6  89917159.421 6                  21958670.930
  21958678.582    21958678.832                          38.800          37.600

 120444553.006 6  93853127.237 5                  22919826.156
  22919837.672    22919839.684                          36.900          34.200

 117632739.634 7  91492144.849 4                  21997912.453    21997912.008
                  21997917.250                          43.900          28.300

 13 10  1 10 26  0.0000000  0 12G09G02R07R23G26G05R08R01R22G29G15R24
 125329315.813 6                                  23849375.195
                                                        36.000

 108664220.100 7  84673613.52843                  20678121.445
                  20678126.340                          43.200          22.300

 123453082.498 5                                  23062064.523    23062063.988
                                                        32.800

 103663548.423 8  80627230.805 6                  19378798.297    19378797.742
                  19378804.363                          53.500          37.100

 107315664.601 7  83622483.57543                  20421445.844
                  20421453.969                          43.800          22.300

 109671362.258 7  85458590.072 7                  20869742.375
  20869749.004    20869749.336                          42.600          43.100

 107258987.287 8  83423620.089 5                  20029813.156    20029812.207
                  20029816.836                          51.100          33.000

 112385291.085 8  87410588.222 4                  21023933.813    21023932.488
                  21023941.090                          48.400          29.900

 112432367.414 8  87447455.918 6                  21062361.914    21062361.012
                  21062366.930                          48.800          36.700

 115336447.974 6  89872710.056 6                  21947815.109
  21947823.332    21947823.629                          39.100          38.700

 120340506.261 6  93772052.179 5                  22900026.414
  22900037.750                                          38.400          34.700

 117521182.882 7  91405378.560 4                  21977052.289    21977051.375
                  21977055.598                          44.600          29.700

 13 10  1 10 26 30.0000000  0 12G09G02R07R23G26G05R08R01R22G29G15R24
 125275908.493 6                                  23839211.430
                                                        36.300

 108685686.175 7  84690340.33643                  20682206.281
                  20682211.727                          43.800          21.800

 123550674.990 6                                  23080296.492    23080295.723
                                                        36.500

 103651028.472 8  80617493.066 6                  19376458.195    19376457.289
                  19376464.438                          53.000          37.400

 107249199.952 7  83570692.98043                  20408797.719
                  20408805.809                          44.800          22.300

 109697596.148 7  85479032.079 7                  20874734.516
  20874741.609    20874741.348                          42.800          42.100

 107306335.267 8  83460446.306 5                  20038654.859    20038654.145
                  20038659.148                          51.200          33.300

 112337652.910 8  87373536.360 4                  21015022.430    21015021.695
                  21015029.492                          48.400          28.000

 112536209.247 8  87528221.724 5                  21081815.648    21081814.512
                  21081820.359                          48.900          35.200

 115279886.149 6  89828635.967 6                  21937052.156
  21937060.645    21937060.703                          39.900          38.600

 120236687.722 6  93691154.911 5                  22880269.953
  22880280.617    22880282.109                          38.200          34.400

 117409951.618 7  91318865.457 4                  21956251.055    21956250.023
                  21956254.297                          43.900          29.600

 13 10  1 10 27  0.0000000  0 12G09G02R07R23G26G05R08R01R22G29G15R24
 125222861.773 5                                  23829117.234
                                                        34.800

 108707508.646 7  84707344.85543                  20686358.570
                  20686364.012                          43.100          21.100

 123648186.496 6                                  23098514.977    23098512.211
                                                        36.500

 103639286.756 8  80608360.629 6                  19374262.508    19374262.070
                  19374268.715                          53.900          37.500

 107183296.260 7  83519339.51743                  20396256.016
                  20396264.906                          43.900          22.600

 109724024.863 7  85499625.882 7                  20879763.367
  20879770.520    20879770.426                          42.900          42.300

 107353967.256 8  83497493.417 5                  20047549.711    20047549.230
                  20047553.555                          50.300          33.000

 112290418.550 8  87336798.582 4                  21006185.641    21006184.199
                  21006193.188                          48.000          29.200

 112640501.328 8  87609337.683 5                  21101352.711    21101351.223
                  21101357.945                          48.100          35.600

 115223806.253 6  89784937.394 6                  21926380.648
  21926389.223    21926389.145                          39.100          38.200

 120133097.959 6  93610435.881 5                  22860558.297
  22860567.758    22860569.313                          37.100          34.600

 117299048.264 7  91232607.393 4                  21935511.367    21935510.688
                  21935514.098                          44.300          29.700

 13 10  1 10 27 30.0000000  0 12G09G02R07R23G26G05R08R01R22G29G15R24
 125170182.821 5                                  23819092.109
                                                        34.000

 108729692.300 7  84724630.84043                  20690580.180
                  20690586.168                          43.200          21.500

 123745619.490 5                                  23116713.547    23116711.719
                                                        35.500

 103628328.748 8  80599837.728 6                  19372214.367    19372214.398
                  19372220.734                          53.500          36.200

 107117960.180 7  83468428.31743                  20383823.883
                  20383831.539                          43.800          21.800

 109750651.754 6  85520374.126 7                  20884830.828
  20884837.398    20884837.137                          41.800          42.000

 107401884.708 8  83534762.546 5                  20056498.188    20056496.883
                  20056501.633                          50.700          33.000

 112243591.891 8  87300377.912 4                  20997426.055    20997424.496
                  20997432.422                          48.300          27.200

 112745244.916 8  87690804.855 6                  21120974.734    21120973.246
                  21120980.043                          48.500          36.000

 115168214.243 6  89741618.965 6                  21915802.344
  21915809.887    21915810.898                          39.300          39.400

 120029743.348 6  93529900.110 5                  22840888.930
  22840900.223    22840902.375                          37.200          35.500

 117188481.125 7  91146610.841 4                  21914834.859    21914833.477
                  21914837.707                          45.000          28.700

 13 10  1 10 28  0.0000000  0 12G09G02R07R23G26G05R08R01R22G29G15R24
 125117872.854 5                                  23809138.281
                                                        33.400

 108752236.872 7  84742198.01643                  20694870.117
                  20694876.051                          43.400          20.900

 123842970.556 5                                  23134898.969    23134898.902
                                                        35.400

 103618154.194 8  80591924.189 6                  19370311.984    19370311.430
                  19370318.023                          53.800          36.700

 107053192.291 7  83417959.88543                  20371498.680
                  20371506.348                          43.600          22.200

 109777473.700 6  85541274.360 7                  20889934.469
  20889941.559    20889941.930                          41.100          42.700

 107450083.194 8  83572250.258 5                  20065498.977    20065498.730
                  20065502.887                          51.400          33.100

 112197170.275 8  87264272.281 4                  20988741.328    20988740.711
                  20988749.348                          48.500          28.000

 112850435.002 7  87772619.299 6                  21140679.828    21140678.809
                  21140686.063                          47.700          36.700

 115113110.668 6  89698681.156 6                  21905315.133
  21905323.871    21905324.473                          38.900          38.700

 119926625.082 6  93449548.492 5                  22821266.695
  22821276.906    22821279.461                          37.300          34.900

 117078252.662 7  91060877.658 5                  21894221.086    21894220.055
                  21894224.734                          45.400          30.100

 13 10  1 10 28 30.0000000  0 12G09G02R07R23G26G05R08R01R22G29G15R24
 125065934.748 5                                  23799253.531
                                                        31.900

 108775142.922 7  84760046.87443                  20699228.914
                  20699234.230                          43.600          20.400

 123940237.585 6                                  23153069.453    23153067.508
                                                        36.200

 103608764.437 8  80584621.041 5                  19368557.531    19368556.387
                  19368562.805                          53.000          35.800

 106988994.763 7  83367935.87543                  20359281.859
                  20359290.523                          43.100          21.800

 109804489.957 6  85562325.981 7                  20895075.164
  20895082.539    20895082.488                          41.800          42.700

 107498559.993 8  83609954.444 5                  20074551.570    20074550.738
                  20074554.945                          51.000          33.300

 112151153.140 7  87228481.257 4                  20980132.969    20980131.762
                  20980140.414                          47.900          28.300

 112956068.282 7  87854778.460 6                  21160468.570    21160467.434
                  21160474.449                          47.800          36.200

 115058497.048 6  89656125.143 6                  21894923.211
  21894931.105    21894932.184                          39.400          37.800

 119823744.757 6  93369382.272 5                  22801689.531
  22801699.625                                          37.600          34.400

 116968366.941 7  90975411.068 5                  21873672.008    21873670.859
                  21873675.773                          46.300          31.900

 13 10  1 10 29  0.0000000  0 12G09G02R07R23G26G05R08R01R22G29G15R24
 125014371.627 5                                  23789442.797
                                                        31.900

 108798411.544 7  84778178.27643                  20703656.563
                  20703662.176                          43.200          20.900

 124037420.136 5                                  23171223.086    23171221.258
                                                        33.200

 103600161.011 8  80577929.480 6                  19366948.773    19366947.867
                  19366954.625                          52.800          36.500

 106925370.325 7  83318358.43644                  20347174.594
                  20347183.434                          43.700          24.800

 109831698.650 6  85583527.570 7                  20900253.344
  20900260.547    20900260.465                          41.100          42.500

 107547312.464 8  83647873.037 5                  20083655.305    20083655.059
                  20083659.820                          50.600          33.600

 112105540.073 7  87193004.457 4                  20971600.758    20971599.199
                  20971606.984                          47.900          28.100

 113062142.022 8  87937280.174 6                  21180340.000    21180339.215
                  21180346.133                          48.400          37.200

 115004376.156 6  89613953.061 6                  21884624.656
  21884631.699    21884632.031                          39.700          38.100

 119721105.299 6  93289403.739 6                  22782157.133
  22782167.172                                          36.800          36.200

 116858828.297 7  90890214.439 5                  21853187.531    21853186.266
                  21853190.738                          46.200          31.800

 13 10  1 10 29 30.0000000  0 12G09G02R07R23G26G05R08R01R22G29G15R24
 124963188.243 5                                  23779702.680
                                                        33.900

 108822045.616 7  84796594.43843                  20708155.141
                  20708160.000                          42.200          20.400

 124134518.438 5                                  23189360.063    23189362.578
                                                        31.000

 103592347.333 8  80571852.178 6                  19365487.680    19365487.242
                  19365493.918                          53.000          36.500

 106862323.174 7  83269230.84343                  20335177.773
                  20335185.691                          43.300          21.700

 109859101.252 6  85604880.250 6                  20905467.805
  20905475.063    20905474.711                          41.300          41.800

 107596339.855 8  83686005.464 5                  20092811.328    20092810.965
                  20092815.402                          50.400          32.900

 112060332.638 7  87157843.208 4                  20963143.047    20963141.488
                  20963149.234                          47.600          26.800

 113168654.612 8  88020123.230 6                  21200293.477    21200291.637
                  21200299.191                          48.400          36.800

 114950751.409 6  89572167.555 6                  21874419.445
  21874427.438    21874427.516                          38.900          37.800

 119618711.161 6  93209616.366 5                  22762671.320
  22762682.102    22762680.703                          36.100          35.900

 116749642.948 7  90805292.571 5                  21832769.430    21832768.047
                  21832772.266                          46.700          30.200

 13 10  1 10 30  0.0000000  0 12G09G02R07R23G26G05R08R01R22G29G15R24
 124912385.027 5                                  23770035.016
                                                        33.900

 108846042.998 7  84815293.67243                  20712721.594
                  20712726.348                          42.100          20.400

 124231527.48614                                  23207481.531    23207480.176
                                                        29.900

 103585321.581 8  80566387.710 6                  19364174.742    19364173.715
                  19364181.047                          53.400          37.900

 106799852.560 7  83220552.49043                  20323289.539
                  20323297.238                          43.700          22.500

 109886693.238 7  85626380.497 7                  20910718.805
  20910725.617    20910725.602                          42.000          42.400

 107645636.400 8  83724347.238 5                  20102017.391    20102016.910
                  20102021.047                          51.700          33.800

 112015526.852 8  87122994.300 4                  20954761.383    20954760.531
                  20954768.535                          48.400          29.400

 113275600.123 7  88103302.938 6                  21220327.891    21220326.402
                  21220333.887                          47.800          37.400

 114897621.882 6  89530767.979 6                  21864309.484
  21864316.922    21864316.848                          37.900          38.100

 119516561.832 6  93130019.737 6                  22743233.188
  22743244.035    22743244.191                          36.500          37.300

 116640812.130 7  90720646.461 5                  21812416.391    21812415.008
                  21812419.707                          46.400          30.300

 13 10  1 10 30 30.0000000  0 12G09G02R07R23G26G05R08R01R22G29G15R24
 124861962.545 5                                  23760439.844
                                                        34.300

 108870402.347 7  84834274.98143                  20717356.148
                  20717362.137                          42.600          20.100

 124328444.05415                                  23225585.852    23225585.668
                                                        30.100

 103579082.532 8  80561535.110 6                  19363008.422    19363007.395
                  19363014.188                          53.800          36.000

 106737958.731 7  83172323.59243                  20311511.680
                  20311519.555                          44.200          22.900

 109914471.520 7  85648025.929 6                  20916003.969
  20916011.469    20916011.523                          42.500          41.700

 107695197.583 8  83762894.832 5                  20111272.688    20111272.441
                  20111276.020                          51.500          32.800

 111971119.931 8  87088455.658 4                  20946453.742    20946453.008
                  20946460.777                          48.400          28.200

 113382973.015 8  88186815.093 5                  21240442.703    21240440.863
                  21240448.348                          48.000          35.100

 114844987.183 6  89489753.941 6                  21854292.625
  21854301.031    21854301.039                          37.900          38.500

 119414657.823 6  93050614.264 6                  22723841.344
  22723851.750    22723852.645                          36.100          36.200

 116532337.781 7  90636277.570 5                  21792132.133    21792131.453
                  21792135.211                          47.100          30.400

 13 10  1 10 31  0.0000000  0 12G09G02R07R23G26G05R08R01R22G29G15R24
 124811927.465 5                                  23750917.992
                                                        34.600

 108895128.414 7  84853542.03743                  20722061.922
                  20722066.695                          42.500          21.300

 124425270.452 5                                  23243677.984    23243675.570
                                                        31.800

 103573635.307 8  80557298.374 6                  19361990.250    19361989.223
                  19361995.594                          53.700          36.200

 106676647.753 7  83124548.85443                  20299844.508
                  20299852.332                          44.600          22.600

 109942438.869 7  85669818.677 6                  20921326.219
  20921333.215    20921333.320                          42.300          41.700

 107745024.361 8  83801649.016 5                  20120576.664    20120576.066
                  20120580.617                          51.000          31.400

 111927115.175 8  87054229.775 4                  20938222.117    20938221.148
                  20938228.441                          48.800          28.700

 113490773.937 7  88270660.176 6                  21260636.867    21260636.438
                  21260643.801                          47.800          36.100

 114792853.373 6  89449130.213 6                  21844373.242
  21844380.406    21844380.750                          38.100          38.000

 119313005.254 5  92971404.706 6                  22704497.117
  22704507.906    22704509.555                          35.800          36.400

 116424228.054 7  90552192.286 5                  21771914.234    21771913.438
                  21771917.324                          46.300          30.200

 13 10  1 10 31 30.0000000  0 12G09G02R07R23G26G05R08R01R22G29G15R24
 124762284.589 5                                  23741471.094
                                                        35.000

 108920223.783 7  84873096.87943                  20726836.672
                  20726842.285                          43.900          20.400

 124522007.548 5                                  23261746.758    23261745.520
                                                        33.500

 103568983.096 8  80553679.983 6                  19361120.586    19361119.559
                  19361126.293                          53.400          36.500

 106615923.675 7  83077231.43243                  20288289.297
                  20288297.539                          43.800          22.300

 109970595.927 7  85691759.251 7                  20926684.148
  20926691.141    20926691.008                          42.500          42.000

 107795116.067 8  83840609.251 5                  20129930.594    20129930.348
                  20129934.504                          50.500          32.400

 111883513.618 8  87020317.520 4                  20930064.961    20930063.992
                  20930072.313                          48.700          29.400

 113599001.687 8  88354837.211 5                  21280912.313    21280911.410
                  21280919.055                          48.900          34.900

 114741224.041 6  89408899.603 6                  21834547.648
  21834555.895    21834555.813                          38.600          37.700

 119211608.256 5  92892394.305 6                  22685202.141
  22685213.070    22685213.723                          35.500          36.500

 116316489.235 7  90468395.495 5                  21751765.586    21751765.141
                  21751770.277                          44.800          31.600

 13 10  1 10 32  0.0000000  0 12G09G02R07R23G26G05R08R01R22G29G15R24
 124713034.393 5                                  23732099.695
                                                        33.700

 108945687.165 7  84892938.44043                  20731683.469
                  20731688.316                          43.600          21.700

 124618650.747 5                                  23279802.773    23279801.418
                                                        35.500

 103565124.435 8  80550678.815 6                  19360398.977    19360398.539
                  19360404.883                          53.500          36.400

 106555786.247 7  83030371.13443                  20276845.289
                  20276853.277                          42.800          21.700

 109998939.116 7  85713844.874 6                  20932077.852
  20932084.977    20932084.910                          42.100          41.800

 107845467.521 8  83879771.492 5                  20139333.797    20139333.316
                  20139337.914                          51.300          31.900

 111840312.126 8  86986716.415 5                  20921983.219    20921982.250
                  20921990.582                          48.000          30.100

 113707650.273 8  88439341.546 5                  21301266.156    21301264.785
                  21301272.234                          49.500          35.100

 114690098.705 6  89369061.732 6                  21824819.188
  21824826.555    21824826.828                          38.500          38.300

 119110466.893 6  92813583.083 6                  22665955.680
  22665965.500    22665967.063                          36.600          36.400

 116209122.457 7  90384888.109 5                  21731688.055    21731687.727
                  21731692.176                          45.800          31.500

 13 10  1 10 32 30.0000000  0 12G09G02R07R23G26G05R08R01R22G29G15R24
 124664176.339 5                                  23722802.406
                                                        34.800

 108971516.003 7  84913064.82743                  20736598.047
                  20736603.270                          43.800          20.900

 124715195.422 6                                  23297835.438    23297835.137
                                                        36.800

 103562056.859 8  80548292.927 6                  19359825.492    19359824.938
                  19359831.492                          53.000          36.000

 106496234.240 7  82983967.01943                  20265512.430
                  20265520.516                          44.300          22.300

 110027463.824 7  85736071.928 7                  20937506.594
  20937513.277    20937512.852                          42.600          42.000

 107896072.604 8  83919130.997 5                  20148784.250    20148784.121
                  20148787.977                          50.500          31.800

 111797506.543 8  86953423.243 4                  20913975.781    20913974.574
                  20913983.391                          48.500          29.200

 113816713.187 8  88524168.143 5                  21321697.336    21321696.434
                  21321703.215                          49.300          34.700

 114639475.630 6  89329615.206 6                  21815186.273
  21815194.129    21815194.000                          38.900          38.400

 119009580.443 6  92734970.470 5                  22646756.813
  22646767.219    22646770.719                          37.300          35.400

 116102129.073 7  90301671.103 5                  21711679.289    21711678.727
                  21711683.684                          46.000          31.400

 13 10  1 10 33  0.0000000  0 12G09G02R07R23G26G05R08R01R22G29G15R24
 124615719.626 5                                  23713581.430
                                                        35.700

 108997717.244 7  84933481.36743                  20741583.156
                  20741589.332                          43.600          21.500

 124811646.661 6                                  23315855.211    23315854.324
                                                        38.600

 103559787.635 8  80546527.966 6                  19359400.875    19359400.672
                  19359407.598                          52.900          37.200

 106437276.076 7  82938025.61943                  20254293.242
                  20254300.543                          42.600          22.600

 110056175.193 7  85758444.443 7                  20942969.297
  20942976.465    20942977.098                          42.300          42.100

 107946934.925 8  83958690.581 5                  20158282.359    20158281.996
                  20158285.918                          51.100          31.200

 111755102.454 8  86920442.306 4                  20906043.953    20906042.277
                  20906050.465                          49.200          29.100

 113926193.461 8  88609319.350 5                  21342206.789    21342205.652
                  21342212.840                          49.300          35.500

 114589363.058 6  89290566.481 6                  21805649.547
  21805657.223    21805657.605                          38.800          38.700

 118908957.202 6  92656562.976 5                  22627609.117
  22627618.957    22627622.559                          37.500          34.600

 115995519.520 7  90218752.624 5                  21691744.219    21691742.953
                  21691747.484                          46.400          32.800

 13 10  1 10 33 30.0000000  0 12G09G02R07R23G26G05R08R01R22G29G15R24
 124567659.805 5                                  23704435.430
                                                        34.600

 109024283.989 7  84954182.69943                  20746639.664
                  20746644.848                          43.000          21.300

 124907995.316 6                                  23333854.625    23333853.035
                                                        37.900

 103558310.269 8  80545378.897 6                  19359124.789    19359124.703
                  19359131.441                          53.000          36.800

 106378906.353 7  82892542.80643                  20243186.258
                  20243193.695                          43.900          22.500

 110085064.744 6  85780955.781 6                  20948466.734
  20948473.844    20948473.793                          41.300          40.900

 107998044.047 8  83998442.147 5                  20167826.336    20167826.090
                  20167830.266                          50.800          31.500

 111713091.286 8  86887767.037 4                  20898184.258    20898182.934
                  20898190.379                          49.500          28.900

 114036080.041 8  88694786.566 5                  21362792.508    21362791.723
                  21362798.586                          49.600          35.300

 114539755.227 6  89251911.064 6                  21796209.320
  21796217.016    21796217.793                          39.200          38.900

 118808592.250 6  92578356.734 5                  22608510.188
  22608519.395    22608523.246                          37.500          35.200

 115889290.254 7  90136129.925 5                  21671878.328    21671876.477
                  21671882.020                          45.800          33.200

 13 10  1 10 34  0.0000000  0 12G09G02R07R23G26G05R08R01R22G29G15R24
 124520007.156 5                                  23695366.953
                                                        35.800

 109051224.685 7  84975175.46543                  20751766.078
                  20751771.215                          43.700          20.100

 125004247.836 6                                  23351835.094    23351834.676
                                                        36.700

 103557632.915 8  80544852.079 6                  19358998.773    19358997.867
                  19359004.633                          53.000          36.100

 106321134.650 7  82847525.92643                  20232191.883
                  20232200.055                          44.300          22.300

 110114138.792 7  85803610.887 6                  20953999.500
  20954006.703    20954006.215                          42.300          41.200

 108049405.268 8  84038389.762 5                  20177417.539    20177417.176
                  20177421.297                          51.600          32.900

 111671479.883 8  86855402.672 4                  20890399.688    20890399.422
                  20890406.738                          49.800          28.200

 114146377.347 8  88780573.229 5                  21383455.078    21383454.527
                  21383460.535                          50.000          34.100

 114490661.367 6  89213656.139 6                  21786866.930
  21786875.422    21786876.055                          40.000          38.100

 118708495.374 6  92500359.353 5                  22589462.461
  22589471.793    22589474.637                          38.900          35.400

 115783453.143 7  90053812.261 5                  21652085.852    21652084.586
                  21652089.938                          46.700          32.900

 13 10  1 10 34 30.0000000  0 12G09G02R07R23G26G05R08R01R22G29G15R24
 124472758.039 6                                  23686376.406
                                                        36.900

 109078533.946 7  84996455.40343                  20756962.992
                  20756967.426                          43.200          19.900

 125100396.191 5                                  23369797.422    23369795.242
                                                        30.700

 103557750.400 8  80544943.454 6                  19359020.328    19359020.008
                  19359026.707                          53.500          36.200

 106263956.760 7  82802971.76943                  20221312.328
                  20221319.926                          44.300          22.500

 110143389.642 7  85826403.768 6                  20959565.977
  20959572.938    20959572.371                          42.100          41.300

 108101009.444 8  84078526.358 5                  20187054.523    20187054.043
                  20187058.066                          51.100          30.900

 111630261.554 8  86823344.028 4                  20882689.609    20882688.051
                  20882695.758                          49.400          28.900

 114257075.479 8  88866671.629 5                  21404192.758    21404191.504
                  21404198.027                          49.600          34.200

 114442077.061 6  89175798.253 6                  21777622.602
  21777630.227    21777629.578                          40.200          38.700

 118608662.733 6  92422567.920 5                  22570464.930
  22570474.344    22570476.602                          38.900          35.300

 115678005.984 7  89971797.902 5                  21632366.711    21632365.797
                  21632370.570                          45.700          32.900

 13 10  1 10 35  0.0000000  0 11G09G02R23G26G05R08R01R22G29G15R24
 124425918.827 5                                  23677462.375
                                                        35.900

 109106216.243 7  85018026.03343                  20762230.477
                  20762235.508                          42.700          19.600

 103558667.230 8  80545656.529 6                  19359191.680    19359191.828
                  19359198.289                          53.500          37.100

 106207378.680 7  82758885.00543                  20210545.117
                  20210552.941                          44.300          22.300

 110172820.468 7  85849336.892 6                  20965166.281
  20965173.422    20965172.762                          42.200          41.100

 108152857.809 8  84118852.869 5                  20196736.945    20196736.699
                  20196740.598                          50.300          31.900

 111589438.750 8  86791593.009 4                  20875052.414    20875051.090
                  20875058.836                          48.700          29.200

 114368175.080 8  88953082.279 5                  21425005.391    21425004.605
                  21425010.199                          49.600          34.200

 114394008.024 6  89138341.873 6                  21768475.344
  21768482.535    21768483.199                          38.900          38.800

 118509100.509 6  92344987.171 5                  22551518.383
  22551527.992    22551530.309                          38.100          35.800

 115572957.108 7  89890093.314 5                  21612722.602    21612721.102
                  21612725.742                          46.300          32.100

 13 10  1 10 35 30.0000000  0 12G09G02R07R23G26G05R08R01R22G29G15R24
 124379489.622 6                                  23668627.938
                                                        36.000

 109134269.223 7  85039885.50143                  20767568.547
                  20767573.789                          42.200          19.600

 125292383.82915                                  23405663.656    23405660.891
                                                        32.900

 103560381.346 8  80546989.727 6                  19359512.406    19359511.500
                  19359518.316                          53.400          36.300

 106151399.121 7  82715264.63343                  20199892.445
                  20199900.305                          45.100          22.200

 110202426.772 7  85872406.741 6                  20970800.492
  20970806.656    20970806.762                          42.600          41.500

 108204944.402 8  84159364.674 5                  20206463.547    20206462.949
                  20206466.910                          50.900          32.200

 111549007.654 8  86760146.671 4                  20867488.508    20867487.773
                  20867496.043                          49.000          28.500

 114479669.526 8  89039800.046 5                  21445891.883    21445891.098
                  21445897.703                          50.400          35.000

 114346452.805 6  89101285.889 6                  21759425.859
  21759432.746    21759433.113                          38.900          38.400

 118409808.035 6  92267616.630 6                  22532623.484
  22532633.648    22532635.422                          38.200          36.300

 115468307.278 7  89808699.083 5                  21593151.898    21593151.336
                  21593156.738                          47.500          32.400

 13 10  1 10 36  0.0000000  0 11G09G02R23G26G05R08R01R22G29G15R24
 124333478.601 5                                  23659871.539
                                                        35.000

 109162698.967 6  85062038.53543                  20772977.914
                  20772983.434                          40.700          19.000

 103562898.550 8  80548947.557 5                  19359982.445    19359982.242
                  19359988.750                          53.100          35.900

 106096025.651 7  82672116.50343                  20189355.008
                  20189363.078                          45.000          22.300

 110232212.699 7  85895616.565 6                  20976468.336
  20976475.781    20976475.477                          42.500          41.400

 108257272.432 8  84200064.257 5                  20216235.828    20216235.465
                  20216239.445                          50.700          32.300

 111508972.909 8  86729008.604 4                  20859998.961    20859997.754
                  20860006.098                          48.800          28.700

 114591561.077 8  89126826.685 6                  21466852.852    21466852.066
                  21466859.180                          49.600          36.100

 114299418.153 6  89064635.501 6                  21750475.258
  21750483.059    21750483.906                          39.500          38.500

 118310792.996 6  92190462.275 6                  22513781.273
  22513790.781    22513792.652                          37.300          37.100

 115364066.339 7  89727622.865 5                  21573658.188    21573657.156
                  21573662.078                          47.800          31.600

 13 10  1 10 36 30.0000000  0 11G09G02R23G26G05R08R01R22G29G15R24
 124287881.678 5                                  23651194.922
                                                        35.700

 109191499.528 6  85084480.54342                  20778458.953
                  20778464.258                          40.900          17.400

 103566212.533 8  80551525.118 6                  19360602.406    19360601.617
                  19360608.246                          53.100          36.200

 106041253.460 7  82629436.92543                  20178932.500
                  20178940.230                          45.800          23.400

 110262170.646 7  85918960.419 6                  20982169.352
  20982176.156    20982176.180                          43.100          41.400

 108309832.358 8  84240944.199 5                  20226050.453    20226050.207
                  20226054.156                          51.300          32.200

 111469326.826 8  86698172.791 4                  20852581.641    20852580.082
                  20852588.934                          48.800          27.800

 114703839.702 8  89214154.357 5                  21487886.125    21487886.164
                  21487892.746                          49.400          35.800

 114252899.156 6  89028386.966 6                  21741623.313
  21741630.664    21741631.793                          38.600          38.600

 118212050.950 6  92113520.625 6                  22494990.125
  22495000.820    22495001.902                          38.800          36.200

 115260231.653 7  89646862.606 5                  21554240.281    21554239.016
                  21554244.332                          46.900          32.400

 13 10  1 10 37  0.0000000  0 11G09G02R23G26G05R08R01R22G29G15R24
 124242708.547 5                                  23642598.773
                                                        34.500

 109220678.553 7  85107217.42643                  20784011.883
                  20784017.293                          42.100          18.600

 103570331.499 8  80554728.727 5                  19361372.461    19361371.672
                  19361378.523                          53.200          35.800

 105987091.409 7  82587232.75143                  20168625.797
                  20168633.609                          44.700          22.900

 110292306.628 7  85942443.014 6                  20987903.766
  20987910.906    20987910.922                          43.100          41.700

 108362628.425 8  84282007.829 5                  20235909.789    20235909.426
                  20235913.410                          51.100          32.200

 111430075.695 8  86667644.188 5                  20845240.609    20845239.168
                  20845246.965                          49.100          30.100

 114816508.526 8  89301785.504 5                  21508993.602    21508993.051
                  21508999.668                          49.600          35.800

 114206904.643 6  88992547.101 6                  21732869.469
  21732877.707    21732877.715                          39.700          39.100

 118113591.117 6  92036798.859 5                  22476255.039
  22476263.520    22476263.602                          38.700          35.400

 115156814.309 7  89566426.965 5                  21534900.906    21534899.406
                  21534904.820                          46.800          31.600

 13 10  1 10 37 30.0000000  0 11G09G02R23G26G05R08R01R22G29G15R24
 124197957.472 5                                  23634083.641
                                                        35.000

 109250232.465 7  85130246.43043                  20789635.813
                  20789640.848                          42.200          18.600

 103575251.597 8  80558555.461 6                  19362292.289    19362292.438
                  19362299.273                          53.400          36.100

 105933537.255 7  82545502.30143                  20158434.906
                  20158441.988                          44.500          22.200

 110322615.059 7  85966059.980 6                  20993671.414
  20993678.352    20993678.641                          42.200          41.600

 108415653.654 8  84323249.678 5                  20245812.398    20245812.270
                  20245816.008                          50.700          32.600

 111391214.193 8  86637418.652 4                  20837969.625    20837968.535
                  20837976.895                          48.500          28.200

 114929560.245 8  89389714.463 5                  21530172.320    21530170.949
                  21530177.887                          49.500          35.700

 114161432.113 6  88957113.964 6                  21724218.031
  21724225.113    21724225.168                          39.900          38.700

 118015411.767 6  91960295.640 5                  22457571.938
  22457581.016    22457581.883                          40.000          35.200

 115053814.200 7  89486315.788 5                  21515639.523    21515638.961
                  21515643.750                          46.800          32.100

 13 10  1 10 38  0.0000000  0 12G09G02R07R23G26G05R08R01R22G29G15R24
 124153631.300 5                                  23625646.922
                                                        34.500

 109280161.875 6  85153568.00943                  20795331.563
                  20795336.313                          41.700          19.000

 125770451.88515                                  23494978.313    23494979.066
                                                        33.200

 103580973.002 8  80563005.436 6                  19363361.820    19363361.383
                  19363368.000                          53.200          37.500

 105880592.683 7  82504246.83043                  20148359.734
                  20148367.578                          44.500          22.300

 110353094.590 7  85989810.271 7                  20999471.438
  20999478.422    20999478.313                          42.700          42.200

 108468905.602 8  84364667.867 5                  20255756.086    20255755.840
                  20255760.227                          50.700          34.100

 111352741.245 7  86607495.278 5                  20830773.211    20830771.535
                  20830779.891                          47.800          31.200

 115042991.173 8  89477938.358 6                  21551421.539    21551420.168
                  21551427.262                          49.800          36.700

 114116482.938 6  88922088.653 6                  21715663.547
  21715671.363    21715671.605                          41.200          38.900

 117917515.045 6  91884012.670 6                  22438942.375
  22438952.090    22438952.480                          39.500          36.900

 114951235.544 7  89406532.498 5                  21496455.969    21496456.109
                  21496461.328                          46.300          33.300

 13 10  1 10 38 30.0000000  0 12G09G02R07R23G26G05R08R01R22G29G15R24
 124109737.909 5                                  23617295.063
                                                        33.700

 109310472.459 7  85177186.65243                  20801099.859
                  20801104.563                          42.200          19.000

 125865748.563 5                                  23512778.250    23512777.949
                                                        33.400

 103587501.832 8  80568083.402 6                  19364582.320    19364581.883
                  19364588.504                          53.500          36.700

 105828264.754 7  82463471.85343                  20138401.750
                  20138409.809                          44.300          22.200

 110383749.404 7  86013697.127 6                  21005304.391
  21005311.855    21005312.035                          42.100          41.800

 108522386.694 8  84406264.268 5                  20265743.641    20265743.395
                  20265747.453                          50.600          32.600

 111314661.019 8  86577877.372 4                  20823649.438    20823647.879
                  20823655.520                          49.500          27.900

 115156803.106 8  89566458.582 6                  21572742.930    21572742.027
                  21572748.848                          49.300          36.000

 114072063.472 6  88887476.091 6                  21707210.523
  21707218.699    21707218.711                          40.200          38.400

 117819908.590 6  91807955.866 6                  22420368.727
  22420377.434    22420378.746                          39.000          36.500

 114849087.752 7  89327084.274 5                  21477355.453    21477354.422
                  21477359.156                          47.000          32.900

 13 10  1 10 39  0.0000000  0 12G09G02R07R23G26G05R08R01R22G29G15R24
 124066278.180 5                                  23609024.781
                                                        33.100

 109341163.268 6  85201101.55343                  20806939.734
                  20806944.902                          41.800          18.300

 125960935.124 5                                  23530559.406    23530561.102
                                                        33.400

 103594836.279 8  80573787.959 6                  19365953.586    19365953.148
                  19365959.898                          53.500          36.800

 105776553.416 7  82423177.34143                  20128561.445
                  20128569.594                          44.300          23.200

 110414576.617 7  86037718.332 6                  21011170.750
  21011177.855    21011178.359                          42.300          40.900

 108576092.612 8  84448035.554 5                  20275773.445    20275772.965
                  20275777.004                          51.000          32.300

 111276970.795 8  86548562.804 4                  20816598.055    20816596.848
                  20816605.852                          48.200          29.100

 115270990.825 8  89655271.083 5                  21594134.375    21594133.590
                  21594140.250                          49.600          35.600

 114028173.663 6  88853276.260 6                  21698858.977
  21698866.324    21698866.734                          40.300          38.600

 117722592.458 6  91732125.291 6                  22401848.906
  22401859.504    22401860.176                          37.900          36.500

 114747373.094 7  89247972.938 5                  21458333.484    21458332.219
                  21458337.020                          47.200          32.300

 13 10  1 10 39 30.0000000  0 12G09G02R07R23G26G05R08R01R22G29G15R24
 124023246.698 5                                  23600836.422
                                                        33.500

 109372226.834 7  85225306.91743                  20812850.758
                  20812856.004                          42.300          20.100

 126056001.939 5                                  23548318.695    23548319.918
                                                        33.700

 103602968.615 8  80580113.111 6                  19367473.531    19367472.977
                  19367479.500                          53.800          37.800

 105725452.403 7  82383358.40344                  20118837.273
                  20118845.328                          45.200          24.100

 110445567.479 7  86061867.078 6                  21017068.805
  21017075.559    21017076.137                          42.600          41.700

 108630012.298 8  84489973.116 5                  20285842.008    20285841.410
                  20285845.703                          50.800          33.600

 111239661.465 8  86519544.489 4                  20809618.781    20809617.930
                  20809625.457                          48.900          28.900

 115385542.429 8  89744366.602 6                  21615593.383    21615592.832
                  21615599.133                          49.500          36.500

 113984807.341 6  88819484.332 6                  21690606.656
  21690614.582    21690614.500                          38.800          39.400

 117625561.075 6  91656516.579 6                  22383385.695
  22383393.977    22383395.594                          39.300          37.500

 114646087.408 7  89169195.277 5                  21439391.586    21439391.375
                  21439396.184                          46.900          33.400

 13 10  1 10 40  0.0000000  0 12G09G02R07R23G26G05R08R01R22G29G15R24
 123980651.237 5                                  23592730.172
                                                        33.400

 109403668.717 7  85249807.09843                  20818833.688
                  20818839.281                          42.100          19.900

 126150953.334 5                                  23566060.070    23566057.305
                                                        33.000

 103611904.437 8  80587063.182 6                  19369144.133    19369143.227
                  19369149.719                          53.300          36.200

 105674968.535 7  82344020.36743                  20109230.852
                  20109238.582                          44.600          23.600

 110476725.323 7  86086145.932 6                  21022997.578
  21023004.473    21023004.914                          42.600          40.900

 108684148.501 8  84532079.052 5                  20295951.398    20295951.152
                  20295955.668                          50.900          32.900

 111202737.164 8  86490825.634 4                  20802710.813    20802710.195
                  20802717.816                          49.100          27.500

 115500459.849 8  89833746.623 5                  21637121.430    21637120.527
                  21637127.027                          49.300          35.400

 113941970.941 6  88786105.328 6                  21682454.586
  21682462.652    21682462.906                          38.600          39.000

 117528822.140 6  91581135.746 6                  22364976.648
  22364985.285    22364985.750                          39.900          37.000

 114545240.424 7  89090758.770 5                  21420532.570    21420531.773
                  21420537.188                          46.800          33.500

 13 10  1 10 40 30.0000000  0 12G09G02R07R23G26G05R08R01R22G29G15R24
 123938495.340 5                                  23584709.227
                                                        34.600

 109435490.422 7  85274603.21343                  20824889.734
                  20824894.320                          42.700          20.400

 126245788.393 5                                  23583775.234    23583772.820
                                                        31.200

 103621644.753 8  80594638.974 6                  19370964.766    19370964.094
                  19370970.746                          53.200          37.200

 105625104.580 7  82305165.37444                  20099741.875
                  20099749.805                          45.300          25.700

 110508050.393 6  86110555.085 6                  21028958.563
  21028965.227    21028964.973                          41.600          41.300

 108738499.676 8  84574352.190 5                  20306101.063    20306100.230
                  20306104.957                          49.900          32.900

 111166197.873 8  86462406.237 4                  20795875.617    20795874.059
                  20795881.938                          48.600          28.000

 115615740.429 8  89923409.072 6                  21658717.563    21658716.543
                  21658723.684                          49.000          36.200

 113899667.403 6  88753141.545 6                  21674404.570
  21674412.719    21674412.832                          37.900          39.900

 117432378.541 6  91505985.047 6                  22346623.063
  22346632.973    22346633.832                          39.700          38.500

 114444836.744 7  89012667.073 5                  21401756.766    21401755.383
                  21401761.563                          45.500          33.200

 13 10  1 10 41  0.0000000  0 12G09G02R07R23G26G05R08R01R22G29G15R24
 123896783.412 5                                  23576771.203
                                                        33.600

 109467694.597 7  85299697.35843                  20831017.750
                  20831022.973                          42.500          19.600

 126340508.15514                                  23601471.703    23601468.000
                                                        28.600

 103632191.815 8  80602842.254 6                  19372936.000    19372935.680
                  19372942.855                          53.200          36.200

 105575863.987 7  82266796.10743                  20090372.172
                  20090379.141                          44.300          22.500

 110539543.225 6  86135094.959 6                  21034951.445
  21034958.145    21034958.156                          41.300          40.400

 108793065.080 8  84616791.945 5                  20316290.773    20316290.645
                  20316294.691                          50.400          31.400

 111130044.184 8  86434286.752 4                  20789113.023    20789111.582
                  20789118.445                          48.100          28.000

 115731382.603 8  90013352.770 5                  21680381.375    21680379.770
                  21680386.922                          48.600          34.000

 113857899.164 6  88720594.886 6                  21666456.914
  21666464.902    21666465.820                          39.500          39.200

 117336234.099 6  91431067.433 6                  22328327.945
  22328336.797    22328338.473                          39.400          37.300

 114344882.661 7  88934925.059 5                  21383065.047    21383063.898
                  21383069.668                          46.300          33.500

 13 10  1 10 41 30.0000000  0 11G09G02R23G26G05R08R01R22G29G15R24
 123855519.268 5                                  23568918.938
                                                        34.200

 109500282.735 7  85325090.72743                  20837219.055
                  20837224.195                          43.100          20.900

 103643547.144 8  80611674.168 6                  19375059.313    19375059.109
                  19375065.367                          53.200          36.800

 105527249.733 7  82228914.92644                  20081120.063
                  20081127.875                          45.600          24.500

 110571204.137 6  86159765.800 6                  21040976.195
  21040983.230    21040982.566                          41.800          40.700

 108847843.326 8  84659397.240 5                  20326520.680    20326519.848
                  20326524.184                          50.200          31.700

 111094276.581 7  86406467.553 4                  20782420.828    20782419.504
                  20782427.660                          47.900          28.500

 115847384.019 8  90103575.872 5                  21702112.148    21702111.953
                  21702118.098                          49.100          33.200

 113816669.172 6  88688467.622 6                  21658610.570
  21658618.262    21658619.281                          39.400          39.400

 117240392.708 6  91356386.018 6                  22310089.391
  22310098.605    22310099.043                          39.400          38.300

 114245383.598 7  88857536.986 5                  21364457.570    21364457.125
                  21364462.984                          46.300          32.900

 13 10  1 10 42  0.0000000  0 11G09G02R23G26G05R08R01R22G29G15R24
 123814691.127 5                                  23561149.719
                                                        34.700

 109533241.532 7  85350772.88943                  20843491.484
                  20843495.633                          43.200          20.900

 103655696.342 8  80621123.545 6                  19377330.305    19377329.516
                  19377336.211                          53.700          37.500

 105479249.117 7  82191511.87743                  20071986.000
                  20071994.074                          44.200          22.500

 110603017.707 7  86184555.600 6                  21047030.047
  21047036.758    21047036.906                          42.200          41.200

 108902817.296 8  84702154.788 5                  20336786.875    20336786.277
                  20336790.531                          50.500          32.800

 111058879.311 8  86378936.394 4                  20775798.844    20775798.109
                  20775806.293                          48.800          29.500

 115963726.669 8  90194064.391 5                  21723907.789    21723906.652
                  21723913.828                          49.000          34.600

 113775964.784 6  88656749.935 6                  21650865.594
  21650872.949    21650873.203                          39.700          38.900

 117144842.276 6  91281931.299 6                  22291906.516
  22291915.598    22291916.719                          40.600          38.000

 114146329.154 7  88780494.637 5                  21345934.422    21345933.508
                  21345938.746                          47.200          33.000

 13 10  1 10 42 30.0000000  0 12G09G02R07R23G26G05R08R01R22G29G15R24
 123774313.001 5                                  23553466.195
                                                        35.400

 109566582.765 7  85376753.05443                  20849835.016
                  20849840.645                          42.300          19.900

 126623944.49015                                  23654416.352    23654415.816
                                                        32.000

 103668651.065 8  80631199.433 6                  19379752.430    19379751.758
                  19379758.645                          53.300          36.500

 105431875.196 7  82154597.15343                  20062971.047
                  20062978.723                          44.500          22.300

 110634994.201 6  86209472.350 6                  21053115.313
  21053121.766    21053121.824                          41.700          40.600

 108957996.090 8  84745071.629 5                  20347090.891    20347090.293
                  20347094.852                          50.600          31.600

 111023863.108 8  86351701.599 4                  20769249.336    20769248.012
                  20769255.066                          48.700          28.800

 116080418.627 8  90284824.578 5                  21745768.117    21745767.098
                  21745774.465                          49.500          34.000

 113735798.919 6  88625451.884 6                  21643221.563
  21643229.535    21643230.250                          39.300          39.200

 117049596.777 6  91207714.170 6                  22273782.469
  22273790.816    22273791.262                          40.100          37.500

 114047734.820 7  88703810.194 5                  21327497.289    21327496.375
                  21327500.398                          47.600          32.200

 13 10  1 10 43  0.0000000  0 12G09G02R07R23G26G05R08R01R22G29G15R24
 123734389.733 5                                  23545868.984
                                                        33.200

 109600309.303 7  85403033.47443                  20856252.352
                  20856258.383                          42.100          19.600

 126718178.260 5                                  23672022.758    23672022.223
                                                        34.600

 103682413.691 8  80641903.691 6                  19382324.977    19382324.656
                  19382331.000                          53.700          36.200

 105385131.969 7  82118173.90143                  20054076.344
                  20054083.996                          44.500          22.300

 110667135.063 6  86234517.190 6                  21059231.117
  21059237.723    21059237.898                          41.700          40.800

 109013379.411 8  84788147.547 5                  20357433.898    20357434.004
                  20357437.734                          50.700          31.400

 110989229.116 8  86324764.075 4                  20762769.969    20762768.527
                  20762776.500                          49.100          28.900

 116197458.535 8  90375855.364 5                  21767693.984    21767693.082
                  21767700.105                          49.800          34.600

 113696175.237 6  88594576.280 6                  21635681.500
  21635689.398    21635689.598                          38.900          38.300

 116954659.772 6  91133737.422 6                  22255716.609
  22255725.316    22255725.590                          39.600          37.900

 113949607.412 7  88627488.926 5                  21309147.555    21309146.758
                  21309150.434                          47.100          32.500

 13 10  1 10 43 30.0000000  0 12G09G02R07R23G26G05R08R01R22G29G15R24
 123694919.471 5                                  23538357.148
                                                        34.200

 109634417.106 7  85429611.00743                  20862744.578
                  20862749.668                          42.000          18.600

 126812287.435 5                                  23689604.352    23689602.523
                                                        34.900

 103696979.904 8  80653232.976 6                  19385048.000    19385047.563
                  19385053.820                          53.200          37.400

 105339016.516 7  82082239.79943                  20045300.750
                  20045308.109                          45.400          22.000

 110699434.633 6  86259685.698 6                  21065377.531
  21065384.789    21065384.320                          41.100          41.700

 109068960.481 8  84831377.275 5                  20367813.445    20367812.496
                  20367816.383                          51.100          31.700

 110954971.810 8  86298119.549 4                  20756361.773    20756360.684
                  20756368.613                          49.400          29.700

 116314838.584 8  90467150.730 5                  21789683.109    21789681.738
                  21789689.254                          48.500          34.500

 113657090.321 6  88564120.523 6                  21628243.695
  21628251.063    21628251.410                          39.600          39.400

 116860029.647 6  91059999.834 6                  22237707.867
  22237717.789    22237718.848                          40.600          39.000

 113851946.486 7  88551530.502 5                  21290883.266    21290883.055
                  21290887.316                          47.400          33.800

 13 10  1 10 44  0.0000000  0 12G09G02R07R23G26G05R08R01R22G29G15R24
 123655905.933 5                                  23530933.422
                                                        34.200

 109668908.107 6  85456487.08743                  20869307.570
                  20869312.902                          41.900          19.600

 126906271.783 5                                  23707158.070    23707156.832
                                                        32.000

 103712351.000 8  80665188.259 6                  19387921.164    19387920.727
                  19387927.789                          53.400          38.500

 105293531.675 7  82046797.09543                  20036645.555
                  20036652.707                          45.500          23.500

 110731893.414 6  86284978.255 6                  21071555.125
  21071561.152    21071561.246                          41.800          41.800

 109124737.826 8  84874759.668 5                  20378229.047    20378228.215
                  20378231.816                          51.100          32.300

 110921091.121 8  86271767.941 4                  20750023.813    20750022.371
                  20750029.465                          48.700          29.600

 116432556.405 8  90558708.780 5                  21811735.992    21811735.441
                  21811742.559                          49.000          34.900

 113618547.227 6  88534086.959 6                  21620909.422
  21620917.008    21620917.402                          39.500          40.100

 116765709.986 6  90986504.111 6                  22219760.141
  22219769.016    22219769.480                          39.400          38.300

 113754757.357 7  88475938.998 5                  21272709.266    21272708.352
                  21272712.297                          47.600          35.400

 13 10  1 10 44 30.0000000  0 12G09G02R07R23G26G05R08R01R22G29G15R24
 123617358.370 5                                  23523598.016
                                                        35.000

 109703789.464 7  85483667.36343                  20875944.438
                  20875950.402                          42.000          19.600

 127000137.432 5                                  23724695.945    23724693.766
                                                        32.600

 103728533.623 8  80677774.749 6                  19390946.563    19390946.008
                  19390952.828                          53.200          37.000

 105248685.744 7  82011852.26243                  20028111.844
                  20028118.379                          44.800          21.800

 110764516.926 7  86310399.189 6                  21077762.609
  21077769.305    21077769.574                          42.000          41.800

 109180716.077 8  84918298.297 5                  20388683.078    20388681.773
                  20388685.672                          50.500          32.200

 110887593.219 7  86245714.082 4                  20743756.195    20743755.578
                  20743763.199                          47.600          27.300

 116550615.306 8  90650532.124 5                  21833852.180    21833851.277
                  21833858.758                          48.500          32.800

 113580553.795 6  88504481.695 6                  21613679.523
  21613686.996    21613686.973                          39.500          38.200

 116671709.469 6  90913257.076 6                  22201872.320
  22201880.578    22201881.555                          40.100          37.500

 113658051.109 7  88400723.088 5                  21254624.656    21254623.977
                  21254628.785                          46.700          35.000

 13 10  1 10 45  0.0000000  0 12G09G02R07R23G26G05R08R01R22G29G15R24
 123579268.125 5                                  23516349.031
                                                        35.400

 109739050.575 7  85511143.51843                  20882654.273
                  20882660.379                          42.100          19.600

 127093871.50114                                  23742207.398    23742204.516
                                                        26.800

 103745516.217 8  80690983.428 6                  19394121.461    19394120.672
                  19394127.285                          53.700          36.900

 105204469.031 7  81977397.72643                  20019696.719
                  20019704.363                          44.400          23.200

 110797293.129 6  86335939.088 7                  21083999.695
  21084006.996    21084006.781                          41.900          42.200

 109236880.993 8  84961982.136 5                  20399170.883    20399170.168
                  20399173.555                          51.200          32.100

 110854465.453 8  86219948.074 4                  20737559.586    20737558.617
                  20737566.438                          48.500          28.800

 116669000.430 7  90742609.155 5                  21856029.563    21856028.777
                  21856036.801                          47.000          33.200

 113543100.024 6  88475296.953 6                  21606552.039
  21606559.852    21606559.711                          39.400          38.000

 116578019.220 6  90840251.827 6                  22184043.492
  22184052.152    22184052.629                          40.500          38.300

 113561820.651 7  88325877.215 5                  21236629.156    21236628.008
                  21236632.855                          46.700          34.000

 13 10  1 10 45 30.0000000  0 11G09G02R23G26G05R08R01R22G29G15R24
 123541641.243 5                                  23509189.445
                                                        35.300

 109774695.160 7  85538918.53443                  20889437.828
                  20889442.727                          43.100          19.900

 103763302.219 8  80704816.973 6                  19397446.383    19397445.945
                  19397452.402                          53.000          36.100

 105160886.323 7  81943437.18743                  20011403.648
                  20011411.074                          44.900          22.200

 110830224.214 6  86361599.683 7                  21090265.891
  21090273.211    21090273.992                          41.600          42.300

 109293233.716 8  85005812.047 5                  20409694.320    20409694.191
                  20409697.461                          50.900          30.700

 110821710.064 8  86194471.692 4                  20731432.188    20731431.336
                  20731438.313                          48.500          28.400

 116787711.471 7  90834939.700 5                  21878269.273    21878267.785
                  21878276.230                          47.300          33.500

 113506190.986 6  88446536.673 6                  21599528.852
  21599535.859    21599536.492                          39.100          38.900

 116484644.802 6  90767492.687 6                  22166274.563
  22166283.543    22166284.355                          40.000          37.500

 113466073.139 7  88251406.970 5                  21218723.211    21218721.828
                  21218726.344                          46.600          33.500

 13 10  1 10 46  0.0000000  0 11G09G02R23G26G05R08R01R22G29G15R24
 123504478.216 5  96237256.08552                  23502117.211
                  23502122.754                          34.700          12.600

 109810722.005 7  85566991.40043                  20896293.805
                  20896299.148                          42.400          20.900

 103781889.805 8  80719273.980 6                  19400921.492    19400920.820
                  19400926.805                          53.700          37.400

 105117937.361 7  81909970.48443                  20003230.500
                  20003238.348                          44.400          22.000

 110863307.486 7  86387378.874 7                  21096562.109
  21096569.121    21096569.242                          42.300          42.000

 109349769.847 8  85049784.604 5                  20420252.094    20420251.379
                  20420254.930                          50.500          32.200

 110789324.151 7  86169282.701 5                  20725373.484    20725372.160
                  20725379.727                          47.700          30.300

 116906743.377 7  90927519.762 5                  21900567.516    21900566.379
                  21900574.016                          47.600          32.400

 113469826.139 6  88418200.454 6                  21592607.484
  21592615.590    21592616.727                          39.900          39.400

 116391586.666 6  90694979.976 6                  22148566.492
  22148574.613    22148575.516                          38.700          37.600

 113370811.173 7  88177314.372 5                  21200908.664    21200907.984
                  21200912.445                          47.900          34.500

 13 10  1 10 46 30.0000000  0 11G09G02R23G26G05R08R01R22G29G15R24
 123467786.358 6  96208665.08052                  23495136.109
                  23495143.262                          36.000          13.900

 109847136.780 7  85595366.53243                  20903223.180
                  20903228.250                          43.000          20.400

 103801283.645 8  80734358.059 6                  19404546.719    19404546.047
                  19404551.895                          53.200          36.300

 105075628.674 7  81877002.73743                  19995178.961
                  19995187.582                          44.300          23.900

 110896546.885 7  86413279.738 6                  21102886.688
  21102893.922    21102893.801                          42.700          41.400

 109406492.398 8  85093902.143 5                  20430843.828    20430843.465
                  20430847.762                          50.800          31.500

 110757311.515 8  86144384.028 4                  20719385.438    20719384.230
                  20719391.375                          48.100          28.200

 117026097.668 7  91020350.573 5                  21922927.336    21922926.199
                  21922933.668                          47.200          32.000

 113434011.906 6  88390293.263 6                  21585793.117
  21585800.973    21585801.199                          39.800          38.700

 116298852.093 6  90622719.396 6                  22130920.227
  22130927.855    22130928.387                          38.600          37.600

 113276043.864 7  88103606.522 5                  21183187.227    21183185.961
                  21183190.895                          47.900          34.600

 13 10  1 10 47  0.0000000  0 11G09G02R23G26G05R08R01R22G29G15R24
 123431567.941 5  96180443.03052                  23488244.320
                  23488253.500                          35.300          13.900

 109883939.498 6  85624043.96743                  20910225.898
                  20910231.996                          41.900          19.600

 103821483.029 8  80750068.689 6                  19408322.633    19408321.961
                  19408328.246                          52.700          36.900

 105033961.222 7  81844534.62243                  19987250.930
                  19987258.430                          45.400          23.000

 110929941.143 7  86439301.243 6                  21109241.523
  21109248.594    21109248.816                          42.100          41.200

 109463398.426 8  85138162.374 5                  20441470.602    20441470.238
                  20441474.535                          49.300          30.100

 110725670.842 8  86119774.704 5                  20713465.109    20713464.492
                  20713472.453                          48.300          30.100

 117145769.986 7  91113428.727 5                  21945346.781    21945345.176
                  21945353.031                          47.600          32.700

 113398748.816 6  88362815.516 6                  21579082.664
  21579090.727    21579090.613                          40.000          39.400

 116206442.958 6  90550712.409 6                  22113333.711
  22113342.910    22113343.484                          39.000          38.100

 113181775.058 8  88030286.368 5                  21165557.914    21165557.703
                  21165561.910                          48.000          34.700

 13 10  1 10 47 30.0000000  0 11G09G02R23G26G05R08R01R22G29G15R24
 123395823.530 5                                  23481441.859
                                                        35.800

 109921128.856 6  85653022.67243                  20917303.617
                  20917308.781                          41.800          20.600

 103842485.979 8  80766404.317 6                  19412248.664    19412247.992
                  19412254.789                          52.900          38.000

 104992934.570 7  81812565.83744                  19979443.758
                  19979451.648                          44.500          24.900

 110963487.519 6  86465441.285 6                  21115625.531
  21115632.293    21115631.770                          41.400          40.400

 109520483.486 8  85182561.867 5                  20452131.414    20452131.168
                  20452135.426                          49.600          32.900

 110694399.189 7  86095452.343 4                  20707615.078    20707614.695
                  20707622.508                          47.300          28.600

 117265755.292 7  91206750.296 5                  21967823.539    21967822.637
                  21967830.691                          47.500          33.600

 113364036.504 6  88335767.021 6                  21572477.063
  21572484.910    21572485.676                          40.500          40.300

 116114359.419 6  90478959.100 6                  22095810.852
  22095819.727    22095820.668                          38.900          37.300

 113088007.059 8  87957355.737 5                  21148023.008    21148021.977
                  21148026.195                          48.400          35.000

 13 10  1 10 48  0.0000000  0 11G09G02R23G26G05R08R01R22G29G15R24
 123360559.932 5                                  23474730.688
                                                        34.000

 109958709.634 6  85682306.38143                  20924454.344
                  20924460.695                          41.100          20.400

 103864296.186 8  80783367.787 6                  19416326.289    19416325.383
                  19416332.012                          53.500          37.800

 104952554.336 7  81781100.73844                  19971759.750
                  19971766.922                          45.700          24.600

 110997189.565 6  86491702.632 6                  21122038.164
  21122045.031    21122044.387                          41.400          40.100

 109577749.609 8  85227102.178 5                  20462825.102    20462824.738
                  20462829.199                          50.000          31.700

 110663499.536 8  86071419.322 4                  20701835.406    20701833.965
                  20701841.105                          48.700          27.300

 117386053.982 7  91300315.608 5                  21990358.977    21990358.781
                  21990367.258                          47.400          32.900

 113329880.370 6  88309151.849 6                  21565978.031
  21565985.320    21565985.566                          40.100          39.400

 116022607.797 6  90407464.441 6                  22078351.359
  22078360.301    22078360.684                          38.300          36.700

 112994748.110 8  87884821.034 5                  21130582.938    21130581.789
                  21130586.234                          48.600          34.000

 13 10  1 10 48 30.0000000  0 11G09G02R23G26G05R08R01R22G29G15R24
 123325775.473 5                                  23468111.961
                                                        34.600

 109996678.101 6  85711892.16043                  20931679.953
                  20931685.613                          40.900          18.600

 103886909.505 8  80800955.919 6                  19420553.211    19420553.008
                  19420559.469                          52.900          36.500

 104912817.899 7  81750137.32443                  19964197.797
                  19964205.281                          44.900          22.800

 111031042.058 7  86518081.215 6                  21128480.641
  21128486.797    21128487.117                          42.500          40.600

 109635190.298 8  85271778.285 5                  20473551.703    20473551.457
                  20473555.020                          49.700          32.100

 110632966.817 8  86047671.691 4                  20696123.711    20696122.270
                  20696129.480                          49.100          27.300

 117506658.801 7  91394119.016 5                  22012952.672    22012951.535
                  22012960.887                          46.200          32.700

 113296277.683 6  88282967.951 6                  21559583.555
  21559590.773    21559591.160                          40.300          39.400

 115931186.452 6  90336227.144 6                  22060954.266
  22060963.313    22060963.676                          37.700          37.000

 112901998.310 8  87812682.332 5                  21113238.734    21113237.586
                  21113241.473                          48.200          34.000

 13 10  1 10 49  0.0000000  0 11G09G02R23G26G05R08R01R22G29G15R24
 123291469.678 5                                  23461584.102
                                                        34.600

 110035031.788 6  85741778.16143                  20938978.148
                  20938983.875                          40.500          18.600

 103910322.644 8  80819166.147 6                  19424930.398    19424929.727
                  19424936.422                          53.500          36.200

 104873723.728 7  81719674.37043                  19956758.258
                  19956766.059                          45.500          22.600

 111065041.094 7  86544573.986 6                  21134950.109
  21134957.109    21134956.922                          42.200          40.500

 109692800.374 8  85316586.129 5                  20484310.180    20484309.934
                  20484313.988                          49.700          31.100

 110602796.803 8  86024206.197 4                  20690479.781    20690478.105
                  20690485.797                          48.300          29.300

 117627562.987 7  91488155.269 5                  22035602.453    22035601.434
                  22035610.066                          47.000          33.400

 113263226.879 6  88257214.115 6                  21553294.688
  21553301.691    21553302.117                          40.000          38.300

 115840094.965 6  90265246.915 6                  22043619.719
  22043628.711    22043629.559                          38.500          38.000

 112809759.131 7  87740940.783 5                  21095988.938    21095988.258
                  21095992.809                          47.600          34.900

 13 10  1 10 49 30.0000000  0 11G09G02R23G26G05R08R01R22G29G15R24
 123257646.077 5                                  23455147.438
                                                        33.800

 110073772.331 6  85771965.53643                  20946350.625
                  20946355.988                          40.000          19.000

 103934536.115 8  80837998.849 6                  19429456.398    19429456.078
                  19429462.863                          53.500          36.900

 104835274.186 7  81689713.72744                  19949441.711
                  19949450.047                          44.700          24.000

 111099186.993 7  86571181.202 6                  21141447.930
  21141455.090    21141454.848                          42.100          41.400

 109750578.572 8  85361524.738 5                  20495099.844    20495099.715
                  20495103.496                          50.000          31.200

 110572989.626 8  86001022.873 4                  20684903.336    20684901.895
                  20684909.605                          49.100          28.400

 117748764.584 7  91582422.789 5                  22058307.469    22058306.801
                  22058316.523                          46.000          33.800

 113230730.224 6  88231892.045 6                  21547110.383
  21547117.668    21547118.035                          39.000          38.100

 115749336.351 6  90194526.038 6                  22026349.320
  22026358.125    22026358.363                          38.000          37.900

 112718035.631 8  87669600.321 5                  21078835.766    21078835.672
                  21078839.633                          48.000          34.100

 13 10  1 10 50  0.0000000  0 12G09G02R10R23G26G05R08R01R22G29G15R24
 123224315.652 5                                  23448804.953
                                                        33.000

 110112908.806 6  85802461.48443                  20953798.281
                  20953803.578                          40.600          19.000

 126516649.45315                                  23734206.930    23734201.531
                                                        34.800

 103959558.458 8  80857460.637 6                  19434134.266    19434133.945
                  19434140.559                          53.900          37.200

 104797479.290 7  81660263.19743                  19942249.258
                  19942257.438                          45.000          23.000

 111133487.637 7  86597908.978 6                  21147975.273
  21147982.297    21147981.844                          42.300          40.800

 109808531.604 8  85406599.342 5                  20505922.266    20505921.668
                  20505925.059                          49.600          31.600

 110543552.812 7  85978127.632 4                  20679396.484    20679395.160
                  20679403.395                          47.900          28.800

 117870268.554 7  91676925.480 5                  22081070.164    22081069.496
                  22081078.848                          47.400          33.300

 113198797.478 6  88207009.413 6                  21541032.711
  21541040.824    21541041.078                          38.400          38.400

 115658921.559 6  90124073.081 6                  22009143.289
  22009152.355    22009152.223                          38.400          37.500

 112626840.808 7  87598671.053 5                  21061782.266    21061781.117
                  21061785.523                          47.300          34.500

 13 10  1 10 50 30.0000000  0 12G09G02R10R23G26G05R08R01R22G29G15R24
 123191466.422 5                                  23442552.516
                                                        31.000

 110152427.696 6  85833255.40643                  20961318.453
                  20961323.410                          39.900          18.600

 126435747.897 6                                  23719026.375    23719025.203
                                                        36.200

 103985374.491 8  80877539.784 6                  19438960.391    19438959.836
                  19438966.320                          53.400          36.500

 104760326.124 7  81631312.67643                  19935179.055
                  19935186.762                          45.500          22.900

 111167928.231 6  86624745.811 6                  21154529.141
  21154535.965    21154535.824                          41.600          40.900

 109866642.453 8  85451796.680 5                  20516773.836    20516773.824
                  20516777.953                          49.500          31.900

 110514470.688 7  85955508.265 4                  20673955.750    20673954.898
                  20673962.410                          47.700          29.100

 117992056.807 7  91771649.290 5                  22103885.977    22103885.426
                  22103894.203                          47.800          34.200

 113167415.610 6  88182556.039 6                  21535061.227
  21535069.121    21535069.926                          38.800          38.600

 115568838.381 6  90053878.504 6                  21992001.250
  21992009.336    21992009.840                          39.600          36.800

 112536164.420 7  87528145.002 5                  21044824.734    21044824.758
                  21044828.535                          47.600          33.900

 13 10  1 10 51  0.0000000  0 12G09G02R10R23G26G05R08R01R22G29G15R24
 123159109.210 5                                  23436396.211
                                                        34.200

 110192337.545 6  85864353.97643                  20968912.422
                  20968917.891                          41.400          18.300

 126355116.232 5                                  23703898.805    23703897.750
                                                        35.000

 104011992.221 8  80898242.458 5                  19443936.398    19443935.844
                  19443942.590                          53.400          35.900

 104723824.167 7  81602869.64143                  19928233.516
                  19928240.180                          45.400          22.200

 111202516.007 7  86651697.323 6                  21161110.445
  21161118.008    21161117.996                          42.600          41.800

 109924917.339 8  85497121.613 5                  20527656.211    20527656.434
                  20527660.453                          49.200          32.200

 110485750.842 8  85933170.653 4                  20668583.289    20668582.320
                  20668589.457                          48.600          29.500

 118114134.423 7  91866598.109 5                  22126755.570    22126754.434
                  22126764.160                          47.700          34.600

 113136594.131 6  88158539.305 6                  21529196.516
  21529203.977    21529204.223                          39.400          38.400

 115479097.354 6  89983950.546 6                  21974924.648
  21974932.695    21974932.777                          39.900          37.100

 112446018.748 8  87458031.732 5                  21027967.438    21027966.641
                  21027970.660                          48.300          34.700

 13 10  1 10 51 30.0000000  0 12G09G02R10R23G26G05R08R01R22G29G15R24
 123127245.051 5                                  23430332.047
                                                        34.100

 110232637.563 6  85895756.59742                  20976581.797
                  20976586.965                          41.100          17.800

 126274757.237 5                                  23688822.367    23688821.781
                                                        34.700

 104039409.571 8  80919567.042 6                  19449061.750    19449060.844
                  19449067.891                          52.500          36.400

 104687973.365 7  81574933.97643                  19921410.625
                  19921418.180                          44.500          23.600

 111237248.285 7  86678761.438 6                  21167719.805
  21167727.301    21167727.418                          42.100          40.700

 109983352.913 8  85542571.491 5                  20538568.977    20538568.145
                  20538572.434                          49.800          32.200

 110457390.615 8  85911112.764 4                  20663278.047    20663277.078
                  20663284.664                          48.800          27.500

 118236496.231 7  91961767.991 5                  22149678.180    22149677.512
                  22149686.234                          47.900          33.800

 113106332.861 6  88134959.126 6                  21523437.867
  21523445.676    21523446.410                          39.300          39.200

 115389699.394 6  89914289.924 6                  21957912.070
  21957920.535    21957921.344                          39.800          37.600

 112356406.740 8  87388333.547 5                  21011210.406    21011209.375
                  21011213.035                          48.500          35.000

 13 10  1 10 52  0.0000000  0 12G09G02R10R23G26G05R08R01R22G29G15R24
 123095875.449 5                                  23424361.305
                                                        32.400

 110273327.000 7  85927462.61443                  20984324.836
                  20984329.582                          42.600          18.300

 126194675.119 6                                  23673804.078    23673799.973
                                                        37.000

 104067625.059 8  80941512.410 6                  19454336.211    19454335.539
                  19454342.141                          52.700          37.000

 104652773.902 7  81547505.85443                  19914712.602
                  19914720.289                          45.200          22.500

 111272124.069 6  86705937.380 6                  21174356.820
  21174363.410    21174363.578                          41.700          41.400

 110041945.361 8  85588143.400 5                  20549510.492    20549510.246
                  20549514.906                          49.500          32.200

 110429387.729 8  85889332.819 4                  20658039.094    20658037.652
                  20658046.074                          48.800          29.800

 118359137.893 8  92057155.477 5                  22172653.547    22172652.996
                  22172662.340                          48.200          33.900

 113076631.930 6  88111815.570 6                  21517786.172
  21517793.770    21517793.781                          38.700          38.900

 115300645.853 6  89844897.666 6                  21940965.867
  21940974.234    21940974.594                          41.000          38.400

 112267331.351 8  87319052.767 5                  20994552.188    20994551.273
                  20994555.449                          48.900          35.000

 13 10  1 10 52 30.0000000  0 12G09G02R10R23G26G05R08R01R22G29G15R24
 123065002.357 5                                  23418487.445
                                                        31.600

 110314406.352 6  85959472.50943                  20992141.555
                  20992147.055                          41.700          19.600

 126114873.930 6                                  23658830.086    23658829.148
                                                        39.200

 104096637.991 8  80964078.009 6                  19459759.758    19459758.852
                  19459766.027                          53.200          36.500

 104618226.963 7  81520586.20243                  19908138.227
                  19908145.703                          44.100          22.800

 111307142.029 6  86733224.117 6                  21181020.234
  21181027.754    21181027.906                          41.500          41.400

 110100693.155 8  85633836.136 5                  20560481.625    20560481.027
                  20560485.246                          50.000          31.700

 110401741.133 8  85867829.939 4                  20652867.477    20652866.270
                  20652874.055                          48.300          29.100

 118482055.944 7  92152757.921 5                  22195681.039    22195679.668
                  22195688.961                          47.300          34.400

 113047492.501 6  88089109.548 6                  21512240.789
  21512248.598    21512249.266                          40.100          39.700

 115211938.677 6  89775775.304 6                  21924085.344
  21924093.758    21924093.836                          38.900          37.300

 112178796.951 8  87250192.737 5                  20977995.438    20977994.992
                  20977999.098                          49.200          33.800

 13 10  1 10 53  0.0000000  0 12G09G02R10R23G26G05R08R01R22G29G15R24
 123034631.970 5                                  23412708.977
                                                        33.300

 110355879.509 7  85991789.28342                  21000033.836
                  21000039.441                          42.700          17.800

 126035361.778 6                                  23643914.531    23643912.066
                                                        39.100

 104126451.195 8  80987266.045 6                  19465333.297    19465332.625
                  19465339.199                          53.000          36.200

 104584337.346 7  81494178.74043                  19901689.570
                  19901696.824                          45.000          22.600

 111342305.341 6  86760624.109 6                  21187711.930
  21187718.496    21187718.957                          41.800          40.900

 110159597.261 8  85679650.436 5                  20571481.180    20571481.051
                  20571485.180                          50.100          32.700

 110374453.261 8  85846606.088 4                  20647762.453    20647761.484
                  20647768.863                          49.100          29.200

 118605250.402 7  92248575.348 5                  22218759.727    22218758.824
                  22218768.059                          46.700          34.400

 113018919.004 6  88066844.502 6                  21506804.445
  21506811.770    21506812.219                          40.500          39.800

 115123583.969 6  89706927.586 6                  21907271.430
  21907280.336    21907280.512                          40.500          37.500

 112090811.177 8  87181759.401 5                  20961542.094    20961540.945
                  20961545.059                          50.000          34.500

 13 10  1 10 53 30.0000000  0 12G09G02R10R23G26G05R08R01R22G29G15R24
 123004755.692 5                                  23407023.805
                                                        34.900

 110397736.443 7  86024405.00843                  21007998.930
                  21008004.344                          42.400          19.000

 125956132.292 6                                  23629052.508    23629049.691
                                                        40.600

 104157053.424 8  81011067.777 6                  19471053.852    19471053.414
                  19471059.699                          52.600          36.800

 104551095.431 7  81468275.96844                  19895364.023
                  19895371.313                          44.500          24.000

 111377602.184 7  86788128.143 6                  21194429.102
  21194435.480    21194435.742                          42.000          40.600

 110218644.735 8  85725576.246 5                  20582508.102    20582507.621
                  20582512.230                          49.800          32.600

 110347511.993 8  85825651.813 5                  20642722.602    20642721.984
                  20642729.152                          49.100          30.000

 118728707.006 7  92344596.628 5                  22241886.977    22241886.309
                  22241895.648                          46.000          33.300

 112990902.441 6  88045013.434 6                  21501472.156
  21501479.914    21501480.379                          40.400          39.600

 115035572.748 6  89638347.503 6                  21890524.008
  21890531.859    21890531.762                          38.900          37.500

 112003367.144 8  87113747.385 5                  20945189.828    20945188.680
                  20945192.738                          49.300          34.100

 13 10  1 10 54  0.0000000  0 12G09G02R10R23G26G05R08R01R22G29G15R24
 122975386.778 5                                  23401434.883
                                                        34.600

 110439988.435 7  86057328.63143                  21016039.344
                  21016044.684                          43.200          19.600

 125877200.898 6                                  23614243.234    23614242.414
                                                        40.700

 104188454.588 8  81035490.892 6                  19476924.375    19476923.703
                  19476930.422                          53.200          36.800

 104518513.269 7  81442887.30643                  19889163.859
                  19889171.004                          44.900          23.200

 111413043.086 6  86815744.432 6                  21201172.688
  21201179.367    21201179.285                          41.700          41.400

 110277844.531 8  85771620.540 5                  20593563.094    20593562.496
                  20593567.148                          49.500          31.800

 110320927.410 8  85804974.954 4                  20637749.734    20637749.234
                  20637756.762                          48.600          29.300

 118852433.141 7  92440827.516 5                  22265065.633    22265064.613
                  22265073.980                          45.400          33.500

 112963454.138 6  88023625.170 6                  21496248.977
  21496256.543    21496256.934                          40.200          39.900

 114947918.110 6  89570045.304 6                  21873843.625
  21873852.105    21873851.539                          40.400          37.700

 111916480.113 8  87046168.660 5                  20928941.047    20928939.781
                  20928944.594                          48.800          33.600

 13 10  1 10 54 30.0000000  0 12G09G02R10R23G26G05R08R01R22G29G15R24
 122946523.127 5                                  23395941.641
                                                        34.700

 110482631.433 7  86090556.90743                  21024153.766
                  21024159.633                          43.100          18.600

 125798568.382 6                                  23599492.359    23599491.539
                                                        40.500

 104220649.541 8  81060531.391 6                  19482943.375    19482942.230
                  19482948.176                          53.100          36.500

 104486587.779 7  81418010.32844                  19883088.250
                  19883096.191                          45.200          25.600

 111448622.755 6  86843468.866 6                  21207942.828
  21207950.492    21207949.566                          41.300          40.400

 110337190.461 8  85817778.493 5                  20604645.203    20604644.957
                  20604649.148                          49.500          32.600

 110294693.966 8  85784571.221 4                  20632842.359    20632841.391
                  20632848.336                          49.200          27.000

 118976421.014 7  92537261.946 5                  22288293.328    22288291.371
                  22288301.371                          44.300          34.400

 112936570.988 6  88002677.298 6                  21491132.977
  21491140.746    21491141.391                          39.800          40.400

 114860618.220 6  89502019.540 6                  21857231.570
  21857239.551    21857238.785                          40.100          37.500

 111830150.000 8  86979023.084 5                  20912796.859    20912796.063
                  20912799.977                          49.500          33.400

 13 10  1 10 55  0.0000000  0 12G09G02R10R23G26G05R08R01R22G29G15R24
 122918167.451 5                                  23390545.938
                                                        35.200

 110525666.346 7  86124090.59943                  21032343.219
                  21032348.711                          43.100          19.900

 125720239.280 6                                  23584797.820    23584795.590
                                                        39.800

 104253638.189 8  81086189.231 6                  19489109.727    19489108.699
                  19489114.188                          53.300          37.100

 104455320.337 7  81393646.13044                  19877138.930
                  19877146.406                          46.300          24.800

 111484340.682 6  86871301.021 6                  21214739.672
  21214747.430    21214747.059                          41.800          41.000

 110396680.494 8  85864048.536 5                  20615754.563    20615753.965
                  20615758.398                          49.600          32.500

 110268810.646 8  85764439.801 4                  20628000.805    20627999.363
                  20628006.297                          50.000          29.700

 119100667.686 7  92633897.672 5                  22311569.188    22311567.934
                  22311577.922                          44.900          35.200

 112910254.621 6  87982171.050 6                  21486125.648
  21486133.086    21486133.316                          39.800          39.900

 114773675.522 6  89434272.083 6                  21840686.406
  21840694.293    21840694.395                          40.200          39.600

 111744381.342 8  86912314.176 5                  20896757.414    20896756.617
                  20896760.949                          49.500          34.800

 13 10  1 10 55 30.0000000  0 12G09G02R10R23G26G05R08R01R22G29G15R24
 122890321.803 5                                  23385247.789
                                                        33.600

 110569093.172 7  86157929.65843                  21040606.906
                  21040612.648                          43.100          20.900

 125642217.741 6                                  23570161.016    23570159.844
                                                        40.100

 104287419.153 9  81112463.288 6                  19495424.750    19495423.961
                  19495430.340                          54.100          36.300

 104424711.697 7  81369795.25944                  19871313.945
                  19871321.289                          45.400          25.800

 111520196.562 6  86899240.678 6                  21221563.250
  21221570.293    21221570.309                          41.700          40.800

 110456312.251 8  85910428.786 5                  20626890.922    20626889.973
                  20626894.176                          49.000          31.200

 110243276.283 8  85744579.805 4                  20623223.094    20623222.004
                  20623229.215                          49.100          28.700

 119225169.195 7  92730731.573 5                  22334892.664    22334891.410
                  22334901.566                          44.400          34.600

 112884505.530 6  87962106.854 6                  21481225.930
  21481232.957    21481233.508                          38.800          38.900

 114687091.834 6  89366804.383 6                  21824210.156
  21824217.867    21824218.109                          40.200          38.100

 111659177.609 8  86846044.657 5                  20880824.180    20880823.266
                  20880827.352                          49.400          33.800

 13 10  1 10 56  0.0000000  0 12G09G02R10R23G26G05R08R01R22G29G15R24
 122862989.003 5                                  23380046.023
                                                        35.400

 110612913.083 7  86192075.02143                  21048945.883
                  21048951.672                          43.400          20.600

 125564509.199 6                                  23555583.008    23555581.719
                                                        41.100

 104321992.017 8  81139353.285 6                  19501887.695    19501887.023
                  19501893.586                          53.800          36.900

 104394763.599 7  81346459.10244                  19865615.414
                  19865622.785                          45.700          24.900

 111556189.708 7  86927287.278 6                  21228412.445
  21228419.637    21228419.766                          42.700          41.100

 110516084.548 8  85956918.351 5                  20638052.758    20638052.512
                  20638055.789                          48.500          31.100

 110218090.189 8  85724990.672 5                  20618510.875    20618509.906
                  20618518.078                          48.400          30.100

 119349922.851 7  92827761.519 5                  22358263.891    22358262.402
                  22358273.434                          43.800          35.100

 112859325.588 6  87942486.133 6                  21476433.789
  21476441.539    21476442.602                          39.800          39.900

 114600870.154 6  89299618.758 6                  21807802.648
  21807810.203    21807810.672                          39.400          38.900

 111574543.757 8  86780218.379 5                  20864996.414    20864995.734
                  20865000.074                          48.900          34.200

 13 10  1 10 56 30.0000000  0 12G09G02R10R23G26G05R08R01R22G29G15R24
 122836172.321 6                                  23374942.867
                                                        36.300

 110657127.377 7  86226527.69843                  21057359.648
                  21057364.770                          43.400          21.300

 125487119.027 6                                  23541066.633    23541061.820
                                                        40.200

 104357357.202 8  81166859.533 6                  19508498.633    19508498.078
                  19508504.723                          53.800          36.800

 104365478.083 7  81323639.25544                  19860042.047
                  19860049.605                          45.700          24.100

 111592320.671 7  86955441.298 6                  21235288.313
  21235294.840    21235295.387                          42.600          40.700

 110575996.188 8  86003516.324 5                  20649240.977    20649240.965
                  20649244.730                          48.700          31.900

 110193252.325 8  85705672.378 4                  20613864.445    20613863.828
                  20613871.539                          48.200          29.600

 119474926.024 7  92924985.541 5                  22381682.328    22381681.543
                  22381691.652                          44.700          34.600

 112834716.829 6  87923310.492 6                  21471750.695
  21471758.730    21471758.805                          38.700          39.300

 114515013.436 6  89232717.528 6                  21791464.328
  21791471.723    21791472.395                          39.000          37.600

 111490484.857 8  86714839.289 5                  20849278.094    20849277.297
                  20849280.992                          49.600          32.900

 13 10  1 10 57  0.0000000  0 12G09G02R10R23G26G05R08R01R22G29G15R24
 122809872.844 6                                  23369937.953
                                                        37.500

 110701735.376 7  86261287.16143                  21065847.641
                  21065853.547                          43.500          21.300

 125410050.431 6                                  23526606.695    23526605.992
                                                        40.900

 104393512.347 8  81194980.183 6                  19515257.813    19515257.141
                  19515263.512                          53.000          36.400

 104336854.700 7  81301335.35643                  19854595.383
                  19854602.871                          45.700          23.600

 111628587.517 7  86983701.195 6                  21242189.078
  21242196.715    21242196.188                          42.200          40.300

 110636043.723 8  86050219.954 5                  20660454.508    20660454.027
                  20660458.059                          48.900          31.900

 110168760.036 8  85686622.868 4                  20609283.250    20609282.160
                  20609289.840                          48.700          28.700

 119600173.755 7  93022399.751 5                  22405145.672    22405144.770
                  22405154.789                          45.300          33.800

 112810678.491 6  87904579.353 6                  21467176.672
  21467184.426    21467184.992                          40.300          39.400

 114429522.466 6  89166101.285 6                  21775196.281
  21775204.750    21775203.949                          39.600          38.100

 111407003.524 8  86649909.414 5                  20833665.742    20833664.711
                  20833668.543                          49.900          33.300

 13 10  1 10 57 30.0000000  0 12G09G02R10R23G26G05R08R01R22G29G15R24
 122784088.330 5                                  23365031.523
                                                        35.300

 110746732.621 7  86296349.94843                  21074410.938
                  21074416.199                          43.200          20.400

 125333303.626 6                                  23512210.508    23512206.754
                                                        39.400

 104430451.927 8  81223710.954 6                  19522163.375    19522162.938
                  19522169.254                          52.700          36.700

 104308890.178 7  81279544.84944                  19849273.633
                  19849280.891                          45.200          26.000

 111664985.242 7  87012063.071 6                  21249115.602
  21249122.379    21249122.238                          42.400          40.800

 110696220.994 8  86097024.495 5                  20671691.406    20671691.629
                  20671695.348                          48.600          31.200

 110144608.119 8  85667838.069 4                  20604765.078    20604764.109
                  20604771.277                          48.900          28.200

 119725658.329 7  93119998.183 5                  22428653.297    22428651.926
                  22428661.859                          46.100          33.100

 112787207.699 6  87886290.420 6                  21462710.359
  21462717.902    21462718.473                          40.000          39.100

 114344395.333 6  89099768.550 6                  21758997.023
  21759004.500    21759004.258                          39.400          38.800

 111324099.786 8  86585428.757 5                  20818162.328    20818161.180
                  20818165.840                          50.500          34.200

 13 10  1 10 58  0.0000000  0 12G09G02R10R23G26G05R08R01R22G29G15R24
 122758825.449 6                                  23360224.859
                                                        36.300

 110792124.462 7  86331720.15343                  21083048.633
                  21083054.332                          42.600          21.100

 125256887.565 6                                  23497872.617    23497871.914
                                                        38.800

 104468179.439 8  81253054.565 6                  19529215.781    19529215.109
                  19529222.035                          52.800          36.800

 104281590.008 7  81258272.02544                  19844078.727
                  19844085.953                          45.100          24.800

 111701517.963 6  87040530.125 6                  21256067.961
  21256074.789    21256074.871                          41.800          40.600

 110756530.496 8  86143931.891 5                  20682954.516    20682954.387
                  20682957.434                          48.200          31.600

 110120799.431 8  85649320.250 4                  20600310.945    20600310.563
                  20600317.371                          49.500          29.200

 119851381.211 7  93217781.852 5                  22452206.242    22452205.457
                  22452214.945                          44.900          31.200

 112764309.690 6  87868447.831 6                  21458352.844
  21458360.602    21458360.695                          40.100          39.200

 114259638.420 6  89033724.282 6                  21742867.523
  21742876.098    21742876.336                          38.700          38.900

 111241781.893 8  86521403.781 5                  20802769.070    20802768.391
                  20802772.578                          49.500          35.500

 13 10  1 10 58 30.0000000  0 12G09G02R10R23G26G05R08R01R22G29G15R24
 122734084.051 6                                  23355516.031
                                                        36.600

 110837908.505 7  86367396.02343                  21091761.242
                  21091766.547                          42.500          21.300

 125180804.440 6                                  23483600.492    23483597.910
                                                        38.000

 104506691.736 8  81283008.547 6                  19536415.438    19536415.000
                  19536421.418                          53.300          37.600

 104254952.619 7  81237515.65144                  19839009.852
                  19839016.867                          44.500          25.700

 111738182.201 7  87069099.670 6                  21263044.508
  21263051.473    21263051.711                          42.200          41.200

 110816967.737 8  86190938.651 5                  20694240.539    20694239.941
                  20694243.453                          49.100          31.200

 110097330.764 8  85631066.895 5                  20595921.320    20595919.645
                  20595926.977                          49.000          30.500

 119977336.131 7  93315745.967 5                  22475802.625    22475802.074
                  22475812.078                          45.400          32.700

 112741982.844 6  87851050.294 6                  21454103.789
  21454111.723    21454111.590                          40.400          39.900

 114175251.478 6  88967968.310 6                  21726808.953
  21726817.199    21726817.754                          37.500          39.200

 111160051.494 8  86457835.755 5                  20787485.375    20787483.992
                  20787487.746                          49.500          35.300

 13 10  1 10 59  0.0000000  0 12G09G02R10R23G26G05R08R01R22G29G15R24
 122709867.665 6                                  23350907.859
                                                        36.700

 110884086.736 6  86403379.06243                  21100548.594
                  21100554.352                          41.400          19.300

 125105060.221 6                                  23469391.680    23469389.918
                                                        41.200

 104545988.705 8  81313572.847 6                  19543761.906    19543761.117
                  19543767.297                          52.900          37.000

 104228980.507 7  81217277.67043                  19834067.289
                  19834074.695                          44.300          23.900

 111774979.177 6  87097772.653 6                  21270046.648
  21270053.949    21270053.801                          41.900          40.400

 110877532.281 8  86238044.408 5                  20705549.984    20705549.738
                  20705554.012                          49.100          31.400

 110074202.196 8  85613078.044 5                  20591593.516    20591593.016
                  20591600.570                          48.800          30.800

 120103521.004 7  93413888.906 5                  22499441.609    22499440.004
                  22499451.613                          44.400          32.300

 112720229.874 6  87834099.949 6                  21449964.727
  21449972.418    21449971.945                          38.600          38.300

 114091238.341 6  88902503.621 6                  21710822.008
  21710830.500    21710830.758                          37.100          39.300

 111078914.416 8  86394729.167 5                  20772312.180    20772312.203
                  20772315.926                          50.200          34.600

 13 10  1 10 59 30.0000000  0 12G09G02R10R23G26G05R08R01R22G29G15R24
 122686174.289 5                                  23346399.211
                                                        35.700

 110930655.368 7  86439666.27743                  21109409.969
                  21109415.465                          42.400          19.600

 125029655.450 6                                  23455245.516    23455243.988
                                                        40.200

 104586065.177 8  81344743.442 6                  19551253.430    19551252.758
                  19551259.137                          53.200          36.000

 104203670.377 7  81197555.52143                  19829251.141
                  19829258.105                          43.300          22.600

 111811904.017 6  87126545.257 6                  21277073.742
  21277080.328    21277080.371                          41.700          41.000

 110938218.230 8  86285244.607 5                  20716882.859    20716882.730
                  20716886.965                          48.900          32.700

 110051408.788 8  85595349.853 4                  20587330.648    20587329.324
                  20587336.383                          49.200          29.400

 120229928.572 7  93512205.008 4                  22523122.789    22523122.004
                  22523132.391                          46.000          29.500

 112699047.368 6  87817594.094 6                  21445933.703
  21445941.387    21445941.535                          39.400          39.200

 114007596.966 6  88837328.609 6                  21694905.836
  21694914.195    21694914.316                          39.600          39.800

 110998370.400 8  86332083.877 5                  20757248.688    20757248.242
                  20757252.336                          49.800          34.200

 13 10  1 11  0  0.0000000  4  1
0000.000      (antenna height)                              COMMENT
 13 10  1 11  0  0.0000000  0 12G09G02R10R23G26G05R08R01R22G29G15R24
 122663013.558 6                                  23341991.531
                                                        36.800

 110977622.318 6  86476263.84942                  21118347.859
                  21118353.313                          41.400          17.400

 124954602.377 6                                  23441164.680    23441162.918
                                                        41.300

 104626927.870 8  81376525.515 5                  19558891.672    19558891.586
                  19558897.957                          52.700          35.900

 104179030.570 7  81178355.70644                  19824562.281
                  19824568.953                          44.700          24.500

 111848963.785 6  87155423.001 6                  21284125.945
  21284132.492    21284132.918                          41.600          40.500

 110999031.177 8  86332543.571 5                  20728239.906    20728239.426
                  20728243.629                          48.800          32.300

 110028956.596 8  85577887.090 4                  20583129.992    20583128.785
                  20583136.160                          49.400          29.500

 120356562.760 7  93610697.346 4                  22546846.594    22546845.926
                  22546855.559                          46.000          28.900

 112678443.633 6  87801539.247 6                  21442012.914
  21442020.258    21442020.727                          39.700          39.200

 113924336.880 6  88772450.694 6                  21679062.016
  21679069.438    21679070.031                          39.300          39.300

 110918430.922 8  86269908.759 5                  20742300.711    20742300.148
                  20742304.492                          49.900          35.000

