     3.02           OBSERVATION DATA    M (MIXED)           RINEX VERSION / TYPE
Assistant 1.0       StaticToRinex       20200827 154847 LCL PGM / RUN BY / DATE 
       G = GPS       R = GLONASS       C = COMPASS          COMMENT             
       S = SBAS      J = QZSS          E = GALILEO          COMMENT             
0000                                                        MARKER NAME         
1                                                           MARKER NUMBER       
                                                            MARKER TYPE         
                                                            OBSERVER / AGENCY
                                                            REC # / TYPE / VERS 
0                                                           ANT # / TYPE        
 -2272585.2080  5008175.9268  3219433.5917                  APPROX POSITION XYZ 
        0.0000        0.0000        0.0000                  ANTENNA: DELTA H/E/N
G   16 C1C L1C D1C S1C C2Y L2Y D2Y S2Y C2X L2X D2X S2X C5Q  SYS / # / OBS TYPES 
       L5Q D5Q S5Q                                          SYS / # / OBS TYPES 
R    8 C1P L1P D1P S1P C2P L2P D2P S2P                      SYS / # / OBS TYPES 
C   12 C1I L1I D1I S1I C7I L7I D7I S7I C6I L6I D6I S6I      SYS / # / OBS TYPES 
J   12 C1C L1C D1C S1C C2X L2X D2X S2X C5Q L5Q D5Q S5Q      SYS / # / OBS TYPES 
E   16 C1X L1X D1X S1X C5X L5X D5X S5X C7X L7X D7X S7X C6C  SYS / # / OBS TYPES 
       L6C D6C S6C                                          SYS / # / OBS TYPES 
DBHZ                                                        COMMENT             
     1.000                                                  INTERVAL            
  2020    08    27    07    38   57.0000000     GPS         TIME OF FIRST OBS   
  2020    08    27    07    44   11.0000000     GPS         TIME OF LAST OBS    
     0                                                      RCV CLOCK OFFS APPL 
G L1C  0.00000                                              SYS / PHASE SHIFT   
G L2Y  0.00000                                              SYS / PHASE SHIFT   
G L2X -0.25000                                              SYS / PHASE SHIFT   
G L5Q -0.25000                                              SYS / PHASE SHIFT   
R L1P  0.25000                                              SYS / PHASE SHIFT   
R L2P  0.25000                                              SYS / PHASE SHIFT   
C L1I  0.00000                                              SYS / PHASE SHIFT   
C L7I  0.00000                                              SYS / PHASE SHIFT   
C L6I  0.00000                                              SYS / PHASE SHIFT   
J L1C  0.00000                                              SYS / PHASE SHIFT   
J L2X  0.00000                                              SYS / PHASE SHIFT   
J L5Q -0.25000                                              SYS / PHASE SHIFT   
E L1X  0.00000                                              SYS / PHASE SHIFT   
E L5X  0.00000                                              SYS / PHASE SHIFT   
E L7X  0.00000                                              SYS / PHASE SHIFT   
E L6C -0.50000                                              SYS / PHASE SHIFT   
  6 R01  1 R02 -4 R08  6 R10 -7 R11  0 R17  4               GLONASS SLOT / FRQ #
 C1C        0 C1P        0 C2C        0 C2P        0        GLONASS COD/PHS/BIS 
    18                                                      LEAP SECONDS        
*** Above antenna height is from mark to PHASE CENTER.      COMMENT             
     0     0        0.0000        ANT MEASURE TYPE/HEIGT    COMMENT             
    0.0000    0.0000    0.0000    0.0000    0.0000          COMMENT             
                    BASE STATION                            COMMENT             
                                                            END OF HEADER       
> 2020 08 27 07 38 57.0000000  0 11       0.000000000000
C06  36223744.949 6 188626537.157 6       190.719 6        38.096 6  36223740.297 5 145858013.579 5       148.809 5        31.564 5  36223742.301 6 153274495.287 6       155.201 6        36.014 6
C08  36083234.117 6 187894861.502 6       134.879 6        38.795 6  36083233.938 6 145292216.458 6       103.906 6        40.189 6  36083230.191 5 152679955.243 5       107.525 5        33.527 5
C13  35761826.195 6 186221175.049 6       489.547 6        36.014 6  35761829.879 5 143998124.883 5       378.848 5        33.325 5                                                                
C16  36469952.484 5 189908617.437 5       379.918 5        35.785 5                                                                                                                                
C20  22833148.020 6 118898210.121 6     -1159.184 6        39.188 6                                                                  22833137.578 5  96614480.066 5      -943.119 5        32.144 5
C23  27105189.293 5 141143788.851 5      -792.660 5        30.895 5                                                                                                                                
C32  26380891.859 5 137372216.927 5     -2177.387 5        30.895 5                                                                                                                                
C37  25313696.207 7 131815060.994 7      1185.777 7        47.403 7                                                                  25313698.750 7 107110569.552 7       963.346 7        46.702 7
J01  39542005.801 7 207794532.750 7      -227.949 7        42.483 7  39542005.227 7 161917915.817 7      -177.666 7        42.117 7  39542008.254 7 155171328.853 7      -170.357 7        44.636 7
E05                                                                  24082090.980 5  94503298.759 5     -1038.404 5        34.727 5  24082086.516 5  96968580.334 5     -1064.766 5        32.144 5  24082086.301 5 102720946.296 5     -1129.066 5        34.417 5
E09  25962726.789 6 136435089.579 6     -2413.613 6        41.406 6                                                                  25962738.543 5 104541210.146 5     -1848.340 5        32.144 5  25962730.652 5 110742731.031 5     -1960.221 5        35.154 5
> 2020 08 27 07 38 58.0000000  0 19       0.000000000000
G05  22308762.617 6 117233315.854 6     -1757.867 6        38.096 6  22308773.621 3  91350749.583 3     -1369.023 3        20.923 3  22308764.691 4  91350652.291 4     -1369.023 4        28.209 4                                                                
G13  20626834.695 7 108394742.819 7     -1649.156 7        44.757 7  20626832.535 5  84463419.137 5     -1285.000 5        30.292 5                                                                                                                                
G15  20041907.113 7 105320866.982 7       395.766 7        42.483 7  20041908.961 5  82068194.506 5       308.359 5        33.302 5                                                                                                                                
G29  21884184.559 5 115002193.483 5     -1793.785 5        32.891 5  21884186.746 2  89612090.023 2     -1397.793 2        16.400 2                                                                                                                                
G30  24820787.668 5 130434075.467 5     -1752.066 5        35.785 5  24820795.480 3 101636967.738 3     -1364.746 3        20.379 3  24820793.676 4 101637044.478 4     -1364.688 4        27.311 4  24820793.105 6  97402094.366 6     -1308.154 6        41.406 6
R08                                                                  24422926.531 5 101720629.799 5     -2283.814 5        35.154 5
R11  23349074.328 6 124770490.424 6      2392.088 6        37.737 6                                                                
R24  19429556.816 5 103898822.480 5     -1526.680 5        34.253 5                                                                
C06  36223708.090 6 188626345.701 6       190.582 6        38.027 6  36223703.547 5 145857865.532 5       148.852 5        31.242 5  36223705.621 6 153274339.697 6       155.670 6        36.014 6
C08  36083208.242 6 187894726.075 6       134.547 6        38.676 6  36083207.738 6 145292111.722 6       104.418 6        39.926 6  36083204.262 5 152679845.118 5       110.768 5        33.720 5
C13  35761731.848 6 186220684.123 6       490.797 6        36.124 6  35761735.211 5 143997745.273 5       379.164 5        33.325 5                                                                
C16  36469879.316 5 189908236.226 5       382.047 5        35.544 5                                                                                                                                
C20  22833370.762 6 118899368.900 6     -1159.693 6        39.597 6                                                                  22833360.145 5  96615421.649 5      -941.811 5        31.864 5
C23  27105341.922 5 141144580.874 5      -792.643 5        30.103 5                                                                                                                                
C32  26381310.070 5 137374395.037 5     -2177.994 5        31.242 5                                                                                                                                
C37  25313468.145 7 131813874.363 7      1186.070 7        47.483 7                                                                  25313470.820 7 107109605.311 7       964.049 7        46.731 7
J01  39542049.109 7 207794759.192 7      -226.734 7        42.458 7  39542048.320 7 161918092.258 7      -176.621 7        42.117 7  39542051.477 7 155171497.956 7      -169.521 7        44.575 7
E05  24082350.355 5 126553581.343 5     -1389.098 5        31.242 5  24082355.398 5  94504336.268 5     -1038.252 5        34.417 5  24082350.844 5  96969644.862 5     -1063.727 5        32.407 5  24082350.844 5 102722073.958 5     -1127.639 5        34.253 5
E09  25963185.277 6 136437502.326 6     -2413.182 6        41.276 6                                                                  25963197.633 5 104543058.869 5     -1848.277 5        32.144 5  25963189.828 5 110744689.435 5     -1958.732 5        35.017 5
> 2020 08 27 07 38 59.0000000  0 18       0.000000000000
G05  22309097.211 6 117235073.794 6     -1756.889 6        38.027 6  22309107.656 3  91352119.441 3     -1369.994 3        21.629 3  22309099.641 4  91352022.153 4     -1370.014 4        28.161 4                                                                
G13  20627148.254 7 108396392.097 7     -1649.096 7        44.757 7  20627146.480 5  84464704.281 5     -1285.092 5        30.379 5                                                                                                                                
G15  20041831.750 7 105320470.914 7       396.100 7        42.304 7  20041833.508 5  82067885.893 5       308.639 5        33.074 5                                                                                                                                
G29  21884526.164 5 115003987.061 5     -1795.248 5        32.656 5  21884528.125 2  89613487.611 2     -1398.959 2        16.400 2                                                                                                                                
G30  24821121.258 5 130435827.251 5     -1753.451 5        35.666 5  24821128.887 3 101638332.759 3     -1365.600 3        21.406 3  24821127.055 4 101638409.499 4     -1365.639 4        27.069 4  24821126.410 6  97403402.493 6     -1308.314 6        41.595 6
R08  24423492.484 5 130786717.765 5     -2935.098 5        34.082 5  24423475.297 5 101722912.594 5     -2282.447 5        35.288 5
R11  23348627.199 6 124768096.972 6      2393.158 6        37.507 6                                                                
R24  19429841.891 5 103900349.418 5     -1527.797 5        33.905 5                                                                
C06  36223671.074 6 188626154.422 6       191.131 6        37.956 6  36223666.637 5 145857717.690 5       147.594 5        31.564 5  36223668.906 5 153274184.267 5       156.094 5        35.901 5
C08  36083182.277 6 187894590.824 6       135.682 6        38.736 6  36083182.102 6 145292007.162 6       104.273 6        39.926 6  36083178.242 5 152679735.255 5       109.531 5        33.720 5
C13  35761637.594 5 186220193.468 5       489.256 5        35.901 5  35761641.172 5 143997365.837 5       379.682 5        33.325 5                                                                
C16  36469806.387 5 189907855.274 5       380.994 5        35.785 5                                                                                                                                
C20  22833593.352 6 118900527.788 6     -1158.244 6        39.788 6                                                                  22833582.793 5  96616363.384 5      -942.129 5        32.144 5
C32  26381728.406 5 137376573.142 5     -2177.033 5        31.242 5                                                                                                                                
C37  25313240.277 7 131812688.211 7      1186.092 7        47.459 7                                                                  25313243.082 7 107108641.468 7       964.160 7        46.787 7
J01  39542092.223 7 207794985.683 7      -226.596 7        42.533 7  39542091.152 7 161918268.739 7      -176.537 7        42.006 7  39542094.469 7 155171667.062 7      -168.920 7        44.667 7
E05  24082614.691 5 126554970.987 5     -1390.189 5        31.864 5  24082619.930 5  94505373.949 5     -1038.100 5        34.727 5  24082615.273 5  96970709.567 5     -1063.070 5        32.144 5  24082615.449 5 102723201.893 5     -1127.887 5        34.575 5
E09  25963644.648 6 136439915.139 6     -2413.236 6        41.374 6                                                                  25963656.883 5 104544907.600 5     -1847.680 5        32.891 5  25963649.012 5 110746647.820 5     -1958.160 5        34.727 5
> 2020 08 27 07 39  0.0000000  0 18       0.000000000000
G05  22309431.531 6 117236832.276 6     -1758.283 6        37.812 6  22309441.793 3  91353489.655 3     -1370.313 3        22.420 3  22309434.395 4  91353392.375 4     -1370.332 4        28.441 4                                                                
G13  20627462.402 7 108398042.330 7     -1650.939 7        44.651 7  20627460.398 5  84465990.186 5     -1286.426 5        30.845 5                                                                                                                                
G15  20041756.688 7 105320075.834 7       394.744 7        42.117 7  20041758.418 5  82067578.043 5       307.520 5        33.012 5                                                                                                                                
G29  21884868.215 5 115005781.485 5     -1795.881 5        32.144 5  21884869.414 2  89614885.855 2     -1399.434 2        17.069 2                                                                                                                                
G30  24821454.582 5 130437579.855 5     -1752.600 5        35.418 5  24821462.320 3 101639698.468 3     -1366.113 3        21.406 3  24821461.090 4 101639775.211 4     -1366.133 4        27.192 4  24821460.055 6  97404711.332 6     -1309.834 6        41.470 6
R08  24424038.262 5 130789653.092 5     -2934.922 5        34.082 5  24424021.789 5 101725195.642 5     -2283.150 5        35.418 5
R11  23348178.520 6 124765704.340 6      2392.063 6        37.737 6                                                                
R24  19430128.992 5 103901877.647 5     -1530.240 5        34.727 5                                                                
C06  36223634.574 6 188625963.696 6       190.322 6        37.956 6  36223630.102 5 145857570.199 5       148.307 5        31.564 5  36223632.340 6 153274029.289 6       155.611 6        36.124 6
C08  36083156.438 6 187894456.113 6       135.166 6        38.616 6  36083156.297 6 145291903.008 6       103.971 6        39.926 6  36083152.402 5 152679625.806 5       109.576 5        33.720 5
C13  35761543.035 5 186219703.180 5       490.322 5        35.901 5  35761547.148 5 143996986.761 5       379.557 5        33.325 5                                                                
C16  36469733.434 5 189907474.826 5       381.104 5        35.544 5                                                                                                                                
C20  22833815.992 6 118901687.215 6     -1158.955 6        39.548 6                                                                  22833805.352 5  96617305.512 5      -941.498 5        32.407 5
C32  26382146.547 5 137378751.697 5     -2179.072 5        30.517 5                                                                                                                                
C37  25313012.965 7 131811502.830 7      1185.361 7        47.475 7                                                                  25313015.527 7 107107678.261 7       963.111 7        46.978 7
J01  39542135.355 7 207795212.463 7      -226.701 7        42.558 7  39542133.996 7 161918445.456 7      -176.465 7        42.090 7  39542137.578 7 155171836.424 7      -168.975 7        44.682 7
E05  24082878.543 5 126556361.094 5     -1389.006 5        32.144 5  24082884.453 5  94506412.040 5     -1038.154 5        35.017 5  24082879.801 5  96971774.821 5     -1064.018 5        31.564 5  24082880.043 5 102724330.241 5     -1128.049 5        34.727 5
E09  25964102.887 6 136442328.260 6     -2413.283 6        41.374 6                                                                  25964116.188 5 104546756.661 5     -1849.254 5        32.144 5  25964108.141 5 110748606.558 5     -1959.123 5        34.727 5
> 2020 08 27 07 39  1.0000000  0 18       0.000000000000
G05  22309766.613 6 117238590.854 6     -1758.609 6        37.812 6  22309775.973 3  91354859.964 3     -1370.643 3        22.598 3  22309768.691 4  91354762.696 4     -1370.604 4        28.531 4                                                                
G13  20627776.734 7 108399692.999 7     -1650.895 7        44.757 7  20627774.660 5  84467276.410 5     -1286.385 5        30.871 5                                                                                                                                
G15  20041681.238 7 105319681.304 7       393.852 7        42.034 7  20041683.254 5  82067270.612 5       306.877 5        33.167 5                                                                                                                                
G29  21885209.590 5 115007576.462 5     -1795.387 5        32.407 5  21885210.965 2  89616284.538 2     -1399.080 2        17.069 2                                                                                                                                
G30  24821788.090 5 130439332.964 5     -1752.672 5        35.544 5  24821795.988 3 101641064.514 3     -1365.447 3        21.841 3  24821794.383 4 101641141.270 4     -1365.525 4        27.131 4  24821793.746 6  97406020.462 6     -1309.164 6        41.717 6
R08  24424584.078 5 130792588.231 5     -2935.893 5        34.417 5  24424570.328 5 101727478.473 5     -2281.859 5        35.154 5
R11  23347730.738 6 124763312.079 6      2392.088 6        37.956 6                                                                
R24  19430413.840 5 103903406.648 5     -1529.766 5        34.417 5                                                                
C06  36223598.402 6 188625773.065 6       190.428 6        38.096 6  36223593.930 5 145857422.803 5       147.020 5        31.564 5  36223595.754 6 153273874.437 6       154.559 6        36.124 6
C08  36083130.930 6 187894321.557 6       133.904 6        38.554 6  36083130.750 6 145291798.948 6       103.660 6        40.231 6  36083126.500 5 152679516.430 5       110.438 5        33.720 5
C13  35761448.949 6 186219213.021 6       490.271 6        36.124 6  35761452.992 5 143996607.741 5       377.938 5        33.325 5                                                                
C16  36469660.559 5 189907094.568 5       379.217 5        35.544 5                                                                                                                                
C20  22834038.602 6 118902846.736 6     -1159.789 6        39.645 6                                                                  22834027.984 5  96618247.688 5      -942.045 5        32.144 5
C32  26382564.516 5 137380929.954 5     -2176.781 5        30.895 5                                                                                                                                
C37  25312785.266 7 131810317.814 7      1184.979 7        47.362 7                                                                  25312787.914 7 107106715.338 7       962.898 7        47.031 7
J01  39542178.387 7 207795439.161 7      -226.793 7        42.407 7  39542177.598 7 161918622.098 7      -176.268 7        42.171 7  39542180.738 7 155172005.711 7      -168.871 7        44.757 7
E05  24083143.582 5 126557751.427 5     -1389.527 5        31.864 5  24083148.941 5  94507450.225 5     -1037.602 5        35.017 5  24083144.297 5  96972840.140 5     -1065.168 5        31.864 5  24083144.609 5 102725458.785 5     -1128.557 5        34.575 5
E09  25964562.746 6 136444741.311 6     -2412.691 6        41.470 6                                                                  25964575.426 5 104548605.626 5     -1848.625 5        32.407 5  25964567.313 5 110750565.208 5     -1958.830 5        34.417 5
> 2020 08 27 07 39  2.0000000  0 19       0.000000000000
G05  22310101.172 6 117240349.723 6     -1757.947 6        37.812 6  22310110.199 3  91356230.543 3     -1370.818 3        22.932 3  22310103.820 4  91356133.273 4     -1370.877 4        28.256 4                                                                
G13  20628091.117 7 108401344.409 7     -1651.502 7        44.816 7  20628088.941 5  84468563.225 5     -1286.893 5        31.123 5                                                                                                                                
G15  20041606.266 7 105319287.507 7       393.809 7        42.117 7  20041608.281 5  82066963.758 5       306.779 5        33.121 5                                                                                                                                
G29  21885550.586 5 115009372.167 5     -1795.018 5        32.144 5  21885552.449 2  89617683.765 2     -1398.768 2        16.400 2                                                                                                                                
G30  24822122.645 5 130441086.753 5     -1752.049 5        35.544 5  24822129.855 3 101642431.125 3     -1366.268 3        21.406 3  24822127.652 4 101642507.882 4     -1366.287 4        27.192 4  24822127.504 6  97407330.124 6     -1309.773 6        41.806 6
R01  21180482.625 5 113221817.441 5     -2328.531 5        31.864 5                                                                
R08  24425131.945 5 130795523.337 5     -2932.922 5        34.575 5  24425117.191 5 101729761.362 5     -2281.891 5        34.727 5
R11  23347283.000 6 124760920.423 6      2391.996 6        38.027 6                                                                
R24  19430700.594 5 103904936.726 5     -1530.072 5        34.417 5                                                                
C06  36223561.777 6 188625582.784 6       190.191 6        38.027 6  36223557.199 5 145857275.602 5       148.844 5        31.564 5  36223559.125 6 153273719.813 6       154.088 6        36.231 6
C08  36083105.109 6 187894187.299 6       135.172 6        38.676 6  36083104.965 6 145291695.172 6       103.551 6        40.189 6  36083100.746 5 152679407.380 5       109.498 5        33.720 5
C13  35761354.875 5 186218723.086 5       490.465 5        35.901 5  35761358.988 5 143996228.902 5       378.473 5        32.891 5                                                                
C16  36469587.520 5 189906714.580 5       380.777 5        35.544 5                                                                                                                                
C20  22834261.262 6 118904006.511 6     -1159.027 6        39.834 6                                                                  22834250.473 5  96619190.088 5      -942.572 5        32.144 5
C32  26382982.637 5 137383108.568 5     -2179.184 5        30.895 5                                                                                                                                
C37  25312558.082 7 131809133.355 7      1184.879 7        47.329 7                                                                  25312560.457 7 107105752.876 7       962.506 7        46.915 7
J01  39542221.465 7 207795665.968 7      -226.150 7        42.330 7  39542220.535 7 161918798.854 7      -176.795 7        42.090 7  39542223.926 7 155172175.086 7      -168.914 7        44.590 7
E05  24083407.809 5 126559142.123 5     -1390.311 5        30.895 5  24083413.559 5  94508488.752 5     -1038.777 5        34.874 5  24083408.840 5  96973905.760 5     -1066.742 5        32.144 5  24083409.297 5 102726587.555 5     -1128.820 5        34.575 5
E09  25965021.578 6 136447154.527 6     -2412.908 6        41.276 6                                                                  25965034.688 5 104550454.705 5     -1848.461 5        32.656 5  25965026.473 5 110752523.999 5     -1959.504 5        34.575 5
> 2020 08 27 07 39  3.0000000  0 19       0.000000000000
G05  22310436.016 6 117242108.724 6     -1759.484 6        37.737 6  22310444.402 3  91357601.140 3     -1370.348 3        22.598 3  22310438.449 4  91357503.859 4     -1370.367 4        28.531 4                                                                
G13  20628404.785 7 108402996.271 7     -1651.867 7        44.742 7  20628403.309 5  84469850.401 5     -1287.184 5        31.290 5                                                                                                                                
G15  20041531.438 7 105318894.261 7       392.957 7        42.251 7  20041533.473 5  82066657.323 5       306.176 5        32.900 5                                                                                                                                
G29  21885892.301 5 115011168.416 5     -1797.102 5        32.144 5  21885894.133 2  89619083.445 2     -1400.406 2        16.400 2                                                                                                                                
G30  24822455.918 5 130442841.038 5     -1753.645 5        35.418 5  24822463.789 3 101643798.074 3     -1366.637 3        22.043 3  24822461.570 4 101643874.827 4     -1366.637 4        27.131 4  24822461.246 6  97408640.127 6     -1310.314 6        41.893 6
R01  21180918.203 5 113224145.726 5     -2328.838 5        31.864 5                                                                
R08  24425679.387 5 130798458.348 5     -2935.457 5        34.575 5  24425666.066 5 101732044.091 5     -2282.006 5        34.874 5
R11  23346835.406 6 124758529.120 6      2391.160 6        37.885 6                                                                
R24  19430985.922 5 103906467.691 5     -1531.670 5        34.727 5                                                                
C06  36223525.301 6 188625392.575 6       190.822 6        38.165 6  36223520.508 5 145857128.583 5       146.482 5        31.242 5  36223522.598 5 153273565.237 5       154.967 5        35.785 5
C08  36083079.363 6 187894053.148 6       134.162 6        38.616 6  36083079.078 6 145291591.406 6       103.631 6        39.926 6  36083075.008 5 152679298.396 5       108.600 5        33.527 5
C13  35761260.301 6 186218233.233 6       489.533 6        36.124 6  35761265.238 5 143995850.093 5       379.061 5        33.527 5                                                                
C16  36469514.945 5 189906334.773 5       379.670 5        35.666 5                                                                                                                                
C20  22834483.996 6 118905166.367 6     -1159.625 6        39.834 6                                                                  22834472.965 5  96620132.567 5      -942.377 5        31.864 5
C32  26383400.906 5 137385286.974 5     -2178.414 5        30.517 5                                                                                                                                
C37  25312330.754 7 131807949.259 7      1184.201 7        47.411 7                                                                  25312333.129 7 107104790.705 7       962.096 7        47.031 7
J01  39542264.762 7 207795892.666 7      -226.262 7        42.382 7  39542263.758 7 161918975.503 7      -176.402 7        42.251 7  39542267.121 7 155172344.379 7      -169.416 7        44.667 7
E05  24083672.039 5 126560532.973 5     -1392.180 5        31.242 5  24083678.184 5  94509527.377 5     -1039.064 5        35.017 5  24083673.426 5  96974971.479 5     -1068.125 5        32.144 5  24083674.055 5 102727716.457 5     -1128.703 5        34.727 5
E09  25965480.914 6 136449567.646 6     -2413.234 6        41.209 6                                                                  25965494.008 5 104552303.707 5     -1848.301 5        33.113 5  25965485.523 5 110754482.637 5     -1958.039 5        34.727 5
> 2020 08 27 07 39  4.0000000  0 18       0.000000000000
G05  22310770.539 6 117243867.709 6     -1758.900 6        37.346 6  22310778.770 3  91358971.818 3     -1370.791 3        22.768 3  22310772.113 4  91358874.538 4     -1370.771 4        28.256 4                                                                
G13  20628719.273 7 108404648.592 7     -1652.943 7        44.727 7  20628717.859 5  84471137.921 5     -1287.979 5        31.098 5                                                                                                                                
G15  20041456.574 7 105318501.505 7       391.939 7        42.034 7  20041458.766 5  82066351.282 5       305.361 5        32.900 5                                                                                                                                
G29  21886233.691 5 115012965.090 5     -1798.471 5        32.407 5  21886236.098 2  89620483.442 2     -1401.436 2        17.649 2                                                                                                                                
G30  24822789.152 5 130444595.740 5     -1755.385 5        35.418 5  24822797.723 3 101645165.383 3     -1368.096 3        20.923 3  24822795.375 4 101645242.129 4     -1368.135 4        26.943 4  24822795.117 6  97409950.432 6     -1310.320 6        41.835 6
R01  21181354.895 5 113226473.948 5     -2328.061 5        31.864 5                                                                
R08  24426227.516 5 130801392.971 5     -2933.338 5        34.727 5  24426214.766 5 101734326.652 5     -2283.086 5        34.727 5
R11  23346388.074 6 124756138.114 6      2390.131 6        37.585 6                                                                
R24  19431272.938 5 103907999.392 5     -1531.820 5        34.575 5                                                                
C06  36223488.609 6 188625202.453 6       189.436 6        38.096 6                                                                                                                                
C08  36083053.688 6 187893919.066 6       133.713 6        38.428 6                                                                                                                                
C13  35761166.441 6 186217743.446 6       488.498 6        36.014 6                                                                                                                                
C16  36469441.801 5 189905955.007 5       378.244 5        35.544 5                                                                                                                                
C20  22834706.762 6 118906326.219 6     -1159.451 6        39.788 6                                                                                                                                
C32  26383819.172 5 137387465.273 5     -2178.943 5        30.103 5                                                                                                                                
C37  25312103.246 7 131806765.451 7      1183.596 7        47.354 7                                                                                                                                
E05  24083937.020 5 126561923.795 5     -1390.580 5        31.564 5  24083942.770 5  94510566.030 5     -1038.230 5        35.017 5  24083938.121 5  96976037.187 5     -1065.625 5        31.564 5  24083938.680 5 102728845.464 5     -1129.438 5        34.727 5
E09  25965940.070 6 136451980.620 6     -2413.197 6        41.342 6                                                                  25965953.223 5 104554152.565 5     -1847.949 5        32.891 5  25965944.648 5 110756441.236 5     -1958.461 5        34.575 5
> 2020 08 27 07 39 14.0000000  0 17       0.000000000000
G05  22314119.332 6 117261463.708 6     -1760.111 6        38.554 6  22314123.223 3  91372682.890 3     -1371.861 3        23.242 3  22314118.617 4  91372585.634 4     -1371.803 4        27.703 4                                                                
G13  20631869.453 7 108421199.264 7     -1657.807 7        45.114 7  20631867.910 5  84484034.541 5     -1291.705 5        31.715 5                                                                                                                                
G15  20040715.371 7 105314604.478 7       386.334 7        42.558 7  20040717.473 5  82063314.605 5       301.518 5        32.996 5  20040719.594 3  82063397.385 3       301.557 3        22.768 3                                                                
G29  21889658.609 5 115030960.119 5     -1802.846 5        32.407 5  21889659.797 2  89634505.532 2     -1404.830 2        16.400 2                                                                                                                                
G30  24826133.363 5 130462168.665 5     -1759.760 5        35.544 5  24826141.578 3 101658858.575 3     -1371.041 3        20.660 3  24826139.090 4 101658935.312 4     -1371.080 4        26.879 4  24826140.020 7  97423073.092 7     -1314.244 7        42.382 7
R11  23341917.527 6 124732248.652 6      2387.545 6        37.427 6                                                                
R24  19434144.031 5 103923363.750 5     -1541.164 5        33.325 5                                                                
C06  36223125.703 6 188623308.013 6       188.387 6        38.096 6  36223120.551 5 145855516.708 5       145.148 5        31.242 5  36223121.918 5 153271871.326 5       154.332 5        35.785 5
C08  36082797.707 6 187892584.724 6       131.805 6        38.676 6  36082796.313 6 145290455.910 6       102.727 6        39.597 6  36082792.363 5 152678105.136 5       108.199 5        33.527 5
C13  35760225.980 6 186212849.211 6       489.344 6        36.231 6  35760230.238 5 143991686.808 5       378.508 5        33.113 5                                                                
C16  36468714.188 5 189902164.837 5       377.957 5        35.785 5                                                                                                                                
C20  22836935.109 6 118917929.778 6     -1161.166 6        39.448 6                                                                  22836923.785 5  96630503.923 5      -944.867 5        31.864 5
C32                                                                                                                                                                                                
C37  25309833.535 7 131794947.775 7      1179.559 7        47.491 7                                                                  25309836.512 7 107094225.960 7       958.453 7        47.288 7
J01  39542737.379 7 207798379.907 7      -226.068 7        42.407 7  39542736.879 7 161920913.590 7      -175.416 7        42.171 7  39542740.090 7 155174201.740 7      -168.734 7        44.543 7
E05  24086586.234 5 126575841.945 5     -1392.475 5        31.242 5  24086591.922 5  94520959.405 5     -1040.182 5        35.666 5  24086586.262 5  96986701.659 5     -1067.176 5        31.564 5  24086587.809 5 102740142.595 5     -1130.564 5        35.017 5
E09  25970530.758 6 136476106.912 6     -2411.537 6        40.967 6                                                                  25970544.273 5 104572639.023 5     -1849.031 5        32.891 5  25970535.309 5 110776024.306 5     -1958.338 5        34.253 5
> 2020 08 27 07 39 15.0000000  0 17       0.000000000000
G05  22314454.449 6 117263224.170 6     -1760.273 6        38.491 6  22314457.684 4  91374054.666 4     -1371.906 4        24.416 4  22314453.875 4  91373957.409 4     -1371.887 4        27.483 4                                                                
G13  20632184.254 7 108422857.328 7     -1657.695 7        44.989 7  20632183.578 5  84485326.541 5     -1291.672 5        31.629 5                                                                                                                                
G15  20040641.961 7 105314218.075 7       386.521 7        42.433 7  20040644.137 5  82063013.498 5       302.254 5        32.751 5  20040645.754 3  82063096.275 3       302.273 3        22.932 3                                                                
G29  21890001.598 5 115032762.776 5     -1803.535 5        31.864 5  21890002.770 2  89635910.198 2     -1405.480 2        15.608 2                                                                                                                                
G30  24826468.195 5 130463928.878 5     -1761.348 5        34.874 5  24826476.379 3 101660230.131 3     -1371.105 3        20.379 3  24826474.133 4 101660306.874 4     -1371.105 4        26.680 4  24826474.895 7  97424387.498 7     -1314.117 7        42.304 7
R11  23341471.641 6 124729862.067 6      2386.160 6        37.093 6                                                                
R24  19434431.207 5 103924905.093 5     -1541.162 5        33.325 5                                                                
C06  36223089.566 6 188623119.526 6       188.652 6        38.096 6  36223084.418 5 145855370.902 5       145.637 5        30.895 5  36223085.570 6 153271718.200 6       152.766 6        36.124 6
C08  36082772.199 6 187892452.183 6       132.422 6        38.554 6  36082770.840 6 145290353.435 6       102.570 6        39.294 6  36082766.840 5 152677997.486 5       107.336 5        33.720 5
C13  35760132.039 6 186212360.509 6       488.379 6        36.231 6  35760136.473 5 143991308.907 5       378.488 5        32.891 5                                                                
C16  36468641.672 5 189901786.826 5       378.672 5        35.544 5                                                                                                                                
C20  22837158.113 6 118919090.883 6     -1161.230 6        39.346 6                                                                  22837146.730 5  96631447.440 5      -944.266 5        32.144 5
C32                                                                                                                                                                                                
C37  25309606.945 7 131793768.298 7      1179.316 7        47.370 7                                                                  25309610.094 7 107093267.528 7       958.352 7        47.179 7
J01  39542781.090 7 207798605.738 7      -225.217 7        42.171 7  39542780.086 7 161921089.581 7      -175.363 7        42.034 7  39542783.105 7 155174370.383 7      -168.395 7        44.481 7
E05  24086850.590 5 126577234.952 5     -1394.102 5        31.242 5  24086856.961 5  94521999.634 5     -1040.133 5        35.544 5  24086851.266 5  96987769.021 5     -1068.641 5        31.864 5  24086853.055 5 102741273.213 5     -1129.543 5        35.666 5
E09  25970990.148 6 136478519.503 6     -2412.520 6        40.895 6                                                                  25971003.484 5 104574487.588 5     -1848.875 5        32.656 5  25970994.387 5 110777982.551 5     -1958.762 5        33.905 5
> 2020 08 27 07 39 16.0000000  0 17       0.000000000000
G05  22314789.227 6 117264984.649 6     -1760.090 6        38.911 6  22314792.203 4  91375426.450 4     -1371.100 4        24.529 4  22314789.371 4  91375329.200 4     -1371.139 4        27.539 4                                                                
G13  20632500.145 7 108424515.847 7     -1658.742 7        45.058 7  20632499.129 5  84486618.906 5     -1292.584 5        31.267 5                                                                                                                                
G15  20040568.355 7 105313832.175 7       385.850 7        42.632 7  20040570.547 5  82062712.803 5       302.318 5        32.768 5  20040572.863 3  82062795.565 3       302.338 3        22.598 3                                                                
G29  21890344.391 5 115034565.818 5     -1802.336 5        32.407 5  21890345.949 2  89637315.171 2     -1404.381 2        15.608 2                                                                                                                                
G30  24826802.547 5 130465689.439 5     -1761.418 5        34.874 5  24826811.504 3 101661602.020 3     -1372.037 3        20.379 3  24826808.484 4 101661678.761 4     -1371.998 4        26.943 4  24826810.008 7  97425702.215 7     -1314.281 7        42.330 7
R11  23341022.844 6 124727475.764 6      2386.197 6        37.346 6                                                                
R24  19434719.191 5 103926447.263 5     -1542.453 5        33.527 5                                                                
C06  36223053.273 6 188622931.063 6       188.877 6        38.027 6  36223047.871 5 145855225.183 5       145.852 5        31.242 5  36223049.262 5 153271565.078 5       153.217 5        35.785 5
C08  36082747.031 6 187892319.715 6       132.646 6        38.736 6  36082745.598 6 145290250.997 6       102.609 6        39.693 6  36082741.434 5 152677889.780 5       108.803 5        33.325 5
C13  35760037.793 5 186211871.737 5       488.955 5        35.901 5  35760042.656 5 143990930.960 5       379.484 5        33.113 5                                                                
C16  36468569.215 5 189901408.904 5       378.135 5        35.666 5                                                                                                                                
C20  22837381.102 6 118920251.994 6     -1161.670 6        39.188 6                                                                  22837369.648 5  96632390.885 5      -943.326 5        31.864 5
C32                                                                                                                                                                                                
C37  25309380.520 7 131792589.111 7      1179.268 7        47.483 7                                                                  25309383.543 7 107092309.353 7       958.061 7        47.296 7
J01  39542823.676 7 207798831.449 7      -225.771 7        42.251 7  39542823.031 7 161921265.464 7      -176.334 7        42.034 7  39542826.145 7 155174538.907 7      -168.148 7        44.697 7
E05  24087115.469 5 126578627.959 5     -1393.273 5        31.864 5  24087122.066 5  94523039.873 5     -1040.902 5        35.901 5  24087116.336 5  96988836.396 5     -1067.098 5        31.864 5  24087118.160 5 102742404.007 5     -1131.936 5        35.017 5
E09  25971449.707 6 136480931.917 6     -2412.570 6        40.672 6                                                                  25971462.656 5 104576336.019 5     -1847.840 5        32.656 5  25971453.313 5 110779940.690 5     -1958.928 5        33.905 5
> 2020 08 27 07 39 17.0000000  0 18       0.000000000000
G05  22315124.496 6 117266745.283 6     -1760.477 6        39.079 6  22315126.844 4  91376798.384 4     -1372.119 4        24.639 4  22315124.570 4  91376701.149 4     -1372.119 4        27.483 4                                                                
G13  20632816.094 7 108426174.894 7     -1659.285 7        45.248 7  20632814.809 5  84487911.664 5     -1292.959 5        31.147 5                                                                                                                                
G15  20040494.953 7 105313446.883 7       384.760 7        42.607 7  20040497.145 5  82062412.609 5       301.221 5        32.948 5  20040499.820 3  82062495.367 3       301.182 3        23.090 3                                                                
G29  21890687.957 5 115036369.470 5     -1804.656 5        31.864 5  21890689.145 2  89638720.598 2     -1406.221 2        13.390 2                                                                                                                                
G30  24827137.816 5 130467450.542 5     -1761.023 5        35.288 5  24827146.559 3 101662974.287 3     -1371.826 3        20.923 3  24827143.969 4 101663051.032 4     -1371.865 4        27.069 4  24827145.434 7  97427017.322 7     -1315.318 7        42.356 7
R02  20429412.551 5 109015226.941 5       636.527 5        32.656 5                                                                
R11  23340578.254 6 124725089.882 6      2386.377 6        37.263 6                                                                
R24  19435008.238 5 103927990.384 5     -1543.877 5        33.325 5                                                                
C06  36223016.969 6 188622742.764 6       188.998 6        37.956 6  36223011.746 5 145855079.604 5       145.732 5        31.242 5  36223013.141 5 153271412.105 5       152.391 5        35.901 5
C08  36082721.922 6 187892187.447 6       130.971 6        38.428 6  36082720.242 6 145290148.717 6       101.885 6        39.498 6  36082716.012 5 152677782.287 5       109.031 5        33.325 5
C13  35759944.145 6 186211383.062 6       489.564 6        36.014 6  35759948.688 5 143990553.173 5       376.377 5        33.720 5                                                                
C16  36468496.777 5 189901031.155 5       377.064 5        35.785 5                                                                                                                                
C20  22837603.867 6 118921413.198 6     -1160.924 6        39.134 6                                                                  22837592.684 5  96633334.424 5      -943.156 5        32.407 5
C32                                                                                                                                                                                                
C37  25309154.328 7 131791410.338 7      1178.861 7        47.346 7                                                                  25309156.977 7 107091351.516 7       957.547 7        47.419 7
J01  39542866.680 7 207799057.079 7      -225.301 7        42.433 7  39542866.250 7 161921441.261 7      -175.186 7        42.251 7  39542869.234 7 155174707.418 7      -168.539 7        44.465 7
E05  24087380.410 5 126580021.204 5     -1393.523 5        31.864 5  24087387.285 5  94524080.275 5     -1040.240 5        35.785 5  24087381.398 5  96989903.964 5     -1068.234 5        31.564 5  24087383.129 5 102743534.875 5     -1131.197 5        35.544 5
E09  25971907.961 6 136483344.293 6     -2412.371 6        40.748 6                                                                  25971921.742 5 104578184.537 5     -1849.406 5        32.891 5  25971912.367 5 110781898.725 5     -1956.668 5        33.527 5
> 2020 08 27 07 39 18.0000000  0 18       0.000000000000
G05  22315459.512 6 117268506.173 6     -1760.398 6        39.241 6  22315461.488 4  91378170.483 4     -1371.834 4        25.246 4  22315458.367 4  91378073.257 4     -1371.873 4        27.649 4                                                                
G13  20633132.082 7 108427834.573 7     -1659.324 7        45.275 7  20633130.465 5  84489204.929 5     -1292.928 5        31.313 5                                                                                                                                
G15  20040421.441 7 105313062.255 7       384.602 7        42.728 7  20040423.848 5  82062112.933 5       298.732 5        32.964 5  20040426.238 3  82062195.688 3       298.752 3        22.932 3                                                                
G29  21891030.844 5 115038173.757 5     -1804.324 5        31.564 5  21891032.563 2  89640126.520 2     -1405.955 2        16.400 2                                                                                                                                
G30  24827472.973 5 130469212.264 5     -1762.137 5        34.575 5  24827481.816 3 101664347.066 3     -1372.830 3        20.379 3  24827479.559 4 101664423.810 4     -1372.830 4        26.943 4  24827480.707 7  97428332.884 7     -1315.328 7        42.330 7
R02  20429294.707 5 109014590.029 5       636.834 5        33.113 5                                                                
R11  23340132.555 6 124722704.565 6      2385.428 6        37.346 6                                                                
R24  19435297.746 5 103929534.514 5     -1545.137 5        33.720 5                                                                
C06  36222981.020 6 188622554.740 6       189.488 6        37.956 6  36222975.582 5 145854934.221 5       146.219 5        31.864 5  36222977.207 5 153271259.257 5       153.400 5        35.901 5
C08  36082696.598 6 187892055.370 6       131.637 6        38.491 6  36082694.988 6 145290046.605 6       102.195 6        39.693 6  36082690.852 5 152677674.980 5       109.748 5        33.527 5
C13  35759850.277 6 186210894.647 6       489.059 6        36.335 6  35759854.965 5 143990175.463 5       377.059 5        32.891 5                                                                
C16  36468424.090 5 189900653.656 5       377.652 5        35.666 5                                                                                                                                
C20  22837826.984 6 118922574.694 6     -1162.230 6        39.346 6                                                                  22837815.750 5  96634278.271 5      -943.963 5        31.864 5
C32                                                                                                                                                                                                
C37  25308928.031 7 131790232.091 7      1178.354 7        47.362 7                                                                  25308930.758 7 107090394.074 7       957.736 7        47.451 7
J01  39542909.789 7 207799282.778 7      -225.105 7        42.433 7  39542908.715 7 161921617.139 7      -175.857 7        42.251 7  39542912.305 7 155174875.943 7      -168.082 7        44.575 7
E05  24087646.027 5 126581414.756 5     -1392.273 5        32.144 5  24087652.543 5  94525120.903 5     -1040.348 5        35.785 5  24087646.691 5  96990971.703 5     -1066.145 5        31.864 5  24087648.316 5 102744665.989 5     -1130.590 5        35.017 5
E09  25972366.895 6 136485756.742 6     -2412.117 6        40.634 6                                                                  25972380.813 5 104580032.986 5     -1847.727 5        32.891 5  25972371.445 5 110783856.919 5     -1957.973 5        34.082 5
> 2020 08 27 07 39 19.0000000  0 18       0.000000000000
G05  22315794.754 6 117270266.993 6     -1760.332 6        39.346 6  22315796.082 4  91379542.552 4     -1372.127 4        24.746 4  22315793.680 4  91379445.321 4     -1372.107 4        27.369 4                                                                
G13  20633447.715 7 108429494.596 7     -1660.000 7        45.340 7  20633446.441 5  84490498.450 5     -1293.436 5        31.243 5                                                                                                                                
G15  20040349.301 7 105312678.057 7       384.258 7        43.092 7  20040350.758 5  82061813.542 5       298.186 5        33.182 5  20040352.734 3  82061896.300 3       298.244 3        22.598 3                                                                
G29  21891374.238 5 115039978.369 5     -1804.453 5        30.895 5  21891376.027 2  89641532.715 2     -1406.033 2        15.608 2                                                                                                                                
G30  24827808.070 5 130470974.283 5     -1762.539 5        34.575 5  24827817.172 3 101665720.073 3     -1372.908 3        20.660 3  24827814.438 4 101665796.815 4     -1372.908 4        26.879 4  24827816.031 7  97429648.694 7     -1315.771 7        42.458 7
R02  20429177.379 5 109013953.229 5       635.791 5        32.891 5                                                                
R11  23339687.367 6 124720319.427 6      2384.818 6        37.585 6                                                                
R24  19435585.766 5 103931079.210 5     -1544.691 5        33.905 5                                                                
C06  36222944.684 6 188622366.697 6       188.967 6        38.096 6  36222939.746 5 145854788.831 5       144.299 5        31.242 5  36222941.070 5 153271106.472 5       153.025 5        35.901 5
C08  36082671.172 6 187891923.307 6       131.955 6        38.364 6  36082669.668 6 145289944.488 6       101.135 6        39.597 6  36082665.664 5 152677567.694 5       107.498 5        33.527 5
C13  35759756.453 6 186210406.184 6       488.869 6        36.231 6  35759761.176 5 143989797.661 5       378.850 5        32.891 5                                                                
C16  36468351.480 5 189900276.150 5       377.170 5        35.785 5                                                                                                                                
C20  22838049.789 6 118923736.038 6     -1161.072 6        39.079 6                                                                  22838038.691 5  96635221.935 5      -942.756 5        32.144 5
C32                                                                                                                                                                                                
C37  25308701.742 7 131789054.035 7      1177.992 7        47.370 7                                                                  25308704.441 7 107089436.819 7       957.166 7        47.395 7
J01  39542952.762 7 207799508.227 7      -225.449 7        42.382 7  39542951.688 7 161921792.789 7      -175.271 7        42.034 7  39542955.145 7 155175044.294 7      -167.881 7        44.712 7
E05  24087911.293 5 126582808.322 5     -1394.082 5        31.864 5  24087917.805 6  94526161.542 6     -1039.873 6        36.014 6  24087911.945 5  96992039.515 5     -1066.736 5        32.144 5  24087913.441 5 102745797.145 5     -1132.479 5        35.017 5
E09  25972826.125 6 136488168.995 6     -2412.598 6        40.556 6                                                                  25972839.805 5 104581881.314 5     -1848.084 5        32.891 5  25972830.332 5 110785814.930 5     -1958.143 5        33.905 5
> 2020 08 27 07 39 20.0000000  0 18       0.000000000000
G05  22316130.324 6 117272027.958 6     -1760.457 6        39.693 6  22316130.754 4  91380914.725 4     -1371.840 4        24.529 4  22316128.465 4  91380817.491 4     -1371.820 4        27.252 4                                                                
G13  20633763.969 7 108431155.137 7     -1660.203 7        45.275 7  20633762.426 5  84491792.378 5     -1293.676 5        31.313 5                                                                                                                                
G15  20040276.344 7 105312294.410 7       383.703 7        43.135 7  20040277.574 5  82061514.555 5       300.426 5        33.105 5  20040279.922 3  82061597.313 3       300.387 3        22.768 3                                                                
G29  21891717.395 5 115041783.646 5     -1806.082 5        30.895 5  21891719.527 2  89642939.438 2     -1407.309 2        16.400 2                                                                                                                                
G30  24828143.641 5 130472736.826 5     -1763.074 5        34.082 5  24828152.527 3 101667093.455 3     -1373.051 3        20.660 3  24828149.867 4 101667170.195 4     -1373.031 4        26.879 4  24828151.504 7  97430964.879 7     -1316.070 7        42.558 7
R02  20429060.664 5 109013316.758 5       638.342 5        33.325 5                                                                
R11  23339240.074 6 124717934.634 6      2386.295 6        37.427 6                                                                
R24  19435877.402 5 103932624.834 5     -1545.051 5        34.253 5                                                                
C06  36222908.719 6 188622178.786 6       188.549 6        37.885 6  36222903.672 5 145854643.492 5       145.680 5        31.864 5  36222904.969 5 153270953.768 5       152.783 5        35.901 5
C08  36082645.758 6 187891791.368 6       131.693 6        38.491 6  36082644.219 6 145289842.445 6       102.848 6        39.880 6  36082640.223 5 152677460.505 5       107.061 5        33.720 5
C13  35759662.395 6 186209917.803 6       489.076 6        36.335 6  35759666.828 5 143989420.063 5       378.121 5        33.527 5                                                                
C16  36468279.168 5 189899898.798 5       378.002 5        35.666 5                                                                                                                                
C20  22838272.496 6 118924897.519 6     -1160.787 6        38.676 6                                                                  22838261.723 5  96636165.753 5      -942.881 5        31.864 5
C32                                                                                                                                                                                                
C37  25308475.285 7 131787876.373 7      1178.061 7        47.411 7                                                                  25308478.391 7 107088479.870 7       957.297 7        47.435 7
J01  39542995.996 7 207799733.599 7      -224.656 7        42.458 7  39542994.637 7 161921968.436 7      -175.277 7        42.144 7  39542998.020 7 155175212.610 7      -168.180 7        44.712 7
E05  24088176.176 5 126584202.086 5     -1393.875 5        31.864 5  24088183.066 6  94527202.336 6     -1040.367 6        36.231 6  24088177.121 5  96993107.459 5     -1067.836 5        31.864 5  24088178.609 5 102746928.400 5     -1131.939 5        35.017 5
E09  25973285.254 6 136490581.170 6     -2411.377 6        40.672 6                                                                  25973298.863 5 104583729.604 5     -1846.215 5        32.407 5  25973289.320 5 110787772.856 5     -1958.346 5        33.720 5
> 2020 08 27 07 39 21.0000000  0 17       0.000000000000
G05  22316465.285 6 117273789.016 6     -1760.758 6        39.498 6  22316465.344 4  91382286.989 4     -1372.865 4        25.053 4  22316464.211 4  91382189.750 4     -1372.846 4        27.311 4                                                                
G13  20634079.902 7 108432816.209 7     -1661.949 7        45.366 7  20634078.441 5  84493086.720 5     -1294.994 5        31.383 5                                                                                                                                
G15  20040203.207 7 105311911.358 7       382.484 7        43.304 7  20040204.723 5  82061216.109 5       298.150 5        33.197 5  20040206.855 3  82061298.859 3       298.170 3        23.090 3                                                                
G30  24828479.320 5 130474499.863 5     -1764.645 5        34.253 5  24828487.875 3 101668467.252 3     -1373.686 3        20.080 3  24828485.188 4 101668543.988 4     -1373.686 4        27.069 4  24828487.059 7  97432281.438 7     -1317.635 7        42.632 7
R02  20428941.906 5 109012680.741 5       635.734 5        33.720 5                                                                
R11  23338792.883 6 124715550.375 6      2383.801 6        37.507 6                                                                
R24  19436165.711 5 103934171.352 5     -1547.584 5        34.575 5                                                                
C06  36222872.895 6 188621991.060 6       186.607 6        37.812 6  36222867.813 5 145854498.360 5       143.740 5        31.564 5  36222869.066 6 153270801.206 6       152.918 6        36.124 6
C08  36082620.344 6 187891659.568 6       131.451 6        38.616 6  36082619.094 6 145289740.544 6       101.416 6        39.788 6  36082614.949 5 152677353.387 5       107.039 5        33.720 5
C13  35759568.793 6 186209429.531 6       487.350 6        36.731 6  35759573.016 5 143989042.498 5       377.354 5        33.325 5                                                                
C16  36468206.855 5 189899521.622 5       376.549 5        35.901 5                                                                                                                                
C20  22838495.633 6 118926059.167 6     -1162.357 6        38.616 6                                                                  22838484.930 5  96637109.692 5      -945.285 5        32.144 5
C32                                                                                                                                                                                                
C37  25308249.289 7 131786699.123 7      1176.588 7        47.459 7                                                                  25308252.281 7 107087523.266 7       955.945 7        47.554 7
J01  39543038.336 7 207799958.919 7      -225.426 7        42.458 7  39543037.117 7 161922143.990 7      -175.951 7        42.198 7  39543040.953 7 155175380.860 7      -168.533 7        44.742 7
E05  24088441.453 5 126585595.992 5     -1393.785 5        31.864 5  24088448.379 6  94528243.264 6     -1041.600 6        36.231 6  24088442.340 5  96994175.507 5     -1067.900 5        32.144 5  24088443.828 5 102748059.840 5     -1132.203 5        35.154 5
E09  25973744.348 6 136492993.315 6     -2412.223 6        40.517 6                                                                  25973757.938 5 104585577.866 5     -1848.291 5        32.407 5  25973748.199 5 110789730.766 5     -1959.000 5        33.720 5
> 2020 08 27 07 39 22.0000000  0 17       0.000000000000
G05  22316800.637 6 117275549.938 6     -1760.830 6        39.346 6  22316800.078 4  91383659.135 4     -1372.363 4        25.150 4  22316798.773 4  91383561.898 4     -1372.363 4        27.007 4                                                                
G13  20634395.934 7 108434477.497 7     -1661.436 7        45.340 7  20634394.629 5  84494381.229 5     -1294.590 5        31.429 5                                                                                                                                
G15  20040130.027 7 105311528.575 7       382.451 7        43.325 7  20040131.832 5  82060917.840 5       297.439 5        33.375 5  20040134.180 3  82061000.590 3       297.479 3        22.932 3                                                                
G30  24828815.098 5 130476263.122 5     -1764.951 5        34.082 5  24828823.340 3 101669841.194 3     -1373.906 3        20.379 3  24828820.680 4 101669917.930 4     -1373.867 4        27.069 4  24828822.645 7  97433598.127 7     -1317.000 7        42.607 7
R02  20428826.402 5 109012044.716 5       636.445 5        33.527 5                                                                
R11  23338346.227 6 124713166.169 6      2383.615 6        38.027 6                                                                
R24  19436454.977 5 103935718.474 5     -1548.221 5        34.727 5                                                                
C06  36222836.598 6 188621803.124 6       187.568 6        37.507 6  36222831.945 5 145854352.995 5       145.119 5        31.564 5  36222833.063 5 153270648.495 5       152.564 5        35.901 5
C08  36082594.672 6 187891527.629 6       131.572 6        38.554 6  36082593.563 6 145289638.525 6       101.213 6        39.693 6  36082589.543 5 152677246.153 5       108.482 5        33.720 5
C13  35759475.047 6 186208941.015 6       488.799 6        36.438 6  35759479.445 5 143988664.728 5       378.828 5        33.113 5                                                                
C16  36468134.391 5 189899144.241 5       377.803 5        35.666 5                                                                                                                                
C20  22838718.332 6 118927220.544 6     -1160.674 6        38.165 6                                                                  22838708.008 5  96638053.438 5      -943.295 5        31.864 5
C32                                                                                                                                                                                                
C37  25308023.363 7 131785521.945 7      1177.100 7        47.370 7                                                                  25308026.297 7 107086566.709 7       956.607 7        47.483 7
J01  39543081.203 7 207800183.869 7      -225.264 7        42.508 7  39543080.129 7 161922319.274 7      -175.254 7        42.117 7  39543083.699 7 155175548.835 7      -167.820 7        44.712 7
E05  24088707.762 5 126586989.841 5     -1395.674 5        32.407 5  24088713.570 6  94529284.095 6     -1041.492 6        36.014 6  24088707.555 5  96995243.491 5     -1067.244 5        31.864 5  24088708.777 5 102749191.179 5     -1131.658 5        35.154 5
E09  25974203.188 6 136495405.139 6     -2412.275 6        40.634 6                                                                  25974216.945 5 104587425.887 5     -1847.322 5        32.407 5  25974207.023 5 110791688.427 5     -1958.572 5        33.325 5
> 2020 08 27 07 39 23.0000000  0 17       0.000000000000
G05  22317135.555 6 117277311.131 6     -1760.740 6        39.597 6  22317134.754 4  91385031.509 4     -1372.818 4        25.053 4  22317133.336 4  91384934.275 4     -1372.779 4        27.131 4                                                                
G13  20634712.105 7 108436139.469 7     -1661.873 7        45.431 7  20634711.063 5  84495676.277 5     -1294.928 5        31.585 5                                                                                                                                
G15  20040057.711 7 105311146.531 7       382.170 7        43.507 7  20040059.098 5  82060620.143 5       297.262 5        33.227 5  20040060.785 3  82060702.897 3       297.262 3        22.768 3                                                                
G30  24829150.445 5 130478026.993 5     -1764.666 5        34.417 5  24829158.918 3 101671215.681 3     -1374.654 3        19.758 3  24829157.602 4 101671292.412 4     -1374.674 4        26.879 4  24829158.430 7  97434915.310 7     -1317.367 7        42.704 7
R02  20428710.043 5 109011409.394 5       633.844 5        32.891 5                                                                
R11  23337900.293 6 124710782.476 6      2383.652 6        37.956 6                                                                
R24  19436742.391 5 103937266.599 5     -1548.201 5        35.017 5                                                                
C06  36222800.336 6 188621615.515 6       187.873 6        37.737 6  36222796.078 5 145854207.916 5       145.754 5        31.864 5  36222797.074 6 153270496.075 6       151.754 6        36.014 6
C08  36082569.500 6 187891395.978 6       131.623 6        38.554 6  36082568.570 6 145289536.695 6       101.984 6        39.834 6  36082564.223 5 152677139.179 5       106.793 5        33.905 5
C13  35759380.977 6 186208452.759 6       488.576 6        36.335 6  35759385.270 5 143988287.225 5       377.629 5        32.891 5                                                                
C16  36468062.109 5 189898767.260 5       377.873 5        35.785 5                                                                                                                                
C20  22838941.316 6 118928382.253 6     -1161.912 6        38.096 6                                                                  22838931.082 5  96638997.377 5      -942.230 5        32.144 5
C32                                                                                                                                                                                                
C37  25307797.469 7 131784345.319 7      1176.701 7        47.280 7                                                                  25307800.430 7 107085610.619 7       956.012 7        47.522 7
J01  39543124.145 7 207800408.908 7      -225.135 7        42.407 7  39543123.070 7 161922494.643 7      -175.355 7        42.144 7  39543126.477 7 155175716.878 7      -167.680 7        44.621 7
E05  24088973.781 5 126588383.908 5     -1393.162 5        32.144 5  24088978.926 6  94530325.153 6     -1040.453 6        36.335 6  24088972.922 5  96996311.719 5     -1067.547 5        32.407 5  24088974.023 5 102750322.741 5     -1130.662 5        35.154 5
E09  25974662.168 6 136497817.061 6     -2411.775 6        40.437 6                                                                  25974675.945 5 104589273.997 5     -1847.488 5        32.656 5  25974665.902 5 110793646.116 5     -1957.479 5        33.113 5
> 2020 08 27 07 39 24.0000000  0 17       0.000000000000
G05  22317470.398 6 117279072.510 6     -1760.701 6        39.645 6  22317469.527 4  91386404.020 4     -1373.785 4        25.608 4  22317468.109 4  91386306.776 4     -1373.785 4        26.680 4                                                                
G13  20635028.777 7 108437802.008 7     -1662.518 7        45.494 7  20635027.289 5  84496971.779 5     -1295.523 5        31.693 5                                                                                                                                
G15  20039985.457 7 105310765.104 7       381.096 7        43.663 7  20039986.371 5  82060322.952 5       295.629 5        33.105 5  20039987.961 3  82060405.697 3       295.648 3        22.932 3                                                                
G30  24829486.148 5 130479791.388 5     -1765.018 5        33.905 5  24829494.676 3 101672590.580 3     -1375.758 3        19.032 3  24829493.016 4 101672667.311 4     -1375.777 4        26.879 4  24829494.156 7  97436232.899 7     -1317.439 7        42.728 7
R02  20428592.168 5 109010774.283 5       636.359 5        32.656 5                                                                
R11  23337453.844 6 124708399.208 6      2383.037 6        38.165 6                                                                
R24  19437034.016 5 103938815.684 5     -1550.242 5        35.154 5                                                                
C06  36222764.285 6 188621428.084 6       186.762 6        37.812 6  36222760.102 5 145854062.993 5       145.477 5        31.564 5  36222761.031 5 153270343.750 5       152.037 5        35.666 5
C08  36082543.969 6 187891264.473 6       131.527 6        38.428 6  36082543.074 6 145289434.995 6       102.000 6        39.597 6  36082538.930 5 152677032.323 5       107.135 5        33.527 5
C13  35759287.082 6 186207964.698 6       487.934 6        36.635 6  35759291.590 5 143987909.821 5       377.059 5        33.325 5                                                                
C16  36467989.246 5 189898390.448 5       377.191 5        35.901 5                                                                                                                                
C20  22839164.336 6 118929544.059 6     -1161.168 6        37.956 6                                                                  22839154.168 5  96639941.471 5      -944.135 5        32.144 5
C32                                                                                                                                                                                                
C37  25307571.680 7 131783169.135 7      1176.293 7        47.229 7                                                                  25307574.531 7 107084654.864 7       955.689 7        47.467 7
J01  39543167.152 7 207800633.918 7      -225.174 7        42.433 7  39543165.863 6 161922669.961 6      -174.898 6        41.835 6  39543169.348 7 155175884.912 7      -167.850 7        44.636 7
E05  24089238.582 5 126589778.323 5     -1394.568 5        32.144 5  24089244.227 6  94531366.412 6     -1041.072 6        36.538 6  24089238.273 5  96997380.146 5     -1068.527 5        31.864 5  24089239.383 5 102751454.600 5     -1133.025 5        35.288 5
E09  25975120.070 6 136500228.955 6     -2411.580 6        40.556 6                                                                  25975134.973 5 104591122.094 5     -1848.410 5        32.144 5  25975124.793 5 110795603.834 5     -1956.580 5        33.113 5
> 2020 08 27 07 39 25.0000000  0 17       0.000000000000
G05  22317805.508 6 117280834.090 6     -1761.592 6        39.548 6  22317804.277 4  91387776.636 4     -1373.102 4        25.150 4  22317803.004 4  91387679.403 4     -1373.121 4        26.400 4                                                                
G13  20635345.285 7 108439465.132 7     -1663.098 7        45.443 7  20635343.754 5  84498267.704 5     -1295.875 5        31.650 5                                                                                                                                
G15  20039912.609 7 105310384.321 7       380.887 7        43.625 7  20039913.883 5  82060026.188 5       297.484 5        33.012 5  20039915.688 3  82060108.924 3       297.602 3        22.598 3                                                                
G30  24829822.258 5 130481556.373 5     -1765.889 5        34.082 5  24829830.527 3 101673965.858 3     -1375.328 3        19.410 3  24829828.484 4 101674042.590 4     -1375.328 4        26.747 4  24829830.156 7  97437550.908 7     -1318.066 7        42.407 7
R02  20428476.711 5 109010139.742 5       633.963 5        32.656 5                                                                
R11  23337010.527 6 124706016.381 6      2382.498 6        37.956 6                                                                
R24  19437322.902 5 103940365.652 5     -1550.744 5        35.017 5                                                                
C06  36222728.465 6 188621240.837 6       187.588 6        37.662 6  36222724.133 5 145853918.279 5       143.621 5        31.864 5  36222725.027 6 153270191.614 6       151.883 6        36.014 6
C08  36082518.590 6 187891133.192 6       130.654 6        38.364 6  36082518.020 6 145289333.516 6       101.414 6        39.498 6  36082513.742 5 152676925.668 5       106.434 5        33.113 5
C13  35759193.379 6 186207476.763 6       487.822 6        36.124 6  35759197.742 5 143987532.473 5       378.836 5        33.113 5                                                                
C16  36467917.078 5 189898013.880 5       376.533 5        35.785 5                                                                                                                                
C20  22839387.438 6 118930706.097 6     -1162.920 6        37.737 6                                                                  22839377.449 5  96640885.688 5      -944.738 5        31.864 5
C32                                                                                                                                                                                                
C37  25307345.793 7 131781993.400 7      1175.830 7        47.031 7                                                                  25307348.707 7 107083699.490 7       955.125 7        47.370 7
J01  39543209.852 7 207800858.937 7      -225.070 7        42.407 7  39543208.777 6 161922845.304 6      -174.957 6        41.978 6  39543212.258 7 155176052.952 7      -167.910 7        44.496 7
E05  24089503.863 5 126591172.911 5     -1394.250 5        33.113 5  24089509.691 5  94532407.873 5     -1041.543 5        35.901 5  24089503.754 5  96998448.766 5     -1069.504 5        31.864 5  24089504.648 5 102752586.579 5     -1133.258 5        35.154 5
E09  25975579.523 6 136502640.917 6     -2411.670 6        40.517 6                                                                  25975593.855 5 104592970.195 5     -1848.449 5        31.864 5  25975583.660 5 110797561.636 5     -1958.707 5        33.113 5
> 2020 08 27 07 39 26.0000000  0 18       0.000000000000
G05  22318141.289 6 117282595.764 6     -1761.818 6        39.597 6  22318139.113 4  91389149.360 4     -1372.242 4        25.150 4  22318138.211 4  91389052.128 4     -1372.262 4        26.177 4                                                                
G13  20635662.035 7 108441128.762 7     -1664.240 7        45.469 7  20635660.445 5  84499564.026 5     -1296.793 5        31.451 5                                                                                                                                
G15  20039840.152 7 105310004.106 7       380.076 7        43.567 7  20039841.395 5  82059729.931 5       295.943 5        33.027 5  20039842.152 3  82059812.657 3       296.021 3        22.598 3                                                                
G30  24830158.469 5 130483321.840 5     -1766.564 5        33.720 5  24830166.383 3 101675341.521 3     -1375.230 3        18.618 3  24830164.121 4 101675418.255 4     -1375.230 4        26.612 4  24830166.133 7  97438869.266 7     -1318.313 7        42.508 7
R02  20428359.211 5 109009505.692 5       632.588 5        31.864 5                                                                
R10  24011729.996 5 127996088.288 5      -285.023 5        32.656 5                                                                
R11  23336564.164 6 124703633.991 6      2381.578 6        38.298 6                                                                
R24  19437613.754 5 103941916.467 5     -1551.293 5        35.418 5                                                                
C06  36222692.637 6 188621053.809 6       185.605 6        37.585 6  36222688.234 5 145853773.605 5       143.949 5        31.864 5  36222688.996 5 153270039.584 5       152.055 5        35.666 5
C08  36082493.246 6 187891002.059 6       130.996 6        38.364 6  36082492.922 6 145289232.118 6       100.746 6        39.597 6  36082488.445 5 152676819.160 5       105.570 5        33.113 5
C13  35759099.527 6 186206988.902 6       488.047 6        36.538 6  35759104.285 5 143987155.268 5       376.840 5        32.891 5                                                                
C16  36467844.871 5 189897637.393 5       376.914 5        35.666 5                                                                                                                                
C20  22839610.715 6 118931868.159 6     -1161.857 6        37.737 6                                                                  22839600.457 5  96641830.020 5      -945.172 5        32.144 5
C32                                                                                                                                                                                                
C37  25307119.871 7 131780818.039 7      1175.371 7        47.084 7                                                                  25307122.930 7 107082744.412 7       955.123 7        47.313 7
J01  39543252.152 7 207801083.863 7      -224.729 7        42.458 7  39543251.367 7 161923020.560 7      -174.857 7        42.034 7  39543255.129 7 155176220.912 7      -167.883 7        44.465 7
E05  24089768.813 5 126592567.708 5     -1395.998 5        32.891 5  24089775.176 6  94533449.376 6     -1040.949 6        36.335 6  24089769.215 5  96999517.453 5     -1069.703 5        31.864 5  24089770.145 5 102753718.708 5     -1132.666 5        35.017 5
E09  25976038.367 6 136505052.803 6     -2411.936 6        40.517 6                                                                  25976052.898 5 104594818.287 5     -1848.023 5        32.407 5  25976042.531 5 110799519.312 5     -1957.373 5        32.891 5
> 2020 08 27 07 39 27.0000000  0 17       0.000000000000
G05  22318476.242 6 117284357.642 6     -1762.219 6        39.498 6  22318474.008 4  91390522.275 4     -1374.385 4        25.246 4  22318472.449 4  91390425.047 4     -1374.385 4        25.778 4                                                                
G13  20635978.813 7 108442792.953 7     -1664.777 7        45.340 7  20635977.184 5  84500860.806 5     -1297.178 5        31.451 5                                                                                                                                
G15  20039768.148 7 105309624.518 7       378.795 7        43.720 7  20039768.992 5  82059434.162 5       295.166 5        33.105 5  20039770.297 3  82059516.892 3       295.166 3        22.768 3                                                                
G30  24830493.707 5 130485087.827 5     -1767.063 5        33.905 5  24830502.324 3 101676717.646 3     -1376.143 3        19.758 3  24830499.719 4 101676794.390 4     -1376.143 4        26.943 4  24830502.324 7  97440188.042 7     -1318.883 7        42.775 7
R02  20428239.867 5 109008871.943 5       635.230 5        31.564 5                                                                
R10  24011779.383 5 127996372.141 5      -284.516 5        32.144 5                                                                
R11  23336118.828 6 124701252.070 6      2381.598 6        38.298 6                                                                
R24  19437903.484 5 103943468.245 5     -1552.092 5        35.418 5                                                                
C06  36222656.656 6 188620866.894 6       186.395 6        37.585 6  36222652.402 5 145853629.022 5       144.543 5        31.864 5  36222653.125 5 153269887.714 5       152.143 5        35.901 5
C08  36082468.250 6 187890871.127 6       129.852 6        38.232 6  36082467.855 6 145289130.865 6       100.813 6        39.834 6  36082463.379 5 152676712.730 5       105.736 5        33.527 5
C13  35759005.598 6 186206501.197 6       487.215 6        36.538 6  35759010.500 5 143986778.167 5       376.105 5        32.891 5                                                                
C16  36467772.547 5 189897261.198 5       375.750 5        35.666 5                                                                                                                                
C20  22839833.805 6 118933030.457 6     -1163.625 6        38.232 6                                                                  22839823.680 5  96642774.470 5      -945.943 5        32.144 5
C32                                                                                                                                                                                                
C37  25306894.043 7 131779643.137 7      1174.285 7        47.196 7                                                                  25306897.414 7 107081789.704 7       954.115 7        47.411 7
E05  24090034.152 5 126593962.765 5     -1396.145 5        32.656 5  24090040.633 6  94534491.113 6     -1041.598 6        36.438 6  24090034.629 5  97000586.393 5     -1068.951 5        31.864 5  24090035.781 5 102754851.018 5     -1132.586 5        35.288 5
E09  25976498.023 6 136507464.704 6     -2412.199 6        40.556 6                                                                  25976511.809 5 104596666.379 5     -1848.404 5        32.407 5  25976501.473 5 110801477.020 5     -1957.664 5        32.891 5
> 2020 08 27 07 39 37.0000000  0  4       0.000000000000
C20                                                                                                                                                                                                
C32                                                                                                                                                                                                
C37                                                                                                                                                                                                
J01  39543723.199 7 207803555.059 7      -224.406 7        42.356 7  39543721.480 6 161924946.183 6      -174.971 6        41.921 6  39543725.609 7 155178066.283 7      -167.586 7        44.727 7
> 2020 08 27 07 39 38.0000000  0 18       0.000000000000
G05  22322166.824 6 117303747.674 6     -1763.766 6        39.788 6  22322160.355 4  91405631.364 4     -1374.896 4        26.177 4  22322162.172 4  91405534.124 4     -1374.877 4        25.942 4                                                                
G13  20639468.641 7 108461134.485 7     -1670.641 7        44.319 7  20639467.395 5  84515152.899 5     -1301.771 5        31.049 5                                                                                                                                
G15  20038980.957 7 105305488.000 7       372.602 7        43.284 7  20038981.258 5  82056210.899 5       290.689 5        33.027 5  20038981.387 3  82056293.629 3       290.670 3        21.841 3                                                                
G30  24834196.313 5 130504547.771 5     -1773.121 5        34.727 5  24834204.996 3 101691881.209 3     -1379.896 3        19.410 3  24834203.395 4 101691957.958 4     -1379.857 4        26.680 4  24834205.641 7  97454719.842 7     -1323.344 7        42.936 7
R02  20426949.309 5 109001926.754 5       628.988 5        31.242 5                                                                
R10  24012356.852 5 127999546.179 5      -293.172 5        31.864 5                                                                
R11  23331220.828 6 124675078.311 6      2377.332 6        40.146 6  23331221.113 5  96969462.182 5      1848.738 5        32.407 5
R24  19441107.828 5 103960596.384 5     -1561.945 5        35.154 5                                                                
C06  36222263.969 6 188618821.677 6       184.289 6        37.507 6  36222260.285 5 145852047.530 5       142.945 5        31.864 5  36222260.563 5 153268225.811 5       149.967 5        35.544 5
C08  36082193.648 6 187889441.105 6       128.488 6        37.956 6  36082193.613 6 145288025.059 6       100.035 6        39.645 6  36082188.926 5 152675550.691 5       105.025 5        33.527 5
C13  35757977.473 6 186201143.853 6       486.867 6        36.438 6  35757981.516 5 143982635.498 5       375.934 5        32.891 5                                                                
C16  36466980.063 5 189893134.026 5       373.117 5        35.288 5                                                                                                                                
C20  22842289.828 5 118945823.335 5     -1163.855 5        35.154 5                                                                  22842279.883 5  96653169.723 5      -946.264 5        32.144 5
C32  26398040.734 5 137461527.913 5     -2178.289 5        33.325 5                                                                  26398038.996 5 111698740.352 5     -1768.998 5        31.564 5
C37  25304417.113 7 131766745.950 7      1170.148 7        47.162 7                                                                  25304420.793 7 107071309.709 7       950.846 7        47.419 7
J01  39543765.566 7 207803779.488 7      -224.469 7        42.356 7  39543763.992 6 161925121.057 6      -174.623 6        41.978 6  39543768.180 7 155178233.879 7      -167.309 7        44.786 7
E05  24092956.902 5 126609320.900 5     -1397.887 5        32.656 5  24092962.934 6  94545959.948 6     -1044.164 6        36.824 6  24092957.219 5  97012354.341 5     -1071.469 5        32.144 5  24092958.234 5 102767317.109 5     -1135.111 5        35.418 5
E09  25981545.617 6 136533993.665 6     -2411.500 6        39.926 6                                                                  25981560.477 5 104616993.682 5     -1846.256 5        31.564 5  25981550.555 5 110823010.246 5     -1956.967 5        32.891 5
> 2020 08 27 07 39 39.0000000  0 18       0.000000000000
G05  22322502.789 6 117305511.250 6     -1763.945 6        40.103 6  22322495.762 4  91407005.571 4     -1375.057 4        25.431 4  22322497.566 4  91406908.345 4     -1375.115 4        25.778 4                                                                
G13  20639786.145 7 108462805.098 7     -1671.211 7        44.151 7  20639785.301 5  84516454.675 5     -1302.322 5        31.171 5                                                                                                                                
G15  20038909.395 7 105305115.474 7       372.012 7        43.407 7  20038910.352 5  82055920.635 5       289.182 5        32.948 5  20038910.180 3  82056003.369 3       289.182 3        21.629 3                                                                
G30  24834533.563 5 130506319.861 5     -1772.852 5        34.575 5  24834542.105 3 101693262.121 3     -1380.740 3        19.410 3  24834541.145 4 101693338.872 4     -1380.799 4        26.472 4  24834543.020 7  97456043.196 7     -1323.846 7        42.845 7
R02  20426833.270 5 109001297.720 5       628.787 5        30.895 5                                                                
R10  24012411.977 5 127999839.293 5      -294.201 5        31.564 5                                                                
R11  23330775.070 6 124672701.360 6      2376.383 6        40.231 6  23330776.074 5  96967613.474 5      1847.535 5        32.407 5
R24  19441400.145 5 103962158.836 5     -1562.697 5        35.418 5                                                                
C06  36222228.254 6 188618636.683 6       184.795 6        37.662 6  36222224.781 5 145851904.495 5       143.490 5        31.864 5  36222225.074 5 153268075.515 5       149.693 5        35.901 5
C08  36082169.055 6 187889312.027 6       128.271 6        38.232 6  36082168.914 6 145287925.278 6        99.662 6        39.926 6  36082164.156 5 152675445.828 5       104.986 5        33.325 5
C13  35757884.020 6 186200657.524 6       486.063 6        36.635 6  35757888.168 5 143982259.416 5       375.736 5        32.407 5                                                                
C16  36466908.355 5 189892759.801 5       374.754 5        35.418 5                                                                                                                                
C20  22842512.996 5 118946987.023 5     -1163.643 5        35.017 5                                                                  22842503.477 5  96654115.217 5      -943.393 5        32.144 5
C32  26398459.012 5 137463704.798 5     -2177.256 5        33.720 5                                                                  26398457.094 5 111700509.246 5     -1768.432 5        31.564 5
C37  25304192.480 7 131765575.917 7      1169.637 7        47.196 7                                                                  25304196.063 7 107070358.967 7       950.318 7        47.443 7
J01  39543808.191 7 207804003.773 7      -224.688 7        42.356 7  39543807.477 6 161925295.832 6      -174.861 6        41.893 6  39543810.883 7 155178401.371 7      -167.791 7        44.874 7
E05  24093223.039 5 126610718.305 5     -1398.359 5        32.656 5  24093228.848 6  94547003.421 6     -1044.080 6        37.179 6  24093223.297 5  97013425.093 5     -1073.324 5        32.144 5  24093224.324 5 102768451.291 5     -1134.027 5        35.288 5
E09  25982004.926 6 136536405.212 6     -2411.775 6        40.356 6                                                                  25982019.336 5 104618841.492 5     -1847.270 5        32.144 5  25982009.449 5 110824967.684 5     -1957.250 5        33.113 5
> 2020 08 27 07 39 40.0000000  0 18       0.000000000000
G05  22322838.070 6 117307274.904 6     -1763.412 6        40.634 6  22322831.188 4  91408379.824 4     -1373.992 4        25.608 4  22322833.492 4  91408282.594 4     -1374.012 4        26.253 4                                                                
G13  20640104.398 7 108464476.183 7     -1671.068 7        44.151 7  20640103.270 5  84517756.814 5     -1302.098 5        31.171 5                                                                                                                                
G15  20038839.156 7 105304743.489 7       372.076 7        43.448 7  20038839.527 5  82055630.801 5       289.055 5        32.883 5  20038838.867 3  82055713.533 3       289.055 3        21.629 3                                                                
G30  24834870.992 5 130508092.474 5     -1772.436 5        34.417 5  24834879.578 3 101694643.357 3     -1380.945 3        18.161 3  24834877.934 4 101694720.109 4     -1380.926 4        26.542 4  24834880.355 7  97457366.873 7     -1323.266 7        43.003 7
R02  20426717.844 5 109000669.042 5       630.236 5        30.895 5                                                                
R10  24012468.141 5 128000133.167 5      -293.045 5        32.656 5                                                                
R11  23330331.211 6 124670324.764 6      2377.363 6        40.356 6  23330331.785 5  96965765.003 5      1849.049 5        32.144 5
R24  19441692.070 5 103963722.096 5     -1562.791 5        35.544 5                                                                
C06  36222193.000 6 188618451.772 6       185.895 6        37.507 6  36222189.672 5 145851761.558 5       141.941 5        31.864 5  36222189.535 5 153267925.281 5       150.229 5        35.666 5
C08  36082144.105 6 187889183.052 6       128.980 6        38.027 6  36082143.855 6 145287825.543 6        99.832 6        39.971 6  36082139.383 5 152675341.047 5       103.920 5        33.325 5
C13  35757790.777 6 186200171.178 6       486.773 6        36.231 6  35757794.676 5 143981883.415 5       375.711 5        32.656 5                                                                
C16  36466836.613 5 189892385.811 5       373.863 5        35.154 5                                                                                                                                
C20  22842736.023 5 118948150.878 5     -1165.355 5        34.417 5                                                                  22842726.980 5  96655060.967 5      -945.123 5        32.144 5
C32  26398876.715 5 137465881.634 5     -2177.016 5        33.720 5                                                                  26398875.184 5 111702278.019 5     -1767.115 5        32.407 5
C37  25303967.629 7 131764406.230 7      1169.586 7        47.179 7                                                                  25303971.516 7 107069408.491 7       950.598 7        47.435 7
J01  39543850.996 7 207804227.951 7      -223.842 7        42.382 7  39543849.281 6 161925470.518 6      -174.363 6        41.893 6  39543853.523 7 155178568.768 7      -166.879 7        44.860 7
E05  24093488.777 5 126612115.733 5     -1397.416 5        32.891 5  24093494.703 6  94548047.017 6     -1044.281 6        37.005 6  24093489.105 5  97014495.902 5     -1071.613 5        32.144 5  24093490.207 5 102769585.631 5     -1133.336 5        35.544 5
E09  25982463.914 6 136538816.687 6     -2411.830 6        40.189 6                                                                  25982478.164 5 104620689.296 5     -1848.332 5        32.144 5  25982468.320 5 110826925.033 5     -1956.559 5        32.891 5
> 2020 08 27 07 39 41.0000000  0 18       0.000000000000
G05  22323173.332 6 117309038.905 6     -1763.803 6        40.634 6  22323166.609 4  91409754.385 4     -1374.566 4        25.608 4  22323169.184 4  91409657.159 4     -1374.586 4        26.680 4                                                                
G13  20640422.492 7 108466148.005 7     -1671.771 7        44.168 7  20640421.461 5  84519059.538 5     -1302.672 5        31.195 5                                                                                                                                
G15  20038768.754 7 105304372.306 7       371.139 7        43.407 7  20038769.066 5  82055341.520 5       289.379 5        33.027 5  20038768.250 3  82055424.257 3       289.320 3        21.629 3                                                                
G30  24835208.258 5 130509865.802 5     -1773.627 5        34.417 5  24835217.000 3 101696025.192 3     -1382.066 3        18.618 3  24835215.555 4 101696101.939 4     -1382.047 4        26.612 4  24835217.703 7  97458691.121 7     -1324.279 7        43.135 7
R02  20426604.551 5 109000040.993 5       625.902 5        30.895 5                                                                
R10  24012524.289 5 128000428.040 5      -295.555 5        32.656 5                                                                
R11  23329886.195 6 124667948.854 6      2375.828 6        40.672 6  23329887.195 5  96963917.071 5      1847.209 5        32.407 5
R24  19441984.266 5 103965286.541 5     -1564.934 5        35.901 5                                                                
C06  36222157.617 6 188618267.263 6       185.113 6        37.662 6  36222154.113 5 145851618.890 5       143.002 5        32.144 5  36222154.047 6 153267775.313 6       150.545 6        36.014 6
C08  36082119.563 6 187889054.451 6       127.730 6        38.232 6  36082119.313 6 145287726.095 6        99.330 6        39.741 6  36082114.777 5 152675236.515 5       104.705 5        32.891 5
C13  35757697.410 6 186199685.190 6       485.797 6        36.635 6  35757701.488 5 143981507.597 5       374.467 5        32.656 5                                                                
C16  36466764.746 5 189892012.051 5       375.055 5        34.874 5                                                                                                                                
C20  22842959.246 5 118949314.925 5     -1164.125 5        34.417 5                                                                  22842950.621 5  96656006.926 5      -947.424 5        32.656 5
C32  26399294.617 5 137468058.613 5     -2175.883 5        33.720 5                                                                  26399293.355 5 111704047.114 5     -1769.943 5        32.656 5
C37  25303743.227 7 131763237.146 7      1168.961 7        47.093 7                                                                  25303746.945 7 107068458.521 7       949.861 7        47.491 7
J01  39543893.492 7 207804452.277 7      -224.037 7        42.533 7  39543892.348 6 161925645.327 6      -174.781 6        41.950 6  39543896.207 7 155178736.289 7      -167.189 7        44.860 7
E05  24093753.926 5 126613513.650 5     -1398.256 5        32.656 5  24093760.645 6  94549090.917 6     -1044.748 6        37.093 6  24093755.258 5  97015567.019 5     -1072.369 5        32.144 5  24093756.246 5 102770720.271 5     -1133.324 5        35.901 5
E09  25982922.523 6 136541228.316 6     -2412.104 6        40.231 6                                                                  25982937.133 5 104622537.138 5     -1847.838 5        31.864 5  25982927.285 5 110828882.569 5     -1958.031 5        33.325 5
> 2020 08 27 07 39 42.0000000  0 17       0.000000000000
G05  22323509.605 6 117310802.785 6     -1763.826 6        40.785 6  22323502.008 4  91411128.818 4     -1374.029 4        25.431 4  22323505.313 4  91411031.596 4     -1374.010 4        26.472 4                                                                
G13  20640741.020 7 108467820.083 7     -1672.244 7        44.012 7  20640739.531 5  84520362.465 5     -1303.209 5        31.337 5                                                                                                                                
G15  20038697.785 7 105304001.436 7       370.451 7        43.387 7  20038698.598 5  82055052.567 5       287.748 5        33.043 5  20038698.141 3  82055135.298 3       287.787 3        21.629 3                                                                
G30  24835545.676 5 130511639.293 5     -1772.967 5        34.417 5  24835554.402 3 101697407.140 3     -1381.490 3        18.618 3  24835552.828 4 101697483.896 4     -1381.549 4        26.542 4  24835555.160 7  97460015.511 7     -1324.395 7        42.981 7
R10  24012578.289 5 128000723.297 5      -294.006 5        32.407 5                                                                
R11  23329441.176 6 124665573.043 6      2375.465 6        40.748 6  23329442.465 5  96962069.204 5      1847.391 5        32.144 5
R24  19442278.035 5 103966851.546 5     -1565.314 5        35.785 5                                                                
C06  36222122.137 6 188618082.660 6       184.660 6        37.585 6  36222118.668 5 145851476.115 5       142.959 5        32.144 5  36222118.500 5 153267625.308 5       150.229 5        35.785 5
C08  36082094.887 6 187888925.709 6       128.645 6        38.298 6  36082094.742 6 145287626.531 6        99.717 6        39.788 6  36082090.063 5 152675131.913 5       104.115 5        33.325 5
C13  35757603.902 6 186199199.008 6       486.281 6        36.438 6  35757608.340 5 143981131.619 5       376.160 5        32.407 5                                                                
C16  36466692.848 5 189891638.319 5       373.938 5        35.288 5                                                                                                                                
C20  22843182.191 5 118950478.884 5     -1163.680 5        34.253 5                                                                  22843173.953 5  96656952.635 5      -944.732 5        32.407 5
C32  26399712.340 5 137470235.322 5     -2177.547 5        33.720 5                                                                  26399711.461 5 111705815.821 5     -1769.342 5        32.144 5
C37  25303518.684 7 131762068.191 7      1168.625 7        47.058 7                                                                  25303522.617 7 107067508.645 7       949.857 7        47.362 7
J01  39543936.281 7 207804676.271 7      -223.885 7        42.433 7  39543934.637 6 161925819.863 6      -174.576 6        41.747 6  39543938.930 7 155178903.567 7      -167.248 7        44.831 7
E05  24094019.582 5 126614911.462 5     -1397.908 5        32.407 5  24094026.500 6  94550134.723 6     -1043.633 6        37.005 6  24094021.406 5  97016638.053 5     -1071.162 5        32.144 5  24094022.070 5 102771854.879 5     -1133.453 5        35.544 5
E09  25983381.277 6 136543639.604 6     -2410.836 6        40.437 6                                                                  25983395.953 5 104624384.711 5     -1845.439 5        31.564 5  25983386.289 5 110830839.784 5     -1957.945 5        33.527 5
> 2020 08 27 07 39 43.0000000  0 18       0.000000000000
G05  22323845.430 6 117312566.782 6     -1764.225 6        40.858 6  22323837.691 4  91412503.333 4     -1373.564 4        25.942 4  22323841.137 4  91412406.120 4     -1373.623 4        26.253 4                                                                
G13  20641059.102 7 108469492.644 7     -1672.076 7        43.977 7  20641057.801 5  84521665.753 5     -1302.959 5        31.406 5                                                                                                                                
G15  20038627.801 7 105303631.087 7       370.971 7        43.242 7  20038627.957 5  82054763.947 5       288.232 5        33.074 5  20038627.801 3  82054846.687 3       288.271 3        21.629 3                                                                
G30  24835882.789 5 130513413.349 5     -1774.303 5        34.575 5  24835891.875 3 101698789.510 3     -1381.904 3        18.161 3  24835890.156 4 101698866.263 4     -1381.904 4        26.612 4  24835892.738 7  97461340.264 7     -1324.227 7        42.891 7
R10  24012634.426 5 128001019.405 5      -296.396 5        32.656 5                                                                
R11  23328997.145 6 124663197.551 6      2376.180 6        40.858 6  23328997.000 5  96960221.615 5      1847.816 5        32.144 5
R24  19442570.645 5 103968417.389 5     -1566.338 5        35.901 5                                                                
C06  36222086.641 6 188617898.148 6       184.357 6        37.585 6  36222083.203 5 145851333.470 5       142.543 5        31.864 5  36222083.055 5 153267475.334 5       151.984 5        35.785 5
C08  36082070.012 6 187888797.078 6       129.045 6        38.165 6  36082070.121 6 145287527.103 6        99.457 6        39.788 6  36082065.242 5 152675027.389 5       104.953 5        33.527 5
C13  35757510.738 6 186198712.928 6       486.467 6        36.438 6  35757514.641 5 143980755.725 5       376.449 5        32.656 5                                                                
C16  36466621.254 5 189891264.640 5       374.221 5        35.418 5                                                                                                                                
C20  22843405.547 5 118951642.924 5     -1164.215 5        33.720 5                                                                  22843397.480 5  96657898.555 5      -945.945 5        32.144 5
C23                                                                                                                                                                                                
C32  26400130.266 5 137472411.921 5     -2176.891 5        33.905 5                                                                  26400129.516 5 111707584.502 5     -1768.621 5        31.864 5
C37  25303294.520 7 131760899.600 7      1168.947 7        47.145 7                                                                  25303298.066 7 107066559.087 7       949.582 7        47.354 7
J01  39543978.270 7 207804900.187 7      -223.561 7        42.382 7  39543977.410 6 161925994.335 6      -174.326 6        41.806 6  39543981.555 7 155179070.761 7      -167.039 7        44.757 7
E05  24094285.863 5 126616309.411 5     -1396.764 5        33.325 5  24094292.445 6  94551178.665 6     -1044.070 6        37.005 6  24094287.281 5  97017709.217 5     -1071.109 5        32.144 5  24094288.125 5 102772989.608 5     -1133.768 5        35.785 5
E09  25983840.094 6 136546050.889 6     -2411.510 6        40.189 6                                                                  25983854.832 5 104626232.319 5     -1846.441 5        31.564 5  25983845.371 5 110832796.974 5     -1957.674 5        33.113 5
> 2020 08 27 07 39 44.0000000  0 18       0.000000000000
G05  22324180.934 6 117314331.016 6     -1764.598 6        40.785 6  22324173.449 4  91413878.085 4     -1375.412 4        26.253 4  22324176.711 4  91413780.875 4     -1375.393 4        26.400 4                                                                
G13  20641377.289 7 108471165.877 7     -1673.680 7        44.048 7  20641376.273 5  84522969.567 5     -1304.221 5        31.383 5                                                                                                                                
G15  20038556.637 7 105303261.484 7       369.230 7        43.387 7  20038557.566 5  82054475.941 5       288.045 5        33.059 5  20038558.352 3  82054558.673 3       288.084 3        21.171 3                                                                
G30  24836220.863 5 130515187.979 5     -1774.656 5        34.575 5  24836229.551 3 101700172.343 3     -1383.068 3        18.161 3  24836228.164 4 101700249.096 4     -1383.049 4        26.400 4  24836230.453 7  97462665.502 7     -1325.775 7        42.936 7
R10  24012692.531 5 128001316.339 5      -297.852 5        32.656 5                                                                
R11  23328553.078 6 124660822.606 6      2374.410 6        40.895 6  23328552.078 5  96958374.424 5      1846.795 5        31.564 5
R24  19442864.371 5 103969984.122 5     -1566.955 5        35.901 5                                                                
C06  36222051.176 6 188617713.902 6       184.436 6        37.585 6  36222047.703 5 145851190.908 5       144.420 5        31.564 5  36222047.617 6 153267325.655 6       149.977 6        36.014 6
C08  36082045.352 6 187888668.739 6       127.990 6        38.298 6  36082045.461 6 145287427.854 6        99.205 6        39.741 6  36082040.629 5 152674923.121 5       103.180 5        33.325 5
C13  35757417.504 6 186198227.101 6       484.846 6        36.438 6  35757421.328 5 143980380.012 5       376.041 5        32.407 5                                                                
C16  36466549.371 5 189890891.259 5       373.205 5        35.017 5                                                                                                                                
C20  22843628.863 5 118952807.165 5     -1164.141 5        33.527 5                                                                  22843621.051 5  96658844.620 5      -946.215 5        32.144 5
C23                                                                                                                                                                                                
C32  26400548.117 5 137474588.621 5     -2176.758 5        34.253 5                                                                  26400547.539 5 111709353.252 5     -1769.418 5        32.656 5
C37  25303070.031 7 131759731.539 7      1167.658 7        47.170 7                                                                  25303073.820 7 107065609.939 7       948.609 7        47.288 7
J01  39544021.004 7 207805124.144 7      -224.129 7        42.330 7  39544020.289 6 161926168.850 6      -174.338 6        41.656 6  39544023.973 7 155179238.029 7      -167.922 7        44.801 7
E05  24094551.895 5 126617707.736 5     -1398.387 5        32.891 5  24094558.500 6  94552222.841 6     -1044.543 6        36.731 6  24094553.418 5  97018780.692 5     -1073.471 5        32.144 5  24094554.227 5 102774124.607 5     -1134.359 5        35.418 5
E09  25984299.227 6 136548462.194 6     -2411.453 6        40.146 6                                                                  25984313.801 5 104628080.002 5     -1848.529 5        31.864 5  25984304.379 5 110834754.170 5     -1956.742 5        33.113 5
> 2020 08 27 07 39 45.0000000  0 19       0.000000000000
G05  22324516.551 6 117316095.197 6     -1764.680 6        40.895 6  22324508.980 4  91415252.752 4     -1374.383 4        25.778 4  22324511.902 4  91415155.525 4     -1374.383 4        26.542 4                                                                
G13  20641695.594 7 108472839.401 7     -1673.352 7        43.795 7  20641694.621 5  84524273.612 5     -1303.836 5        31.541 5                                                                                                                                
G15  20038486.730 7 105302892.242 7       369.420 7        43.157 7  20038487.277 5  82054188.256 5       286.906 5        33.272 5  20038488.090 3  82054270.988 3       286.906 3        21.406 3                                                                
G30  24836558.488 5 130516962.939 5     -1774.797 5        34.575 5  24836567.074 3 101701555.412 3     -1383.660 3        18.161 3  24836566.215 4 101701632.171 4     -1383.660 4        26.327 4  24836568.125 7  97463990.930 7     -1325.443 7        42.775 7
R01  21199239.289 5 113322147.860 5     -2333.039 5        32.144 5                                                                
R10  24012748.746 5 128001613.874 5      -298.508 5        32.891 5                                                                
R11  23328109.125 6 124658447.892 6      2374.596 6        41.141 6  23328107.836 5  96956527.418 5      1847.625 5        31.564 5
R24  19443156.199 5 103971551.588 5     -1566.752 5        35.785 5                                                                
C06  36222015.648 6 188617529.608 6       184.271 6        37.585 6  36222012.395 5 145851048.421 5       143.693 5        31.864 5  36222012.199 6 153267175.912 6       150.000 6        36.014 6
C08  36082020.844 6 187888540.342 6       127.729 6        38.165 6  36082021.059 6 145287328.564 6        98.889 6        39.397 6  36082016.078 5 152674818.793 5       103.320 5        33.325 5
C13  35757324.059 6 186197741.118 6       486.361 6        36.335 6  35757328.031 5 143980004.245 5       376.799 5        32.407 5                                                                
C16  36466477.859 5 189890517.866 5       372.904 5        34.874 5                                                                                                                                
C20  22843851.832 5 118953971.336 5     -1163.990 5        33.720 5                                                                  22843844.645 5  96659790.585 5      -945.410 5        32.144 5
C23                                                                                                                                                                                                
C32  26400966.086 5 137476765.105 5     -2176.412 5        34.417 5                                                                  26400965.586 5 111711121.798 5     -1768.613 5        32.656 5
C37  25302845.836 7 131758563.691 7      1167.533 7        47.005 7                                                                  25302849.523 7 107064660.955 7       948.750 7        47.238 7
J01  39544063.930 7 207805347.853 7      -223.684 7        42.382 7  39544062.641 6 161926343.163 6      -173.992 6        41.687 6  39544066.469 7 155179405.064 7      -166.967 7        44.621 7
E05  24094817.398 5 126619106.049 5     -1398.977 5        32.656 5  24094824.563 6  94553266.992 6     -1043.842 6        36.538 6  24094819.430 5  97019852.014 5     -1070.936 5        31.864 5  24094820.391 5 102775259.547 5     -1134.715 5        35.544 5
E09  25984757.762 6 136550873.311 6     -2410.773 6        40.059 6                                                                  25984772.648 5 104629927.463 5     -1848.143 5        31.242 5  25984763.297 5 110836711.235 5     -1956.512 5        33.325 5
> 2020 08 27 07 39 46.0000000  0 13       0.000000000000
R11  23327663.863 6 124656073.534 6      2373.951 6        41.072 6  23327664.582 5  96954680.748 5      1846.164 5        31.864 5
R24  19443449.871 6 103973119.925 6     -1568.686 6        36.124 6                                                                
C06  36221980.238 6 188617345.385 6       183.637 6        37.662 6  36221977.270 5 145850906.044 5       141.459 5        32.144 5  36221976.691 5 153267026.194 5       150.150 5        35.785 5
C08  36081996.129 6 187888411.959 6       129.574 6        38.232 6  36081996.129 6 145287229.339 6        99.057 6        39.645 6  36081991.457 5 152674714.485 5       104.018 5        33.325 5
C13  35757230.875 6 186197255.195 6       485.512 6        36.335 6  35757234.488 5 143979628.511 5       374.936 5        32.144 5                                                                
C16  36466405.891 5 189890144.516 5       372.875 5        35.154 5                                                                                                                                
C20  22844075.063 5 118955135.537 5     -1164.742 5        33.527 5                                                                  22844068.301 5  96660736.609 5      -946.412 5        32.407 5
C23                                                                                                                                                                                                
C32  26401384.242 5 137478941.461 5     -2176.266 5        34.417 5                                                                  26401383.711 5 111712890.226 5     -1767.701 5        32.891 5
C37  25302621.547 7 131757396.114 7      1167.270 7        47.040 7                                                                  25302625.301 7 107063712.211 7       948.588 7        47.280 7
J01  39544106.539 7 207805571.402 7      -223.791 7        42.483 7  39544105.395 6 161926517.352 6      -174.328 6        41.776 6  39544109.047 7 155179571.983 7      -166.553 7        44.712 7
E05  24095084.309 5 126620504.453 5     -1400.314 5        33.325 5  24095090.566 6  94554311.231 6     -1044.072 6        36.915 6  24095085.473 5  97020923.513 5     -1071.256 5        32.144 5  24095086.598 5 102776394.606 5     -1135.826 5        35.418 5
E09  25985216.699 6 136553284.271 6     -2410.766 6        40.103 6                                                                  25985231.527 5 104631774.851 5     -1849.225 5        31.564 5  25985222.277 5 110838668.229 5     -1957.232 5        32.891 5
> 2020 08 27 07 39 47.0000000  0 19       0.000000000000
G05  22325188.371 6 117319623.828 6     -1763.557 6        41.175 6  22325180.355 4  91418002.370 4     -1374.533 4        25.694 4  22325183.719 4  91417905.134 4     -1374.514 4        26.747 4                                                                
G13  20642332.785 7 108476187.979 7     -1674.689 7        44.030 7  20642332.070 5  84526882.887 5     -1304.865 5        30.871 5                                                                                                                                
G15  20038346.648 7 105302155.424 7       368.223 7        43.284 7  20038347.063 5  82053614.064 5       287.635 5        33.043 5  20038347.719 3  82053696.797 3       287.654 3        21.406 3                                                                
G30  24837234.598 5 130520514.257 5     -1776.389 5        34.082 5  24837242.684 2 101704322.649 2     -1383.166 2        16.400 2  24837241.469 4 101704399.401 4     -1383.186 4        26.327 4  24837243.879 7  97466642.869 7     -1325.682 7        42.680 7
R01  21200104.703 5 113326811.449 5     -2332.152 5        33.113 5                                                                
R10  24012861.043 5 128002211.099 5      -299.033 5        32.407 5                                                                
R11  23327219.090 6 124653699.678 6      2373.893 6        41.309 6  23327222.527 5  96952834.377 5      1846.135 5        32.144 5
R24  19443743.742 6 103974689.250 6     -1569.699 6        36.014 6                                                                
C06  36221944.930 6 188617161.401 6       184.068 6        37.662 6  36221942.066 5 145850763.694 5       143.852 5        31.864 5  36221941.492 5 153266876.698 5       150.998 5        35.901 5
C08  36081971.551 6 187888283.938 6       127.682 6        38.232 6  36081971.516 6 145287130.297 6        98.988 6        39.788 6  36081966.949 5 152674610.438 5       103.752 5        33.325 5
C13  35757137.613 6 186196769.429 6       487.193 6        36.538 6  35757140.906 5 143979252.893 5       375.551 5        32.407 5                                                                
C16  36466334.020 5 189889771.425 5       374.635 5        35.288 5                                                                                                                                
C20  22844298.570 5 118956299.978 5     -1164.662 5        33.113 5                                                                  22844292.027 5  96661682.710 5      -944.041 5        32.407 5
C23                                                                                                                                                                                                
C32  26401802.137 5 137481117.907 5     -2176.791 5        34.575 5                                                                  26401801.637 5 111714658.773 5     -1767.537 5        33.113 5
C37  25302397.211 7 131756229.056 7      1167.271 7        47.075 7                                                                  25302401.160 7 107062763.883 7       948.674 7        47.271 7
J01  39544148.785 7 207805794.985 7      -223.205 7        42.433 7  39544147.785 6 161926691.594 6      -174.221 6        41.921 6  39544151.426 7 155179738.955 7      -166.502 7        44.816 7
E05  24095350.203 5 126621903.066 5     -1399.221 5        33.325 5  24095356.785 6  94555355.700 6     -1044.646 6        37.005 6  24095351.785 5  97021995.219 5     -1071.637 5        32.144 5  24095352.723 5 102777529.896 5     -1135.504 5        35.418 5
E09  25985676.199 6 136555695.315 6     -2410.861 6        40.315 6                                                                  25985690.363 5 104633622.236 5     -1846.773 5        31.864 5  25985681.309 5 110840625.279 5     -1957.184 5        33.527 5
> 2020 08 27 07 39 48.0000000  0 19       0.000000000000
G05  22325524.586 6 117321388.335 6     -1764.529 6        41.406 6  22325516.246 4  91419377.348 4     -1376.014 4        25.778 4  22325519.578 4  91419280.109 4     -1376.033 4        26.943 4                                                                
G13  20642652.258 7 108477863.023 7     -1675.701 7        44.030 7  20642650.855 5  84528188.109 5     -1305.760 5        30.948 5                                                                                                                                
G15  20038276.195 7 105301787.847 7       367.502 7        43.567 7  20038276.984 5  82053327.675 5       286.271 5        33.152 5  20038277.199 3  82053410.404 3       286.252 3        20.923 3                                                                
G30  24837572.391 5 130522290.627 5     -1777.771 5        33.905 5  24837580.746 2 101705706.829 2     -1383.631 2        17.649 2  24837579.473 4 101705783.577 4     -1383.631 4        26.680 4  24837581.832 7  97467969.414 7     -1326.955 7        42.868 7
R01  21200535.922 5 113329143.344 5     -2332.068 5        33.527 5                                                                
R10  24012919.145 5 128002510.812 5      -300.057 5        32.407 5                                                                
R11  23326775.590 6 124651326.102 6      2373.342 6        41.309 6  23326776.449 5  96950988.285 5      1845.273 5        31.242 5
R24  19444038.605 6 103976259.290 6     -1569.627 6        36.538 6                                                                
C06  36221909.535 6 188616977.481 6       183.953 6        37.507 6  36221906.852 5 145850621.541 5       141.693 5        32.144 5  36221906.152 5 153266727.242 5       149.797 5        35.785 5
C08  36081947.105 6 187888155.909 6       127.703 6        38.364 6  36081946.891 6 145287031.322 6        98.178 6        39.880 6  36081942.246 5 152674506.372 5       104.563 5        33.527 5
C13  35757044.160 6 186196283.722 6       485.887 6        36.538 6  35757047.059 5 143978877.306 5       375.951 5        32.407 5                                                                
C16  36466262.137 5 189889398.479 5       372.918 5        35.288 5                                                                                                                                
C20  22844521.957 5 118957464.383 5     -1163.957 5        33.325 5                                                                  22844515.727 5  96662628.968 5      -946.082 5        32.407 5
C23                                                                                                                                                                                                
C32  26402220.133 5 137483294.157 5     -2176.709 5        34.874 5                                                                  26402219.789 5 111716427.202 5     -1768.836 5        33.325 5
C37  25302173.008 7 131755062.308 7      1166.414 7        47.145 7                                                                  25302177.059 7 107061815.814 7       947.900 7        47.263 7
J01  39544191.664 7 207806018.441 7      -223.885 7        42.458 7  39544190.020 6 161926865.704 6      -174.256 6        41.921 6  39544194.031 7 155179905.824 7      -167.014 7        44.874 7
E05  24095616.805 5 126623301.828 5     -1399.627 5        34.082 5  24095622.938 6  94556400.244 6     -1044.943 6        37.005 6  24095618.035 5  97023066.996 5     -1071.959 5        32.144 5  24095618.711 5 102778665.277 5     -1137.105 5        35.666 5
E09  25986135.043 6 136558106.205 6     -2410.643 6        40.315 6                                                                  25986149.203 5 104635469.568 5     -1847.506 5        31.864 5  25986140.266 5 110842582.139 5     -1956.813 5        33.325 5
> 2020 08 27 07 39 49.0000000  0 18       0.000000000000
G05  22325861.195 6 117323152.999 6     -1764.928 6        41.438 6  22325852.094 4  91420752.382 4     -1375.869 4        26.472 4  22325855.258 4  91420655.146 4     -1375.869 4        26.814 4                                                                
G13  20642970.840 7 108479538.593 7     -1676.295 7        44.168 7  20642969.652 5  84529493.758 5     -1306.240 5        30.713 5                                                                                                                                
G15  20038206.852 7 105301420.858 7       366.439 7        43.625 7  20038207.184 5  82053041.702 5       286.338 5        33.287 5  20038206.926 3  82053124.434 3       286.318 3        20.660 3                                                                
G30  24837910.285 5 130524067.458 5     -1777.135 5        33.527 5  24837918.785 3 101707091.438 3     -1385.654 3        18.618 3  24837917.656 4 101707168.191 4     -1385.654 4        26.177 4  24837919.895 7  97469296.297 7     -1327.332 7        42.798 7
R10  24012975.352 5 128002811.354 5      -301.559 5        32.144 5                                                                
R11  23326331.344 6 124648952.961 6      2372.287 6        41.595 6  23326330.199 5  96949142.470 5      1846.127 5        31.242 5
R24  19444331.000 6 103977830.248 6     -1571.678 6        36.124 6                                                                
C06  36221874.211 6 188616793.731 6       183.652 6        37.346 6  36221871.387 5 145850479.426 5       142.262 5        32.144 5  36221870.969 5 153266577.987 5       148.627 5        35.901 5
C08  36081922.441 6 187888028.033 6       127.285 6        38.428 6  36081922.477 6 145286932.434 6        98.688 6        39.693 6  36081917.691 5 152674402.455 5       105.268 5        33.325 5
C13  35756950.887 6 186195798.092 6       486.660 6        36.438 6  35756953.855 5 143978501.800 5       375.641 5        32.407 5                                                                
C16  36466190.539 5 189889025.652 5       372.305 5        35.154 5                                                                                                                                
C20  22844745.559 5 118958628.955 5     -1164.473 5        33.325 5                                                                  22844739.363 5  96663575.318 5      -947.779 5        32.407 5
C23                                                                                                                                                                                                
C32  26402637.836 5 137485470.429 5     -2177.012 5        34.874 5                                                                  26402637.746 5 111718195.601 5     -1768.658 5        32.656 5
C37  25301949.230 7 131753895.984 7      1165.645 7        47.084 7                                                                  25301953.098 7 107060868.069 7       947.318 7        47.179 7
J01  39544233.789 7 207806241.839 7      -223.756 7        42.458 7  39544233.074 6 161927039.777 6      -174.189 6        41.893 6  39544236.594 7 155180072.660 7      -167.195 7        44.889 7
E05  24095883.301 5 126624700.819 5     -1400.182 5        34.082 5  24095889.129 6  94557444.908 6     -1045.281 6        37.005 6  24095884.145 5  97024138.911 5     -1071.410 5        32.656 5  24095884.988 5 102779800.794 5     -1136.645 5        35.544 5
E09  25986593.926 6 136560517.113 6     -2412.135 6        40.103 6                                                                  25986607.969 5 104637316.894 5     -1848.480 5        32.144 5  25986599.176 5 110844539.045 5     -1957.387 5        33.113 5
> 2020 08 27 07 39 50.0000000  0 10       0.000000000000
G05  22326196.625 6 117324917.497 6     -1764.777 6        41.533 6  22326187.770 4  91422127.308 4     -1375.258 4        26.612 4  22326191.188 4  91422030.065 4     -1375.199 4        27.131 4                                                                
G13  20643289.813 7 108481214.433 7     -1676.672 7        44.185 7  20643288.539 5  84530799.600 5     -1306.547 5        30.923 5                                                                                                                                
G15  20038137.047 7 105301054.213 7       365.945 7        43.346 7  20038137.422 5  82052755.985 5       285.426 5        33.257 5  20038137.047 3  82052838.724 3       285.406 3        20.660 3                                                                
G30  24838248.723 5 130525844.603 5     -1776.926 5        33.325 5  24838256.895 2 101708476.199 2     -1385.570 2        17.649 2  24838255.375 4 101708552.955 4     -1385.570 4        26.327 4  24838257.945 7  97470623.368 7     -1327.254 7        42.632 7
R01  21201402.559 5 113333807.164 5     -2331.828 5        32.891 5                                                                
R10  24013031.949 5 128003112.265 5      -300.195 5        32.144 5                                                                
R11  23325887.203 6 124646579.926 6      2372.498 6        41.533 6  23325887.063 5  96947296.823 5      1844.729 5        31.242 5
R24  19444625.652 6 103979401.811 6     -1572.559 6        36.014 6                                                                
E05  24096149.691 5 126626099.625 5     -1398.117 5        34.253 5  24096155.301 6  94558489.518 6     -1044.168 6        37.179 6  24096150.227 5  97025210.777 5     -1071.797 5        32.407 5  24096151.191 5 102780936.215 5     -1135.793 5        35.666 5
E09  25987052.629 6 136562927.683 6     -2411.244 6        40.103 6                                                                  25987066.762 5 104639163.934 5     -1847.871 5        31.864 5  25987057.840 5 110846495.664 5     -1956.926 5        32.891 5
> 2020 08 27 07 40  0.0000000  0 20       0.000000000000
G05  22329555.777 7 117342568.441 7     -1765.852 7        42.751 7  22329547.191 4  91435881.258 4     -1375.775 4        27.649 4  22329551.340 4  91435784.009 4     -1375.717 4        27.809 4                                                                
G13  20646484.121 7 108497999.969 7     -1680.773 7        43.977 7  20646482.734 5  84543879.216 5     -1309.682 5        30.897 5                                                                                                                                
G15  20037445.695 7 105297418.056 7       360.809 7        43.407 7  20037445.195 5  82049922.642 5       280.318 5        33.670 5  20037447.625 3  82050005.392 3       280.338 3        21.629 3                                                                
G30  24841633.914 5 130543641.817 5     -1782.238 5        32.407 5  24841642.828 2 101722344.129 2     -1387.826 2        17.649 2  24841643.359 4 101722420.904 4     -1387.846 4        26.100 4  24841644.309 7  97483913.523 7     -1330.379 7        42.382 7
R01  21205765.324 5 113357128.825 5     -2332.057 5        34.082 5                                                                
R10  24013602.938 5 128006162.584 5      -310.455 5        32.144 5                                                                
R11  23321450.375 6 124622871.016 6      2368.840 6        41.864 6  23321447.652 5  96928856.652 5      1840.865 5        31.564 5
R24  19447572.715 5 103995164.306 5     -1581.393 5        35.666 5                                                                
C06  36221487.094 6 188614778.010 6       181.574 6        37.956 6                                                                  36221483.617 5 153264939.990 5       148.244 5        35.666 5
C08  36081653.340 6 187886626.935 6       127.043 6        38.968 6  36081652.734 6 145285849.021 6        97.787 6        39.645 6  36081648.332 5 152673264.007 5       102.580 5        33.113 5
C13  35755925.688 6 186190458.889 6       484.758 6        36.915 6  35755928.117 5 143974373.176 5       374.584 5        32.407 5                                                                
C16  36465404.234 5 189884931.042 5       371.848 5        35.544 5                                                                                                                                
C20  22847206.543 5 118971442.194 5     -1165.203 5        35.785 5                                                                  22847200.727 5  96673987.042 5      -946.561 5        32.656 5
C23                                                                                                                                                                                                
C32  26407234.578 6 137509402.502 6     -2175.143 6        37.179 6                                                                  26407234.887 5 111737642.325 5     -1767.244 5        34.417 5
C35  23874517.684 5 124320872.057 5      1349.211 5        35.544 5                                                                                                                                
C37  25299490.004 7 131741088.216 7      1162.238 7        47.110 7                                                                  25299493.715 7 107050460.737 7       944.514 7        47.049 7
J01  39544699.785 7 207808690.776 7      -222.043 7        42.304 7  39544698.855 7 161928948.044 7      -173.334 7        42.062 7  39544702.563 7 155181901.411 7      -166.297 7        44.772 7
E05  24098813.484 5 126640097.191 5     -1401.477 5        35.418 5  24098818.348 6  94568942.241 6     -1045.203 6        37.005 6  24098813.242 5  97035936.169 5     -1073.111 5        32.407 5  24098814.586 5 102792297.809 5     -1135.766 5        35.418 5
E09  25991638.508 6 136587029.829 6     -2409.719 6        40.785 6                                                                  25991653.883 5 104657631.734 5     -1845.846 5        31.564 5  25991644.344 5 110866059.133 5     -1957.387 5        32.891 5
> 2020 08 27 07 40  1.0000000  0 20       0.000000000000
G05  22329892.305 7 117344334.077 7     -1765.246 7        42.936 7  22329883.305 4  91437257.082 4     -1375.834 4        27.131 4  22329887.227 4  91437159.840 4     -1375.795 4        27.913 4                                                                
G13  20646803.340 7 108499681.235 7     -1681.555 7        44.030 7  20646802.594 5  84545189.297 5     -1310.307 5        30.740 5                                                                                                                                
G15  20037376.988 7 105297057.457 7       360.496 7        43.325 7  20037376.461 5  82049641.685 5       279.693 5        33.532 5  20037378.418 3  82049724.428 3       279.713 3        22.236 3                                                                
G30  24841973.734 5 130545424.157 5     -1782.902 5        33.113 5  24841982.020 2 101723732.979 2     -1388.764 2        17.649 2  24841982.609 4 101723809.753 4     -1388.764 4        26.327 4  24841983.352 7  97485244.477 7     -1331.135 7        42.198 7
R01  21206201.160 5 113359461.279 5     -2331.922 5        34.082 5                                                                
R10  24013658.352 5 128006471.573 5      -308.629 5        32.656 5                                                                
R11  23321006.766 6 124620502.190 6      2369.299 6        41.595 6  23321004.617 5  96927014.238 5      1841.967 5        31.242 5
R24  19447868.039 6 103996745.171 6     -1580.758 6        36.014 6                                                                
C06  36221452.016 6 188614595.466 6       181.867 6        37.585 6                                                                  36221448.523 5 153264791.628 5       149.063 5        35.666 5
C08  36081628.992 6 187886500.270 6       126.281 6        38.968 6  36081628.457 6 145285751.090 6        97.918 6        39.548 6  36081623.992 5 152673161.061 5       102.422 5        33.325 5
C13  35755832.762 6 186189973.971 6       484.094 6        37.093 6  35755834.980 5 143973998.134 5       375.926 5        32.144 5                                                                
C16  36465332.914 5 189884559.588 5       371.770 5        35.666 5                                                                                                                                
C20  22847430.355 5 118972607.530 5     -1165.125 5        35.785 5                                                                  22847424.543 5  96674933.935 5      -944.961 5        33.113 5
C23                                                                                                                                                                                                
C32  26407652.348 6 137511577.711 6     -2174.070 6        37.093 6                                                                  26407652.719 5 111739409.903 5     -1768.027 5        35.154 5
C35  23874259.309 5 124319523.466 5      1348.391 5        35.418 5                                                                                                                                
C37  25299266.828 7 131739926.083 7      1162.160 7        46.978 7                                                                  25299270.586 7 107049516.421 7       944.160 7        47.127 7
J01  39544741.906 7 207808912.862 7      -222.023 7        42.251 7  39544741.406 7 161929121.088 7      -172.865 7        42.006 7  39544744.762 7 155182067.231 7      -165.490 7        44.816 7
E05  24099079.898 5 126641497.743 5     -1400.148 5        35.666 5  24099084.801 6  94569988.147 6     -1045.588 6        37.005 6  24099079.633 5  97037009.347 5     -1072.512 5        32.407 5  24099081.043 5 102793434.713 5     -1136.578 5        34.874 5
E09  25992097.379 6 136589439.656 6     -2409.426 6        40.858 6                                                                  25992112.461 5 104659478.256 5     -1846.027 5        31.864 5  25992102.945 5 110868015.152 5     -1957.379 5        32.891 5
> 2020 08 27 07 40  2.0000000  0 20       0.000000000000
G05  22330228.496 7 117346099.899 7     -1765.902 7        42.913 7  22330219.352 4  91438633.015 4     -1375.529 4        27.192 4  22330223.699 4  91438535.771 4     -1375.490 4        27.963 4                                                                
G13  20647123.641 7 108501363.026 7     -1682.094 7        43.959 7  20647122.641 5  84546499.787 5     -1310.744 5        30.605 5                                                                                                                                
G15  20037308.227 7 105296697.452 7       359.918 7        43.284 7  20037307.941 5  82049361.096 5       280.564 5        33.490 5  20037309.656 3  82049443.840 3       280.545 3        22.043 3                                                                
G30  24842313.215 5 130547206.963 5     -1783.422 5        33.113 5  24842321.199 3 101725122.186 3     -1389.357 3        18.161 3  24842322.016 4 101725198.945 4     -1389.318 4        26.100 4  24842322.586 6  97486575.819 6     -1332.135 6        41.950 6
R01  21206638.367 5 113361793.869 5     -2332.268 5        33.905 5                                                                
R10  24013716.852 5 128006781.348 5      -309.209 5        33.113 5                                                                
R11  23320562.238 6 124618133.821 6      2367.684 6        41.776 6  23320561.523 5  96925172.117 5      1842.680 5        30.895 5
R24  19448162.445 5 103998326.966 5     -1581.203 5        35.901 5                                                                
C06  36221416.773 6 188614413.051 6       183.047 6        37.812 6                                                                  36221413.469 5 153264643.476 5       147.646 5        35.544 5
C08  36081605.055 6 187886373.771 6       126.250 6        39.024 6  36081603.875 6 145285653.271 6        97.346 6        39.241 6  36081599.832 5 152673058.246 5       102.842 5        33.325 5
C13  35755739.746 6 186189489.115 6       484.746 6        36.915 6  35755741.965 5 143973623.307 5       374.201 5        32.891 5                                                                
C16  36465261.828 5 189884188.337 5       370.547 5        35.666 5                                                                                                                                
C20  22847654.535 6 118973772.964 6     -1165.840 6        36.124 6                                                                  22847648.211 5  96675880.982 5      -946.650 5        32.891 5
C23                                                                                                                                                                                                
C32  26408070.457 6 137513752.927 6     -2174.883 6        36.915 6                                                                  26408070.750 5 111741177.417 5     -1766.455 5        34.874 5
C35  23874001.199 5 124318175.380 5      1347.891 5        35.418 5                                                                                                                                
C37  25299043.418 7 131738764.356 7      1161.465 7        47.093 7                                                                  25299047.570 7 107048572.420 7       943.896 7        46.987 7
J01  39544784.613 7 207809134.874 7      -222.035 7        42.144 7  39544783.324 7 161929294.098 7      -173.342 7        42.090 7  39544787.043 7 155182233.033 7      -165.689 7        44.712 7
E05  24099346.758 5 126642898.596 5     -1401.586 5        35.666 5  24099351.316 6  94571034.212 6     -1046.588 6        36.915 6  24099346.180 5  97038082.736 5     -1074.529 5        32.144 5  24099347.617 5 102794571.699 5     -1137.469 5        35.288 5
E09  25992555.555 6 136591849.480 6     -2410.141 6        40.822 6                                                                  25992571.160 5 104661324.749 5     -1847.244 5        31.864 5  25992561.477 5 110869971.100 5     -1955.496 5        32.656 5
> 2020 08 27 07 40  3.0000000  0 20       0.000000000000
G05  22330564.508 7 117347865.855 7     -1766.072 7        43.003 7  22330555.707 4  91440009.099 4     -1375.785 4        27.539 4  22330559.570 4  91439911.860 4     -1375.727 4        27.963 4                                                                
G13  20647443.629 7 108503045.340 7     -1681.795 7        44.048 7  20647442.684 5  84547810.673 5     -1310.453 5        30.262 5                                                                                                                                
G15  20037239.434 7 105296338.034 7       359.414 7        43.468 7  20037239.574 5  82049081.076 5       279.527 5        33.532 5  20037241.867 3  82049163.810 3       279.566 3        22.236 3                                                                
G30  24842651.945 5 130548990.260 5     -1783.201 5        33.325 5  24842660.605 3 101726511.794 3     -1389.906 3        18.161 3  24842660.676 4 101726588.558 4     -1389.926 4        26.100 4  24842661.879 7  97487907.484 7     -1331.445 7        42.198 7
R01  21207073.680 5 113364126.536 5     -2332.221 5        33.905 5                                                                
R10  24013776.469 5 128007091.920 5      -310.326 5        32.656 5                                                                
R11  23320120.684 6 124615765.811 6      2368.502 6        41.717 6  23320117.820 5  96923330.390 5      1842.008 5        31.242 5
R24  19448459.969 6 103999909.656 6     -1582.729 6        36.014 6                                                                
C06  36221381.820 6 188614230.863 6       182.291 6        37.956 6                                                                  36221378.445 5 153264495.422 5       148.625 5        35.901 5
C08  36081580.727 6 187886247.419 6       126.725 6        39.024 6  36081579.547 6 145285555.535 6        98.439 6        39.346 6  36081575.547 5 152672955.574 5       103.449 5        33.113 5
C13  35755646.840 6 186189004.374 6       485.512 6        37.005 6  35755649.094 5 143973248.454 5       374.475 5        32.656 5                                                                
C16  36465190.387 5 189883817.259 5       371.059 5        35.544 5                                                                                                                                
C20  22847878.578 6 118974938.510 6     -1164.252 6        36.538 6                                                                  22847872.055 5  96676828.075 5      -946.961 5        32.891 5
C23                                                                                                                                                                                                
C32  26408488.105 6 137515928.123 6     -2174.896 6        37.263 6                                                                  26408488.504 5 111742944.910 5     -1766.863 5        35.154 5
C35  23873743.059 5 124316827.860 5      1347.523 5        35.544 5                                                                                                                                
C37  25298820.195 7 131737603.035 7      1161.684 7        47.110 7                                                                  25298824.473 7 107047628.758 7       943.742 7        47.014 7
J01  39544826.570 7 207809356.840 7      -221.465 7        42.278 7  39544825.500 6 161929467.039 6      -172.250 6        41.978 6  39544829.203 7 155182398.776 7      -165.098 7        44.727 7
E05  24099612.227 6 126644299.583 6     -1401.658 6        36.124 6  24099617.867 6  94572080.388 6     -1045.117 6        36.915 6  24099612.688 5  97039156.185 5     -1072.867 5        32.144 5  24099614.160 5 102795708.838 5     -1135.619 5        35.418 5
E09  25993014.340 6 136594259.228 6     -2409.451 6        41.037 6                                                                  25993029.844 5 104663171.223 5     -1846.188 5        30.895 5  25993019.879 5 110871927.099 5     -1956.107 5        32.407 5
> 2020 08 27 07 40  4.0000000  0 20       0.000000000000
G05  22330900.664 7 117349631.889 7     -1765.713 7        42.891 7  22330891.875 4  91441385.266 4     -1376.465 4        27.756 4  22330895.152 4  91441288.017 4     -1376.426 4        27.809 4                                                                
G13  20647764.043 7 108504728.147 7     -1683.154 7        43.941 7  20647762.828 5  84549121.952 5     -1311.543 5        30.321 5                                                                                                                                
G15  20037171.641 7 105295979.133 7       359.131 7        43.427 7  20037171.281 5  82048801.433 5       279.139 5        33.360 5  20037173.715 3  82048884.175 3       279.139 3        21.841 3                                                                
G30  24842992.250 5 130550774.068 5     -1784.170 5        33.527 5  24843000.066 2 101727901.770 2     -1390.781 2        17.069 2  24843000.336 4 101727978.539 4     -1390.723 4        25.942 4  24843001.316 6  97489239.544 6     -1332.691 6        41.776 6
R01  21207510.426 5 113366459.301 5     -2333.715 5        33.720 5                                                                
R10  24013834.508 5 128007403.199 5      -309.828 5        32.891 5                                                                
R11  23319676.266 6 124613398.208 6      2367.633 6        41.656 6  23319674.402 5  96921488.936 5      1841.523 5        30.517 5
R24  19448755.484 6 104001493.153 6     -1584.066 6        36.231 6                                                                
C06  36221346.758 6 188614048.764 6       181.635 6        37.885 6  36221338.211 5 145848319.787 5       142.408 5        31.564 5  36221343.426 5 153264347.477 5       146.461 5        35.666 5
C08  36081556.789 6 187886121.145 6       126.537 6        39.024 6  36081555.430 6 145285457.915 6        97.721 6        39.294 6  36081551.391 5 152672852.985 5       102.750 5        32.656 5
C13  35755553.863 6 186188519.716 6       484.428 6        37.093 6  35755556.047 5 143972873.673 5       375.045 5        32.656 5                                                                
C16  36465119.445 5 189883446.232 5       370.775 5        35.418 5                                                                                                                                
C20  22848102.301 6 118976104.137 6     -1164.361 6        36.438 6                                                                  22848096.035 5  96677775.267 5      -947.367 5        32.656 5
C23                                                                                                                                                                                                
C32  26408905.965 6 137518103.215 6     -2175.375 6        37.346 6                                                                  26408906.316 5 111744712.339 5     -1766.664 5        35.154 5
C35  23873485.277 5 124315480.785 5      1347.865 5        35.418 5                                                                                                                                
C37  25298597.004 7 131736442.078 7      1160.912 7        47.119 7                                                                  25298601.473 7 107046685.368 7       943.590 7        46.824 7
J01  39544868.602 7 207809578.695 7      -221.299 7        42.251 7  39544867.383 7 161929639.929 7      -172.619 7        42.062 7  39544871.457 7 155182564.461 7      -165.330 7        44.712 7
E05  24099878.484 6 126645700.668 6     -1400.928 6        36.124 6  24099884.473 6  94573126.708 6     -1046.461 6        36.731 6  24099879.090 5  97040229.843 5     -1075.072 5        32.407 5  24099881.043 5 102796846.157 5     -1137.119 5        35.154 5
E09  25993472.555 6 136596668.933 6     -2410.281 6        40.822 6                                                                  25993488.449 5 104665017.578 5     -1846.889 5        30.517 5  25993478.121 5 110873883.012 5     -1955.869 5        32.144 5
> 2020 08 27 07 40  5.0000000  0 20       0.000000000000
G05  22331236.535 7 117351398.016 7     -1766.287 7        42.751 7  22331228.148 4  91442761.420 4     -1375.688 4        27.861 4  22331230.813 4  91442664.178 4     -1375.688 4        27.756 4                                                                
G13  20648084.750 7 108506411.395 7     -1683.787 7        43.887 7  20648083.148 5  84550433.577 5     -1312.152 5        30.262 5                                                                                                                                
G15  20037103.133 7 105295620.787 7       357.775 7        43.346 7  20037103.250 5  82048522.139 5       279.490 5        33.504 5  20037105.566 3  82048604.879 3       279.490 3        22.236 3                                                                
G30  24843331.414 5 130552558.309 5     -1785.252 5        33.527 5  24843339.543 2 101729292.052 2     -1390.180 2        17.069 2  24843340.289 4 101729368.820 4     -1390.160 4        26.022 4  24843340.910 6  97490571.906 6     -1333.033 6        41.595 6
R01  21207945.605 5 113368792.033 5     -2332.908 5        33.720 5                                                                
R10  24013892.270 5 128007715.252 5      -313.051 5        32.891 5                                                                
R11  23319234.438 6 124611030.937 6      2367.611 6        41.717 6  23319231.430 5  96919647.813 5      1838.928 5        30.517 5
R24  19449051.301 6 104003077.477 6     -1584.850 6        36.231 6                                                                
C06  36221311.844 6 188613866.725 6       181.102 6        37.737 6  36221304.547 5 145848179.069 5       141.055 5        31.564 5  36221308.598 5 153264199.501 5       147.506 5        35.544 5
C08  36081532.430 6 187885994.969 6       126.688 6        38.911 6  36081531.070 6 145285360.363 6        97.109 6        39.241 6  36081527.055 5 152672750.552 5       100.885 5        32.407 5
C13  35755460.891 6 186188035.080 6       484.129 6        37.093 6  35755463.465 5 143972498.880 5       374.473 5        32.656 5                                                                
C16  36465048.293 5 189883075.332 5       371.531 5        35.666 5                                                                                                                                
C20  22848326.418 6 118977269.824 6     -1164.936 6        36.438 6                                                                  22848319.828 5  96678722.479 5      -947.729 5        32.891 5
C23                                                                                                                                                                                                
C32  26409323.863 6 137520278.217 6     -2174.936 6        37.263 6                                                                  26409324.094 5 111746479.710 5     -1767.475 5        35.288 5
C35  23873227.711 5 124314134.261 5      1345.750 5        35.418 5                                                                                                                                
C37  25298374.207 7 131735281.450 7      1160.125 7        46.987 7                                                                  25298378.543 7 107045742.275 7       942.467 7        46.796 7
J01  39544910.922 7 207809800.433 7      -221.971 7        42.034 7  39544910.207 6 161929812.708 6      -172.992 6        41.893 6  39544913.668 7 155182730.025 7      -165.299 7        44.605 7
E05  24100145.027 6 126647101.926 6     -1401.463 6        36.231 6  24100151.000 6  94574173.081 6     -1045.885 6        36.731 6  24100145.734 5  97041303.428 5     -1072.852 5        32.144 5  24100147.547 5 102797983.557 5     -1138.371 5        35.154 5
E09  25993930.195 6 136599078.477 6     -2409.354 6        40.858 6                                                                                                                                  25993936.449 5 110875838.799 5     -1954.582 5        32.407 5
> 2020 08 27 07 40  6.0000000  0 20       0.000000000000
G05  22331572.605 7 117353164.438 7     -1766.373 7        42.775 7  22331564.320 4  91444137.888 4     -1376.938 4        28.256 4  22331567.813 4  91444040.645 4     -1376.977 4        27.913 4                                                                
G13  20648404.938 7 108508095.330 7     -1683.971 7        43.977 7  20648403.508 5  84551745.744 5     -1312.270 5        30.350 5                                                                                                                                
G15  20037034.973 7 105295263.170 7       357.475 7        43.527 7  20037035.102 5  82048243.503 5       278.119 5        33.490 5  20037037.262 3  82048326.242 3       278.061 3        22.043 3                                                                
G30  24843670.922 5 130554343.096 5     -1784.010 5        33.527 5  24843679.223 2 101730682.855 2     -1391.098 2        17.649 2  24843679.793 4 101730759.626 4     -1391.117 4        26.100 4  24843680.551 6  97491904.762 6     -1332.826 6        41.626 6
R01  21208382.121 5 113371125.072 5     -2334.711 5        33.527 5                                                                
R10  24013950.367 5 128008028.141 5      -313.344 5        32.891 5                                                                
R11  23318793.371 6 124608664.291 6      2367.320 6        41.776 6  23318789.504 5  96917806.980 5      1840.988 5        30.103 5
R24  19449349.313 6 104004662.801 6     -1585.336 6        36.231 6                                                                
C06  36221277.059 6 188613684.958 6       182.344 6        37.885 6  36221270.727 5 145848038.610 5       140.316 5        32.144 5  36221273.730 5 153264051.852 5       147.428 5        35.544 5
C08  36081508.305 6 187885869.121 6       125.898 6        39.241 6  36081506.836 6 145285263.016 6        97.230 6        39.079 6  36081503.008 5 152672648.151 5       103.248 5        32.891 5
C13  35755367.863 6 186187550.710 6       483.887 6        37.263 6  35755370.477 5 143972124.374 5       374.457 5        32.407 5                                                                
C16  36464977.055 5 189882704.809 5       370.469 5        35.785 5                                                                                                                                
C20  22848550.809 6 118978435.792 6     -1165.156 6        36.635 6                                                                  22848543.895 5  96679669.951 5      -949.076 5        32.891 5
C23                                                                                                                                                                                                
C32  26409741.461 6 137522453.325 6     -2175.135 6        37.507 6                                                                  26409741.801 5 111748247.159 5     -1767.357 5        35.418 5
C35  23872969.914 5 124312788.352 5      1345.996 5        35.901 5                                                                                                                                
C37  25298151.758 7 131734121.388 7      1159.629 7        47.229 7                                                                  25298155.855 7 107044799.624 7       942.486 7        46.861 7
J01  39544953.152 7 207810022.278 7      -221.568 7        42.278 7  39544952.582 6 161929985.558 6      -172.055 6        41.950 6  39544955.902 7 155182895.708 7      -165.600 7        44.816 7
E05  24100412.344 6 126648503.575 6     -1402.174 6        36.231 6  24100417.688 6  94575219.728 6     -1046.381 6        36.824 6  24100412.336 5  97042377.433 5     -1074.564 5        32.407 5  24100414.188 5 102799121.170 5     -1136.426 5        35.017 5
E09  25994388.969 6 136601488.190 6     -2409.477 6        40.858 6                                                                                                                                  25994394.938 5 110877794.764 5     -1956.152 5        32.144 5
> 2020 08 27 07 40  7.0000000  0 20       0.000000000000
G05  22331908.777 7 117354930.970 7     -1766.785 7        42.728 7  22331900.664 4  91445514.384 4     -1376.666 4        28.303 4  22331904.055 4  91445417.141 4     -1376.666 4        28.014 4                                                                
G13  20648725.223 7 108509779.766 7     -1684.773 7        43.850 7  20648723.922 5  84553058.282 5     -1312.877 5        30.111 5                                                                                                                                
G15  20036967.621 7 105294906.111 7       356.652 7        43.644 7  20036967.094 5  82047965.221 5       279.273 5        33.697 5  20036968.980 3  82048047.955 3       279.254 3        21.841 3                                                                
G30  24844010.523 5 130556128.500 5     -1785.926 5        33.905 5  24844019.012 2 101732074.036 2     -1391.549 2        17.069 2  24844020.039 4 101732150.817 4     -1391.568 4        26.253 4  24844020.434 6  97493238.019 6     -1334.340 6        41.864 6
R01  21208819.746 5 113373458.128 5     -2333.818 5        33.527 5                                                                
R10  24014009.574 5 128008341.851 5      -315.096 5        32.407 5                                                                
R11  23318347.684 6 124606298.010 6      2365.684 6        41.687 6                                                                
R24  19449645.855 6 104006249.073 6     -1586.893 6        36.124 6                                                                
C06  36221242.227 6 188613503.442 6       180.779 6        37.812 6  36221236.609 5 145847898.118 5       140.176 5        32.144 5  36221238.844 5 153263904.311 5       146.955 5        35.785 5
C08  36081484.168 6 187885743.399 6       124.842 6        38.968 6  36081482.664 6 145285165.773 6        97.344 6        39.188 6  36081478.816 5 152672546.007 5       102.307 5        32.891 5
C13  35755275.152 6 186187066.467 6       483.807 6        36.915 6  35755277.262 5 143971749.975 5       372.930 5        32.144 5                                                                
C16  36464905.840 6 189882334.364 6       370.896 6        36.014 6                                                                                                                                
C20  22848775.078 6 118979601.858 6     -1166.252 6        36.635 6                                                                  22848767.930 5  96680617.410 5      -947.615 5        32.891 5
C23                                                                                                                                                                                                
C32  26410159.086 6 137524628.398 6     -2175.100 6        37.427 6                                                                  26410159.797 5 111750014.615 5     -1768.340 5        35.544 5
C35  23872712.148 5 124311442.906 5      1346.053 5        35.544 5                                                                                                                                
C37  25297929.188 7 131732961.706 7      1159.314 7        47.187 7                                                                  25297933.039 7 107043857.296 7       941.740 7        46.815 7
J01  39544995.699 7 207810244.039 7      -222.234 7        42.144 7  39544994.910 6 161930158.363 6      -172.953 6        41.978 6  39544998.215 7 155183061.305 7      -166.020 7        44.831 7
E05  24100679.328 6 126649905.305 6     -1401.844 6        36.635 6  24100684.387 6  94576266.514 6     -1047.445 6        36.915 6  24100679.035 5  97043451.523 5     -1073.906 5        32.144 5  24100681.016 5 102800259.043 5     -1139.119 5        34.874 5
E09  25994848.414 6 136603897.829 6     -2409.363 6        40.710 6                                                                                                                                  25994853.422 5 110879750.659 5     -1955.779 5        32.891 5
> 2020 08 27 07 40  8.0000000  0 20       0.000000000000
G05  22332244.566 7 117356697.591 7     -1766.904 7        42.533 7  22332236.910 4  91446890.982 4     -1377.086 4        28.014 4  22332240.203 4  91446793.733 4     -1377.086 4        27.809 4                                                                
G13  20649045.703 7 108511464.676 7     -1685.107 7        43.644 7  20649044.500 5  84554371.193 5     -1313.043 5        30.048 5                                                                                                                                
G15  20036899.465 7 105294549.610 7       355.324 7        43.488 7  20036899.277 5  82047687.454 5       276.859 5        33.670 5  20036901.609 3  82047770.188 3       276.879 3        21.841 3                                                                
G30  24844350.609 5 130557914.339 5     -1786.904 5        34.082 5  24844358.777 2 101733465.595 2     -1391.383 2        17.649 2  24844359.766 4 101733542.363 4     -1391.344 4        26.177 4  24844360.223 6  97494571.558 6     -1333.529 6        41.776 6
R01  21209254.980 5 113375791.223 5     -2332.688 5        33.113 5                                                                
R10  24014068.965 5 128008656.215 5      -315.623 5        32.144 5                                                                
R11  23317904.906 6 124603932.102 6      2365.643 6        41.502 6                                                                
R24  19449942.438 6 104007836.198 6     -1588.848 6        36.231 6                                                                
C06  36221207.266 6 188613321.935 6       180.740 6        37.812 6  36221202.688 5 145847757.808 5       140.518 5        31.564 5  36221204.031 5 153263756.860 5       146.297 5        35.666 5
C08  36081459.973 6 187885617.757 6       125.584 6        39.134 6  36081458.863 6 145285068.679 6        95.908 6        39.448 6  36081454.742 5 152672443.901 5       102.000 5        32.891 5
C13  35755182.059 6 186186582.234 6       483.943 6        37.263 6  35755184.098 5 143971375.458 5       375.537 5        32.407 5                                                                
C16  36464834.715 5 189881964.064 5       370.955 5        35.544 5                                                                                                                                
C20  22848999.363 6 118980767.982 6     -1166.604 6        36.915 6                                                                  22848991.887 5  96681564.985 5      -948.645 5        32.891 5
C23                                                                                                                                                                                                
C32  26410577.047 6 137526803.389 6     -2175.256 6        37.263 6                                                                  26410577.629 5 111751781.955 5     -1767.355 5        35.666 5
C35  23872454.715 5 124310098.046 5      1344.197 5        35.785 5                                                                                                                                
C37  25297706.707 7 131731802.373 7      1158.963 7        47.110 7                                                                  25297710.324 7 107042915.240 7       941.766 7        46.787 7
J01  39545038.008 7 207810465.685 7      -221.434 7        42.304 7  39545036.719 6 161930331.091 6      -172.652 6        41.950 6  39545040.332 7 155183226.814 7      -165.502 7        44.786 7
E05  24100946.289 6 126651307.220 6     -1402.137 6        36.538 6  24100951.227 6  94577313.422 6     -1047.768 6        37.179 6  24100945.695 5  97044525.753 5     -1075.439 5        32.656 5  24100947.750 5 102801396.968 5     -1139.365 5        34.727 5
E09  25995306.547 6 136606307.414 6     -2409.717 6        40.672 6                                                                                                                                  25995311.883 5 110881706.457 5     -1955.654 5        32.407 5
> 2020 08 27 07 40  9.0000000  0 20       0.000000000000
G05  22332580.492 7 117358464.283 7     -1766.158 7        42.225 7  22332573.223 4  91448267.646 4     -1376.711 4        28.256 4  22332575.984 4  91448170.390 4     -1376.672 4        27.913 4                                                                
G13  20649366.176 7 108513150.079 7     -1685.260 7        43.448 7  20649365.230 5  84555684.508 5     -1313.098 5        30.080 5                                                                                                                                
G15  20036831.727 7 105294193.593 7       356.303 7        43.448 7  20036831.512 5  82047410.072 5       276.961 5        33.697 5  20036833.227 3  82047492.802 3       276.980 3        21.406 3                                                                
G30  24844691.398 5 130559700.572 5     -1785.572 5        33.905 5  24844698.668 2 101734857.489 2     -1391.457 2        17.649 2  24844700.199 4 101734934.259 4     -1391.477 4        25.942 4  24844700.164 6  97495905.470 6     -1333.826 6        41.717 6
R01  21209689.344 5 113378124.385 5     -2332.367 5        32.656 5                                                                
R10  24014125.199 5 128008971.271 5      -314.047 5        31.564 5                                                                
R11  23317463.121 6 124601566.547 6      2365.463 6        41.626 6                                                                
R24  19450239.730 6 104009424.048 6     -1588.502 6        36.014 6                                                                
C06  36221172.582 6 188613140.543 6       182.109 6        38.165 6  36221168.324 5 145847617.590 5       139.607 5        31.564 5  36221169.289 5 153263609.421 5       149.061 5        35.666 5
C08  36081435.844 6 187885492.209 6       125.762 6        39.079 6  36081434.484 6 145284971.577 6        97.303 6        39.294 6  36081430.563 5 152672341.920 5       102.166 5        33.113 5
C13  35755089.066 6 186186098.059 6       484.336 6        37.093 6  35755091.105 5 143971001.104 5       374.158 5        32.656 5                                                                
C16  36464763.863 5 189881593.930 5       369.844 5        35.785 5                                                                                                                                
C20  22849223.715 6 118981934.153 6     -1166.111 6        37.093 6                                                                  22849215.879 5  96682512.547 5      -945.568 5        33.113 5
C23                                                                                                                                                                                                
C32  26410994.820 6 137528978.274 6     -2174.021 6        37.263 6                                                                  26410995.422 5 111753549.211 5     -1766.154 5        35.785 5
C35  23872197.344 5 124308753.607 5      1343.828 5        35.785 5                                                                                                                                
C37  25297484.250 7 131730643.392 7      1159.375 7        47.136 7                                                                  25297487.770 7 107041973.483 7       941.932 7        46.740 7
J01  39545080.234 7 207810687.217 7      -220.787 7        42.225 7  39545078.949 6 161930503.694 6      -172.023 6        41.776 6  39545082.453 7 155183392.252 7      -164.900 7        44.874 7
E05  24101213.316 6 126652709.260 6     -1402.369 6        36.635 6  24101218.016 6  94578360.394 6     -1047.400 6        37.093 6  24101212.344 5  97045599.994 5     -1074.592 5        32.407 5  24101214.348 5 102802534.920 5     -1137.354 5        35.017 5
E09  25995765.031 6 136608716.873 6     -2408.502 6        40.785 6                                                                                                                                  25995770.324 5 110883662.176 5     -1955.205 5        32.144 5
> 2020 08 27 07 40 10.0000000  0 20       0.000000000000
G05  22332917.160 7 117360231.270 7     -1767.465 7        42.034 7  22332909.578 4  91449644.491 4     -1376.801 4        27.703 4  22332912.582 4  91449547.233 4     -1376.801 4        27.963 4                                                                
G13  20649687.535 7 108514836.135 7     -1686.625 7        43.567 7  20649686.203 5  84556998.308 5     -1314.320 5        30.080 5                                                                                                                                
G15  20036764.734 7 105293838.312 7       354.957 7        43.605 7  20036763.891 5  82047133.243 5       276.480 5        33.710 5  20036765.379 3  82047215.970 3       276.441 3        21.171 3                                                                
G30  24845031.074 5 130561487.495 5     -1787.387 5        34.082 5  24845038.758 2 101736249.861 2     -1391.430 2        16.400 2  24845040.086 4 101736326.635 4     -1391.449 4        25.942 4  24845040.359 6  97497239.847 6     -1334.781 6        41.626 6
R01  21210126.324 5 113380457.786 5     -2333.291 5        32.407 5                                                                
R10  24014184.621 5 128009287.253 5      -315.270 5        31.564 5                                                                
R11  23317021.230 6 124599201.504 6      2364.805 6        41.470 6                                                                
R24  19450536.199 5 104011012.855 5     -1588.436 5        35.901 5                                                                
C06  36221137.820 6 188612959.448 6       181.488 6        38.027 6  36221133.707 5 145847477.543 5       139.965 5        31.864 5  36221134.449 5 153263462.277 5       146.930 5        35.666 5
C08  36081411.813 6 187885366.960 6       124.984 6        38.968 6  36081410.313 6 145284874.734 6        96.898 6        39.241 6  36081406.520 5 152672240.152 5       101.480 5        32.891 5
C13  35754996.496 6 186185614.129 6       483.676 6        37.346 6  35754998.141 5 143970626.924 5       373.656 5        32.407 5                                                                
C16  36464692.938 5 189881224.002 5       370.629 5        35.785 5                                                                                                                                
C20  22849447.879 6 118983100.557 6     -1166.480 6        37.179 6                                                                  22849439.941 5  96683460.372 5      -947.016 5        33.113 5
C23                                                                                                                                                                                                
C32  26411412.230 6 137531153.267 6     -2174.977 6        37.263 6                                                                  26411413.305 6 111755316.582 6     -1767.621 6        36.014 6
C35  23871939.824 5 124307409.811 5      1344.439 5        35.785 5                                                                                                                                
C37  25297261.500 7 131729484.945 7      1158.424 7        47.127 7                                                                  25297265.293 7 107041032.151 7       941.090 7        46.778 7
J01  39545122.063 7 207810908.837 7      -221.586 7        42.198 7  39545121.063 7 161930676.406 7      -172.836 7        42.034 7  39545124.762 7 155183557.735 7      -165.248 7        44.816 7
E05  24101480.301 6 126654111.604 6     -1401.859 6        37.093 6  24101484.895 6  94579407.630 6     -1047.848 6        37.093 6  24101479.113 5  97046674.583 5     -1075.543 5        33.113 5  24101481.102 5 102803673.209 5     -1137.895 5        34.874 5
E09  25996223.688 6 136611126.454 6     -2409.301 6        40.634 6                                                                                                                                  25996228.953 5 110885617.958 5     -1954.301 5        32.407 5
> 2020 08 27 07 40 11.0000000  0 20       0.000000000000
G05  22333253.746 7 117361998.418 7     -1766.719 7        42.198 7  22333245.949 4  91451021.521 4     -1377.119 4        27.483 4  22333248.809 4  91450924.264 4     -1377.158 4        28.161 4                                                                
G13  20650008.809 7 108516522.774 7     -1686.738 7        43.625 7  20650007.289 5  84558312.569 5     -1314.346 5        30.379 5                                                                                                                                
G15  20036697.082 7 105293483.689 7       354.395 7        43.758 7  20036696.711 5  82046856.882 5       275.674 5        33.697 5  20036697.871 3  82046939.608 3       275.713 3        21.406 3                                                                
G30  24845371.234 5 130563274.958 5     -1787.559 5        34.253 5  24845378.949 2 101737642.729 2     -1392.490 2        15.608 2  24845379.461 4 101737719.492 4     -1392.490 4        25.778 4  24845380.516 6  97498574.673 6     -1335.486 6        41.687 6
R01  21210562.637 5 113382791.328 5     -2333.916 5        32.144 5                                                                
R10  24014244.090 5 128009604.112 5      -317.828 5        31.242 5                                                                
R11  23316578.531 6 124596836.999 6      2364.006 6        41.687 6                                                                
R24  19450833.578 6 104012602.696 6     -1590.213 6        36.335 6                                                                
C06  36221103.188 6 188612778.567 6       181.551 6        38.096 6  36221099.363 5 145847337.633 5       140.234 5        32.144 5  36221099.641 5 153263315.272 5       148.717 5        35.901 5
C08  36081388.059 6 187885241.909 6       125.398 6        38.854 6  36081386.699 6 145284778.041 6        96.699 6        39.346 6  36081382.508 5 152672138.516 5       101.959 5        32.656 5
C13  35754903.914 6 186185130.372 6       483.525 6        37.263 6  35754905.738 5 143970252.846 5       372.930 5        32.407 5                                                                
C16  36464621.887 5 189880854.375 5       369.461 5        35.544 5                                                                                                                                
C20  22849672.277 6 118984267.142 6     -1166.359 6        37.263 6                                                                  22849663.863 5  96684408.355 5      -947.611 5        33.325 5
C23                                                                                                                                                                                                
C32  26411829.805 6 137533328.308 6     -2174.719 6        37.662 6                                                                  26411831.086 6 111757083.969 6     -1767.926 6        36.231 6
C35  23871682.648 5 124306066.640 5      1344.873 5        35.666 5                                                                                                                                
C37  25297038.918 7 131728326.972 7      1157.900 7        47.040 7                                                                  25297043.031 7 107040091.197 7       940.846 7        46.778 7
J01  39545164.523 7 207811130.463 7      -221.602 7        42.304 7  39545162.949 7 161930849.084 7      -172.432 7        42.062 7  39545167.035 7 155183723.232 7      -165.193 7        44.831 7
E05  24101746.984 6 126655514.217 6     -1401.992 6        37.179 6  24101751.828 6  94580455.012 6     -1046.482 6        37.093 6  24101746.047 5  97047749.325 5     -1076.211 5        32.656 5  24101748.031 5 102804811.708 5     -1138.434 5        35.017 5
E09  25996681.969 6 136613536.064 6     -2409.689 6        40.672 6                                                                                                                                  25996687.406 5 110887573.891 5     -1956.656 5        32.656 5
> 2020 08 27 07 40 21.0000000  0  4       0.000000000000
C23                                                                                                                                                                                                
C32                                                                                                                                                                                                
C37                                                                                                                                                                                                
J01  39545585.301 7 207813343.952 7      -220.598 7        42.034 7  39545584.730 7 161932573.899 7      -172.037 7        42.144 7  39545588.051 7 155185376.186 7      -164.859 7        44.860 7
> 2020 08 27 07 40 22.0000000  0 18       0.000000000000
G05  22336954.797 6 117381447.570 6     -1769.072 6        40.822 6  22336948.215 4  91466176.689 4     -1379.193 4        27.131 4  22336950.363 4  91466079.438 4     -1379.213 4        29.111 4                                                                
G13  20653546.160 7 108535111.589 7     -1693.232 7        43.407 7  20653544.344 4  84572797.343 4     -1319.428 4        29.300 4                                                                                                                                
G15  20035962.285 7 105289622.431 7       347.492 7        44.048 7  20035961.754 5  82043848.104 5       272.350 5        33.869 5  20035960.926 3  82043930.898 3       272.311 3        20.660 3                                                                
G30  24849120.223 6 130582971.491 6     -1793.643 6        36.231 6  24849126.359 2 101752990.707 2     -1397.494 2        17.069 2  24849127.949 4 101753067.459 4     -1397.514 4        25.608 4  24849128.191 6  97513283.095 6     -1339.150 6        41.533 6
R11  23311715.355 7 124570855.934 7      2359.002 7        42.225 7                                                                
R24  19454114.430 6 104030150.254 6     -1600.627 6        37.093 6                                                                
C06  36220723.332 6 188610800.188 6       178.662 6        38.165 6  36220720.148 5 145845807.854 5       137.469 5        31.864 5  36220719.859 5 153261707.720 5       145.584 5        35.544 5
C08  36081125.891 6 187883877.632 6       123.975 6        39.024 6  36081124.746 6 145283723.076 6        95.672 6        39.294 6  36081120.141 5 152671029.992 5        98.553 5        32.891 5
C13  35753884.039 6 186179817.136 6       483.271 6        38.165 6  35753885.113 5 143966144.282 5       373.230 5        32.407 5                                                                
C16  36463843.625 5 189876800.278 5       366.162 5        35.785 5                                                                                                                                
C20  22852141.594 6 118997108.462 6     -1168.195 6        38.491 6                                                                  22852131.547 5  96694842.958 5      -948.166 5        33.720 5
C23                                                                                                                                                                                                
C32  26416424.895 6 137557252.484 6     -2175.324 6        38.298 6                                                                  26416426.477 6 111776524.303 6     -1767.775 6        36.731 6
C35  23868857.637 5 124291327.814 5      1337.646 5        35.288 5                                                                                                                                
C37  25294598.250 7 131715616.985 7      1152.744 7        46.924 7                                                                  25294602.500 7 107029763.302 7       937.205 7        46.273 7
J01  39545627.477 6 207813565.578 6      -221.336 6        41.921 6  39545626.188 7 161932746.596 7      -172.826 7        42.144 7  39545630.293 7 155185541.676 7      -165.576 7        44.727 7
E05  24104686.500 6 126670956.608 6     -1404.893 6        37.662 6  24104690.352 6  94591986.697 6     -1050.439 6        36.915 6  24104683.730 5  97059581.780 5     -1075.988 5        33.325 5  24104686.473 5 102817346.173 5     -1140.928 5        35.154 5
E09  26001725.652 6 136640040.422 6     -2409.717 6        40.437 6                                                                                                                                  26001730.531 5 110909087.146 5     -1955.518 5        31.564 5
> 2020 08 27 07 40 23.0000000  0 18       0.000000000000
G05  22337291.336 6 117383216.610 6     -1769.367 6        40.672 6  22337284.910 4  91467555.147 4     -1378.568 4        27.426 4  22337287.617 4  91467457.899 4     -1378.627 4        29.187 4                                                                
G13  20653868.105 7 108536804.752 7     -1693.840 7        43.157 7  20653866.488 4  84574116.675 4     -1319.877 4        29.032 4                                                                                                                                
G15  20035896.020 7 105289275.010 7       346.863 7        43.923 7  20035895.477 5  82043577.383 5       270.689 5        33.751 5  20035894.590 3  82043660.177 3       270.670 3        20.660 3                                                                
G30  24849461.625 6 130584765.209 6     -1794.816 6        36.538 6  24849467.734 3 101754388.429 3     -1398.744 3        18.161 3  24849469.211 4 101754465.185 4     -1398.744 4        25.694 4  24849469.574 6  97514622.537 6     -1339.340 6        41.656 6
R11  23311274.328 7 124568496.593 7      2358.367 7        42.356 7                                                                
R24  19454413.340 6 104031750.909 6     -1601.320 6        37.346 6                                                                
C06  36220689.297 6 188610621.358 6       177.992 6        38.027 6  36220685.434 5 145845669.513 5       138.604 5        31.564 5  36220685.484 5 153261562.389 5       145.396 5        35.288 5
C08  36081102.340 6 187883754.658 6       123.168 6        38.968 6  36081101.055 6 145283627.967 6        95.264 6        39.346 6  36081096.574 5 152670929.955 5       100.416 5        32.656 5
C13  35753791.266 6 186179334.922 6       481.371 6        37.956 6  35753792.520 5 143965771.414 5       371.084 5        32.656 5                                                                
C16  36463773.496 5 189876432.774 5       367.582 5        35.666 5                                                                                                                                
C20  22852366.020 6 118998276.648 6     -1168.336 6        38.428 6                                                                  22852356.090 5  96695792.217 5      -948.920 5        34.082 5
C23                                                                                                                                                                                                
C32  26416842.387 6 137559427.323 6     -2175.270 6        38.364 6                                                                  26416844.078 6 111778291.541 6     -1768.119 6        36.538 6
C35  23868601.379 5 124289991.248 5      1336.410 5        35.154 5                                                                                                                                
C37  25294376.875 7 131714464.059 7      1152.484 7        46.879 7                                                                  25294381.188 7 107028826.475 7       936.334 7        46.325 7
J01  39545669.961 6 207813786.688 6      -221.027 6        41.978 6  39545668.531 7 161932918.915 7      -172.377 7        42.034 7  39545672.367 7 155185706.811 7      -165.357 7        44.860 7
E05  24104954.215 6 126672361.690 6     -1404.445 6        37.956 6  24104957.777 6  94593035.974 6     -1050.551 6        37.093 6  24104951.008 5  97060658.406 5     -1075.596 5        33.113 5  24104953.898 5 102818486.659 5     -1140.633 5        34.874 5
E09  26002184.465 6 136642449.801 6     -2409.250 6        40.189 6                                                                                                                                  26002188.941 5 110911042.788 5     -1955.145 5        31.864 5
> 2020 08 27 07 40 24.0000000  0 17       0.000000000000
G05  22337628.109 6 117384985.817 6     -1769.203 6        40.634 6  22337621.813 4  91468933.733 4     -1378.039 4        27.252 4  22337623.672 4  91468836.489 4     -1378.000 4        28.993 4                                                                
G13  20654190.426 7 108538498.426 7     -1693.305 7        43.199 7  20654188.766 4  84575436.415 4     -1319.426 4        29.263 4                                                                                                                                
G15  20035829.988 7 105288928.195 7       346.734 7        43.923 7  20035829.617 5  82043307.199 5       269.949 5        33.751 5  20035828.914 3  82043390.000 3       269.930 3        20.923 3                                                                
G30  24849802.977 6 130586559.451 6     -1794.887 6        36.731 6  24849809.188 2 101755786.536 2     -1398.430 2        17.649 2  24849811.063 4 101755863.284 4     -1398.410 4        25.694 4  24849810.867 6  97515962.433 6     -1340.037 6        41.438 6
R11  23310833.543 7 124566137.681 7      2359.088 7        42.533 7                                                                
R24  19454714.777 6 104033352.422 6     -1601.361 6        37.346 6                                                                
C06  36220655.066 6 188610442.698 6       178.645 6        38.428 6  36220651.023 5 145845531.457 5       136.783 5        31.564 5  36220651.254 5 153261417.222 5       145.750 5        35.544 5
C08  36081078.734 6 187883631.820 6       123.098 6        39.024 6  36081077.160 6 145283532.988 6        95.631 6        39.079 6  36081073.039 5 152670830.226 5        99.129 5        32.656 5
C13  35753698.871 6 186178852.762 6       482.570 6        38.027 6  35753699.941 5 143965398.552 5       373.814 5        32.656 5                                                                
C16  36463703.027 5 189876065.511 5       366.848 5        35.544 5                                                                                                                                
C20  22852590.609 6 118999444.955 6     -1167.725 6        38.364 6                                                                  22852580.664 5  96696741.593 5      -949.350 5        33.905 5
C32  26417260.184 6 137561602.120 6     -2174.268 6        38.165 6                                                                  26417261.625 6 111780058.765 6     -1767.123 6        36.438 6
C35  23868344.930 5 124288655.166 5      1336.281 5        35.544 5                                                                                                                                
C37  25294155.480 7 131713311.551 7      1152.941 7        46.842 7                                                                  25294159.980 7 107027889.968 7       936.727 7        46.167 7
J01  39545711.820 6 207814007.810 6      -220.434 6        41.806 6  39545710.461 6 161933091.169 6      -171.398 6        41.950 6  39545714.387 7 155185871.918 7      -164.959 7        44.543 7
E05  24105220.797 6 126673766.998 6     -1405.023 6        37.885 6  24105225.305 6  94594085.382 6     -1050.037 6        36.731 6  24105218.352 5  97061735.133 5     -1075.443 5        33.113 5  24105221.414 5 102819627.284 5     -1139.510 5        35.154 5
E09  26002642.578 6 136644859.178 6     -2409.203 6        39.971 6                                                                                                                                  26002647.441 5 110912998.450 5     -1955.252 5        31.564 5
> 2020 08 27 07 40 25.0000000  0 17       0.000000000000
G05  22337964.801 6 117386755.202 6     -1769.492 6        40.517 6  22337958.789 4  91470312.474 4     -1378.344 4        26.814 4  22337961.152 4  91470215.228 4     -1378.344 4        28.953 4                                                                
G13  20654513.094 7 108540192.698 7     -1694.141 7        43.003 7  20654511.020 4  84576756.646 4     -1320.180 4        29.410 4                                                                                                                                
G15  20035764.449 7 105288582.033 7       345.801 7        43.777 7  20035763.719 5  82043037.390 5       270.777 5        33.710 5  20035763.160 3  82043120.195 3       270.699 3        20.923 3                                                                
G30  24850143.961 6 130588354.262 6     -1795.254 6        36.438 6  24850150.629 2 101757185.071 2     -1398.988 2        17.649 2  24850153.836 4 101757261.826 4     -1399.027 4        25.694 4  24850152.395 6  97517302.710 6     -1340.322 6        41.533 6
R11  23310390.949 7 124563779.306 7      2358.098 7        42.304 7                                                                
R24  19455014.988 6 104034954.896 6     -1601.453 6        37.179 6                                                                
C06  36220620.758 6 188610264.260 6       178.902 6        38.232 6  36220617.145 5 145845393.411 5       138.492 5        32.144 5  36220616.930 5 153261272.206 5       145.719 5        35.288 5
C08  36081055.730 6 187883509.176 6       123.121 6        38.911 6  36081053.691 6 145283438.188 6        94.313 6        39.346 6  36081049.527 5 152670730.548 5        99.762 5        32.407 5
C13  35753606.355 6 186178370.812 6       482.047 6        37.956 6  35753607.430 5 143965025.893 5       372.320 5        32.407 5                                                                
C16  36463632.516 5 189875698.513 5       366.402 5        35.785 5                                                                                                                                
C20  22852815.188 6 119000613.494 6     -1168.715 6        38.736 6                                                                  22852805.078 5  96697691.064 5      -948.189 5        33.905 5
C32  26417677.797 6 137563777.010 6     -2175.375 6        38.298 6                                                                  26417679.184 6 111781825.981 6     -1767.369 6        36.438 6
C35  23868088.539 5 124287319.708 5      1334.938 5        35.288 5                                                                                                                                
C37  25293934.363 7 131712159.521 7      1152.086 7        46.796 7                                                                  25293938.500 7 107026953.855 7       935.875 7        46.069 7
J01  39545753.813 6 207814228.923 6      -220.957 6        41.835 6  39545752.383 6 161933263.476 6      -172.367 6        41.835 6  39545756.441 7 155186037.027 7      -165.225 7        44.667 7
E05  24105488.375 6 126675172.533 6     -1404.551 6        38.165 6  24105492.746 6  94595134.979 6     -1049.951 6        36.824 6  24105485.777 5  97062812.200 5     -1077.584 5        33.325 5  24105488.879 5 102820768.188 5     -1140.889 5        35.017 5
E09  26003101.039 6 136647268.576 6     -2409.785 6        40.015 6                                                                                                                                  26003105.805 5 110914954.031 5     -1953.350 5        31.864 5
> 2020 08 27 07 40 26.0000000  0 17       0.000000000000
G05  22338301.652 6 117388524.766 6     -1769.770 6        40.595 6  22338295.629 4  91471691.360 4     -1378.895 4        26.747 4  22338297.074 4  91471594.111 4     -1378.914 4        29.149 4                                                                
G13  20654835.352 7 108541887.524 7     -1695.297 7        43.135 7  20654833.316 4  84578077.285 4     -1321.023 4        29.410 4                                                                                                                                
G15  20035698.926 7 105288236.464 7       345.406 7        43.959 7  20035698.082 5  82042768.162 5       268.566 5        33.697 5  20035696.996 3  82042850.965 3       268.527 3        21.171 3                                                                
G30  24850485.391 6 130590149.558 6     -1795.004 6        36.538 6  24850492.273 2 101758584.024 2     -1398.973 2        17.069 2  24850495.121 4 101758660.785 4     -1398.992 4        25.339 4  24850494.242 6  97518643.362 6     -1341.072 6        41.656 6
R11  23309951.094 7 124561421.384 7      2357.730 7        42.533 7                                                                
R24  19455313.781 6 104036558.253 6     -1603.520 6        37.427 6                                                                
C06  36220586.570 6 188610085.979 6       178.000 6        38.232 6  36220582.422 5 145845255.590 5       137.320 5        32.407 5  36220582.781 5 153261127.367 5       144.230 5        35.154 5
C08  36081032.203 6 187883386.715 6       122.531 6        39.024 6  36081030.523 6 145283343.481 6        94.410 6        39.024 6  36081026.023 5 152670631.010 5        99.777 5        33.113 5
C13  35753513.324 6 186177888.926 6       481.418 6        38.298 6  35753514.684 5 143964653.297 5       371.676 5        32.891 5                                                                
C16  36463562.234 5 189875331.620 5       367.141 5        35.544 5                                                                                                                                
C20  22853039.711 6 119001782.105 6     -1168.426 6        39.024 6                                                                  22853029.473 5  96698640.679 5      -949.813 5        34.417 5
C32  26418095.387 6 137565951.804 6     -2174.773 6        38.096 6                                                                  26418096.934 6 111783593.228 6     -1768.092 6        36.538 6
C35  23867832.527 5 124285984.830 5      1335.109 5        35.288 5                                                                                                                                
C37  25293713.266 7 131711007.919 7      1151.223 7        47.005 7                                                                  25293717.301 7 107026018.077 7       935.441 7        46.134 7
J01  39545795.539 6 207814449.975 6      -220.941 6        41.921 6  39545794.180 6 161933435.738 6      -172.371 6        41.978 6  39545798.551 7 155186202.116 7      -165.486 7        44.874 7
E05  24105756.473 6 126676578.316 6     -1406.117 6        38.298 6  24105760.180 6  94596184.695 6     -1049.803 6        37.179 6  24105753.211 5  97063889.326 5     -1077.426 5        33.113 5  24105756.531 5 102821909.218 5     -1141.037 5        35.154 5
E09  26003558.520 6 136649677.944 6     -2409.809 6        39.834 6                                                                                                                                  26003564.199 5 110916909.821 5     -1957.189 5        31.864 5
> 2020 08 27 07 40 27.0000000  0 17       0.000000000000
G05  22338638.211 6 117390294.339 6     -1769.553 6        40.397 6  22338632.500 4  91473070.269 4     -1379.182 4        26.747 4  22338634.492 4  91472973.011 4     -1379.182 4        29.072 4                                                                
G13  20655157.742 7 108543582.752 7     -1695.666 7        42.936 7  20655155.984 4  84579398.240 4     -1321.271 4        29.482 4                                                                                                                                
G15  20035633.254 7 105287891.384 7       344.725 7        43.850 7  20035632.453 5  82042499.232 5       268.826 5        33.601 5  20035631.750 3  82042582.046 3       268.826 3        21.171 3                                                                
G30  24850827.102 6 130591945.332 6     -1797.014 6        36.538 6  24850834.043 3 101759983.288 3     -1399.143 3        18.161 3  24850835.973 4 101760060.050 4     -1399.182 4        25.608 4  24850836.023 6  97519984.329 6     -1341.230 6        41.687 6
R11  23309509.094 7 124559063.759 7      2356.939 7        42.558 7                                                                
R24  19455615.723 6 104038162.386 6     -1604.760 6        37.427 6                                                                
C06  36220552.309 6 188609907.750 6       178.570 6        38.096 6  36220548.766 5 145845117.748 5       138.984 5        31.564 5  36220548.633 5 153260982.534 5       145.188 5        35.666 5
C08  36081008.672 6 187883264.345 6       121.480 6        38.968 6  36081007.348 6 145283248.822 6        94.902 6        39.397 6  36081002.520 5 152670531.531 5       100.383 5        32.891 5
C13  35753420.750 6 186177407.121 6       481.070 6        38.027 6  35753422.219 5 143964280.686 5       372.383 5        32.656 5                                                                
C16  36463491.879 5 189874964.847 5       365.152 5        35.418 5                                                                                                                                
C20  22853264.336 6 119002950.758 6     -1168.852 6        39.079 6                                                                  22853254.164 5  96699590.320 5      -950.848 5        34.253 5
C32  26418513.332 6 137568126.490 6     -2174.615 6        38.428 6                                                                  26418514.582 6 111785360.357 6     -1767.449 6        36.335 6
C35  23867576.684 5 124284650.322 5      1333.902 5        35.017 5                                                                                                                                
C37  25293492.445 7 131709856.600 7      1150.992 7        47.014 7                                                                  25293496.234 7 107025082.554 7       935.090 7        46.102 7
J01  39545837.758 7 207814670.877 7      -221.135 7        42.034 7  39545836.254 6 161933607.862 6      -172.365 6        41.893 6  39545840.672 7 155186367.061 7      -165.039 7        44.932 7
E05  24106023.773 6 126677984.164 6     -1406.389 6        38.232 6  24106027.719 6  94597234.513 6     -1049.395 6        37.005 6  24106020.648 5  97064966.549 5     -1077.832 5        33.720 5  24106024.148 5 102823050.304 5     -1140.699 5        35.418 5
E09  26004017.492 6 136652087.156 6     -2408.908 6        39.788 6                                                                                                                                  26004022.801 5 110918865.329 5     -1955.074 5        31.864 5
> 2020 08 27 07 40 28.0000000  0 17       0.000000000000
G05  22338975.082 6 117392064.065 6     -1769.348 6        40.146 6  22338969.445 4  91474449.288 4     -1379.018 4        26.612 4  22338971.074 4  91474352.032 4     -1378.998 4        29.111 4                                                                
G13  20655480.734 7 108545278.533 7     -1695.598 7        42.704 7  20655478.660 4  84580719.630 4     -1321.303 4        29.111 4                                                                                                                                
G15  20035567.320 7 105287546.917 7       344.070 7        44.030 7  20035566.879 5  82042230.835 5       267.350 5        33.574 5  20035566.250 3  82042313.641 3       267.389 3        21.171 3                                                                
G30  24851169.410 6 130593741.586 6     -1797.199 6        36.824 6  24851175.980 3 101761383.016 3     -1400.619 3        18.161 3  24851177.352 4 101761459.777 4     -1400.580 4        25.608 4  24851177.891 6  97521325.716 6     -1341.850 6        41.533 6
R11  23309068.254 7 124556706.549 7      2356.713 7        42.680 7                                                                
R24  19455914.680 6 104039767.486 6     -1606.568 6        37.585 6                                                                
C06  36220517.855 6 188609729.759 6       177.094 6        38.027 6  36220514.281 5 145844980.141 5       136.412 5        31.864 5  36220514.465 5 153260837.869 5       144.668 5        35.154 5
C08  36080985.133 6 187883142.121 6       121.313 6        38.911 6  36080983.629 6 145283154.334 6        93.854 6        39.448 6  36080978.906 5 152670432.251 5        99.414 5        32.891 5
C13  35753327.953 6 186176925.400 6       481.156 6        38.096 6  35753329.816 5 143963908.175 5       374.246 5        32.656 5                                                                
C16  36463421.508 5 189874598.231 5       366.352 5        35.544 5                                                                                                                                
C20  22853488.883 6 119004119.567 6     -1169.293 6        39.397 6                                                                  22853478.723 5  96700540.098 5      -951.719 5        34.417 5
C32  26418931.012 6 137570301.187 6     -2174.977 6        38.364 6                                                                  26418932.078 6 111787127.446 6     -1767.209 6        36.538 6
C35  23867320.727 5 124283316.375 5      1333.932 5        34.874 5                                                                                                                                
C37  25293271.402 7 131708705.724 7      1150.395 7        47.127 7                                                                  25293275.141 7 107024147.364 7       935.020 7        46.102 7
J01  39545880.074 6 207814891.750 6      -221.184 6        41.950 6  39545878.215 6 161933779.979 6      -172.494 6        41.776 6  39545882.750 7 155186532.004 7      -165.326 7        44.801 7
E05  24106291.246 6 126679390.223 6     -1406.223 6        38.165 6  24106295.313 6  94598284.520 6     -1050.639 6        36.731 6  24106288.137 5  97066043.887 5     -1076.693 5        33.905 5  24106291.793 5 102824191.610 5     -1141.844 5        35.544 5
E09  26004476.066 6 136654496.424 6     -2409.838 6        39.597 6                                                                                                                                  26004481.086 5 110920820.858 5     -1955.828 5        31.864 5
> 2020 08 27 07 40 29.0000000  0 17       0.000000000000
G05  22339311.648 6 117393833.969 6     -1770.002 6        39.741 6  22339306.371 4  91475828.387 4     -1378.643 4        26.612 4  22339308.070 4  91475731.136 4     -1378.662 4        29.111 4                                                                
G13  20655803.566 7 108546974.853 7     -1696.760 7        42.821 7  20655801.375 4  84582041.444 4     -1322.158 4        29.072 4                                                                                                                                
G15  20035501.516 7 105287203.012 7       343.590 7        44.030 7  20035501.430 5  82041962.892 5       267.373 5        33.629 5  20035501.371 3  82042045.681 3       267.373 3        21.629 3                                                                
G30  24851511.703 6 130595538.313 6     -1796.428 6        36.231 6  24851517.840 2 101762783.051 2     -1400.146 2        17.069 2  24851519.215 4 101762859.810 4     -1400.186 4        25.150 4  24851519.910 6  97522667.434 6     -1342.049 6        41.595 6
R11  23308626.969 7 124554349.749 7      2356.305 7        42.558 7                                                                
R24  19456215.191 6 104041373.413 6     -1606.859 6        37.005 6                                                                
C06  36220483.527 6 188609551.831 6       177.846 6        38.096 6  36220480.383 5 145844842.512 5       138.355 5        31.864 5  36220480.445 5 153260693.306 5       144.717 5        35.017 5
C08  36080961.930 6 187883020.022 6       121.791 6        38.911 6  36080960.211 6 145283059.907 6        94.684 6        39.448 6  36080955.281 5 152670333.033 5        98.428 5        33.113 5
C13  35753235.566 6 186176443.767 6       482.260 6        37.737 6  35753237.355 5 143963535.795 5       371.754 5        32.144 5                                                                
C16  36463351.086 5 189874231.841 5       363.803 5        35.418 5                                                                                                                                
C20  22853713.656 6 119005288.434 6     -1168.697 6        39.548 6                                                                  22853703.242 5  96701489.807 5      -948.604 5        34.417 5
C32  26419348.965 6 137572475.834 6     -2174.479 6        38.165 6                                                                  26419349.734 6 111788894.525 6     -1767.510 6        36.635 6
C35  23867065.180 5 124281982.983 5      1332.553 5        34.417 5                                                                                                                                
C37  25293050.340 7 131707555.239 7      1150.053 7        47.187 7                                                                  25293054.172 7 107023212.512 7       934.209 7        46.002 7
J01  39545921.871 7 207815112.554 7      -220.844 7        42.006 7  39545920.656 6 161933952.018 6      -172.412 6        41.921 6  39545924.828 7 155186696.869 7      -164.686 7        44.845 7
E05  24106559.344 6 126680796.435 6     -1406.820 6        38.364 6  24106562.973 6  94599334.589 6     -1050.057 6        37.005 6  24106555.773 5  97067121.377 5     -1076.762 5        33.720 5  24106559.547 5 102825333.060 5     -1142.779 5        35.418 5
E09  26004934.188 6 136656905.583 6     -2409.650 6        39.397 6                                                                                                                                  26004939.469 5 110922776.351 5     -1954.557 5        32.144 5
> 2020 08 27 07 40 30.0000000  0 17       0.000000000000
G05  22339648.910 6 117395603.980 6     -1769.240 6        39.741 6  22339643.090 4  91477207.677 4     -1379.400 4        26.400 4  22339644.762 4  91477110.417 4     -1379.381 4        29.187 4                                                                
G13  20656126.949 7 108548671.692 7     -1696.213 7        42.821 7  20656124.242 4  84583363.634 4     -1321.646 4        28.912 4                                                                                                                                
G15  20035436.402 7 105286859.740 7       343.455 7        43.923 7  20035436.172 5  82041695.412 5       266.420 5        33.629 5  20035435.973 3  82041778.197 3       266.420 3        21.629 3                                                                
G30  24851854.117 5 130597335.617 5     -1797.346 5        35.901 5  24851859.984 2 101764183.571 2     -1401.021 2        17.649 2  24851861.129 4 101764260.323 4     -1401.041 4        25.246 4  24851861.965 6  97524009.574 6     -1342.271 6        41.502 6
R11  23308185.387 7 124551993.392 7      2356.646 7        42.704 7                                                                
R24  19456514.691 6 104042980.261 6     -1606.225 6        36.915 6                                                                
C06  36220449.613 6 188609374.158 6       178.238 6        38.096 6  36220446.070 5 145844705.140 5       138.180 5        31.864 5  36220446.406 5 153260548.900 5       144.813 5        35.288 5
C08  36080938.742 6 187882898.131 6       121.734 6        38.911 6  36080936.992 6 145282965.674 6        94.098 6        39.346 6  36080931.797 5 152670234.011 5        98.367 5        33.113 5
C13  35753143.055 6 186175962.312 6       482.652 6        37.956 6  35753144.629 5 143963163.506 5       371.695 5        32.407 5                                                                
C16  36463280.824 5 189873865.530 5       367.047 5        35.288 5                                                                                                                                
C20  22853938.559 6 119006457.476 6     -1168.756 6        39.788 6                                                                  22853927.918 5  96702439.753 5      -948.586 5        34.417 5
C32  26419766.320 6 137574650.449 6     -2172.896 6        38.554 6                                                                  26419767.301 6 111790661.602 6     -1766.320 6        36.538 6
C35  23866809.469 5 124280650.093 5      1334.000 5        34.417 5                                                                                                                                
C37  25292829.648 7 131706405.194 7      1150.426 7        47.288 7                                                                  25292833.340 7 107022278.000 7       934.930 7        46.069 7
J01  39545963.793 7 207815333.318 7      -220.119 7        42.090 7  39545963.148 6 161934124.029 6      -170.963 6        41.864 6  39545966.742 7 155186861.736 7      -164.283 7        44.932 7
E05  24106827.137 6 126682202.902 6     -1406.096 6        38.491 6  24106830.707 6  94600384.919 6     -1050.846 6        36.824 6  24106823.438 5  97068199.061 5     -1077.154 5        34.082 5  24106827.395 5 102826474.625 5     -1141.541 5        35.544 5
E09  26005393.008 6 136659314.733 6     -2408.303 6        39.498 6                                                                                                                                  26005397.930 5 110924731.834 5     -1953.125 5        32.144 5
> 2020 08 27 07 40 31.0000000  0 17       0.000000000000
G05  22339985.602 6 117397374.100 6     -1770.314 6        39.448 6  22339979.805 4  91478586.959 4     -1379.693 4        26.400 4  22339982.098 4  91478489.704 4     -1379.752 4        29.553 4                                                                
G13  20656449.473 7 108550368.992 7     -1697.209 7        42.751 7  20656447.066 4  84584686.199 4     -1322.447 4        28.350 4                                                                                                                                
G15  20035371.004 7 105286516.970 7       342.086 7        43.959 7  20035370.977 5  82041428.275 5       266.654 5        33.670 5  20035371.074 3  82041511.055 3       266.654 3        21.406 3                                                                
G30  24852196.242 6 130599133.313 6     -1797.697 6        36.335 6  24852201.953 2 101765584.346 2     -1401.002 2        17.069 2  24852202.898 4 101765661.105 4     -1401.021 4        25.339 4  24852204.098 6  97525352.029 6     -1342.967 6        41.656 6
R11  23307745.656 7 124549637.392 7      2355.584 7        42.680 7                                                                
R24  19456816.043 6 104044587.937 6     -1608.283 6        36.438 6                                                                
C06  36220415.621 6 188609196.511 6       177.182 6        38.096 6  36220412.258 5 145844567.736 5       138.514 5        32.144 5  36220412.258 5 153260404.571 5       144.779 5        35.288 5
C08  36080915.379 6 187882776.274 6       122.162 6        39.024 6  36080913.770 6 145282871.450 6        94.432 6        39.294 6  36080908.426 5 152670134.975 5        99.330 5        32.656 5
C13  35753050.430 6 186175480.901 6       480.912 6        38.165 6  35753052.363 5 143962791.233 5       372.127 5        32.656 5                                                                
C16  36463210.668 5 189873499.429 5       365.424 5        34.727 5                                                                                                                                
C20  22854163.422 6 119007626.565 6     -1169.830 6        40.146 6                                                                  22854152.684 5  96703389.801 5      -951.666 5        34.417 5
C32  26420183.715 6 137576825.006 6     -2174.322 6        38.554 6                                                                  26420184.895 6 111792428.549 6     -1766.178 6        36.731 6
C35  23866553.863 5 124279317.733 5      1331.479 5        34.253 5                                                                                                                                
C37  25292608.676 7 131705255.477 7      1149.369 7        47.403 7                                                                  25292612.551 7 107021343.760 7       934.135 7        46.188 7
J01  39546006.000 7 207815553.974 7      -221.428 7        42.062 7  39546004.711 7 161934295.983 7      -171.920 7        42.062 7  39546008.781 7 155187026.499 7      -164.705 7        45.127 7
E05  24107094.711 6 126683609.490 6     -1407.072 6        38.364 6  24107098.289 6  94601435.224 6     -1049.646 6        36.824 6  24107091.121 5  97069276.834 5     -1077.639 5        33.905 5  24107095.113 5 102827616.287 5     -1141.328 5        35.785 5
E09  26005851.398 6 136661723.827 6     -2409.670 6        39.448 6                                                                                                                                  26005856.406 5 110926687.273 5     -1954.863 5        31.564 5
> 2020 08 27 07 40 32.0000000  0 17       0.000000000000
G05  22340321.930 6 117399144.398 6     -1769.623 6        38.968 6  22340316.836 4  91479966.397 4     -1379.990 4        26.177 4  22340319.070 4  91479869.149 4     -1379.971 4        29.517 4                                                                
G13  20656772.777 7 108552066.884 7     -1697.846 7        42.751 7  20656770.090 4  84586009.242 4     -1322.979 4        28.441 4                                                                                                                                
G15  20035305.961 7 105286174.812 7       342.135 7        44.082 7  20035305.961 5  82041161.641 5       266.648 5        33.737 5  20035304.672 3  82041244.411 3       266.648 3        21.171 3                                                                
G30  24852538.012 6 130600931.614 6     -1797.924 6        36.231 6  24852544.105 2 101766985.633 2     -1401.455 2        17.069 2  24852544.809 4 101767062.396 4     -1401.533 4        25.246 4  24852546.395 6  97526694.878 6     -1342.943 6        41.470 6
R11  23307305.422 7 124547281.883 7      2355.512 7        42.845 7                                                                
R24  19457116.172 6 104046196.499 6     -1609.000 6        36.635 6                                                                
C06  36220381.523 6 188609019.073 6       177.309 6        37.885 6  36220378.301 5 145844430.582 5       135.777 5        31.864 5  36220378.188 5 153260260.417 5       143.617 5        35.418 5
C08  36080891.762 6 187882654.658 6       121.762 6        38.676 6  36080890.223 6 145282777.422 6        93.609 6        39.346 6  36080885.078 5 152670036.187 5        99.086 5        32.891 5
C13  35752957.984 6 186174999.619 6       481.527 6        37.956 6  35752959.773 5 143962419.022 5       374.781 5        32.891 5                                                                
C16  36463140.438 5 189873133.494 5       364.398 5        34.727 5                                                                                                                                
C20  22854388.066 6 119008795.771 6     -1168.881 6        40.273 6                                                                  22854377.234 5  96704339.887 5      -950.816 5        34.417 5
C32  26420601.430 6 137578999.585 6     -2175.268 6        38.736 6                                                                  26420602.523 6 111794195.597 6     -1766.949 6        36.635 6
C35  23866298.223 5 124277985.909 5      1332.816 5        34.417 5                                                                                                                                
C37  25292388.199 7 131704106.219 7      1149.203 7        47.600 7                                                                  25292391.910 7 107020409.904 7       933.813 7        46.014 7
J01  39546048.063 6 207815774.595 6      -220.346 6        41.893 6  39546046.559 7 161934467.894 7      -171.398 7        42.090 7  39546050.828 7 155187191.261 7      -164.723 7        44.960 7
E05  24107361.285 6 126685016.281 6     -1407.221 6        38.616 6  24107366.180 6  94602485.784 6     -1050.854 6        36.915 6  24107358.766 5  97070354.804 5     -1078.637 5        33.905 5  24107362.844 5 102828758.199 5     -1142.023 5        35.544 5
E09  26006309.496 6 136664132.899 6     -2408.666 6        39.397 6                                                                                                                                  26006314.750 5 110928642.624 5     -1954.055 5        31.564 5
> 2020 08 27 07 40 33.0000000  0 17       0.000000000000
G05  22340659.172 6 117400915.215 6     -1770.918 6        38.911 6  22340653.961 4  91481346.258 4     -1379.930 4        25.942 4  22340656.164 4  91481249.003 4     -1379.949 4        29.517 4                                                                
G13  20657095.996 7 108553765.668 7     -1698.477 7        42.656 7  20657093.234 4  84587332.973 4     -1323.523 4        28.486 4                                                                                                                                
G15  20035241.109 7 105285833.642 7       341.094 7        43.887 7  20035240.867 5  82040895.791 5       266.379 5        33.907 5  20035240.109 3  82040978.562 3       266.398 3        21.171 3                                                                
G30  24852880.258 6 130602730.765 6     -1799.395 6        36.538 6  24852886.426 3 101768387.567 3     -1402.781 3        18.618 3  24852886.984 4 101768464.324 4     -1402.781 4        25.150 4  24852888.828 6  97528038.416 6     -1344.232 6        41.438 6
R11  23306865.387 7 124544927.167 7      2354.277 7        42.728 7                                                                
R24  19457418.367 6 104047806.362 6     -1611.270 6        36.731 6                                                                
C06  36220347.367 6 188608842.188 6       175.801 6        38.298 6  36220344.359 5 145844293.759 5       137.070 5        32.407 5  36220344.133 5 153260116.631 5       144.566 5        35.288 5
C08  36080868.656 6 187882533.575 6       121.680 6        38.616 6  36080866.906 6 145282683.789 6        93.340 6        39.294 6  36080861.688 5 152669937.777 5        97.867 5        32.891 5
C13  35752865.734 6 186174518.856 6       480.021 6        37.956 6  35752867.379 5 143962047.311 5       372.168 5        32.407 5                                                                
C16  36463070.328 5 189872768.047 5       366.348 5        34.874 5                                                                                                                                
C20  22854613.086 6 119009965.520 6     -1170.020 6        40.397 6                                                                  22854602.031 5  96705290.352 5      -949.420 5        34.575 5
C32  26421019.480 6 137581174.469 6     -2175.469 6        38.491 6                                                                  26421020.215 6 111795962.873 6     -1767.799 6        36.438 6
C35  23866043.063 5 124276655.073 5      1329.729 5        34.082 5                                                                                                                                
C37  25292167.699 7 131702957.748 7      1148.283 7        47.700 7                                                                  25292171.398 7 107019476.669 7       933.258 7        46.080 7
J01  39546090.031 6 207815995.570 6      -221.348 6        41.950 6  39546088.527 7 161934640.078 7      -172.000 7        42.006 7  39546092.855 7 155187356.275 7      -165.246 7        44.932 7
E05  24107629.770 6 126686423.638 6     -1407.188 6        38.616 6  24107633.996 6  94603536.758 6     -1050.814 6        36.915 6  24107626.605 5  97071433.151 5     -1077.482 5        33.905 5  24107630.785 5 102829900.592 5     -1143.529 5        35.544 5
E09  26006768.867 6 136666542.335 6     -2409.473 6        39.241 6                                                                                                                                  26006773.199 5 110930598.394 5     -1955.521 5        31.564 5
> 2020 08 27 07 40 34.0000000  0 17       0.000000000000
G05  22340995.270 6 117402685.946 6     -1771.396 6        38.736 6  22340991.020 4  91482726.035 4     -1380.340 4        26.253 4  22340993.125 4  91482628.780 4     -1380.301 4        29.446 4                                                                
G13  20657419.504 7 108555464.738 7     -1699.561 7        42.356 7  20657416.527 4  84588656.935 4     -1324.285 4        28.531 4                                                                                                                                
G15  20035176.125 7 105285492.808 7       339.854 7        43.832 7  20035175.953 5  82040630.222 5       264.951 5        33.895 5  20035175.695 3  82040712.998 3       264.971 3        21.171 3                                                                
G30  24853222.941 6 130604530.163 6     -1800.146 6        36.824 6  24853228.895 2 101769789.712 2     -1403.133 2        17.649 2  24853229.879 4 101769866.471 4     -1403.133 4        25.246 4  24853231.102 6  97529382.119 6     -1344.104 6        41.406 6
R11  23306424.352 7 124542572.602 7      2354.299 7        42.775 7                                                                
R24  19457719.988 6 104049416.787 6     -1610.682 6        36.124 6                                                                
C06  36220313.324 6 188608665.189 6       176.359 6        38.232 6  36220310.211 5 145844156.934 5       136.098 5        32.407 5  36220310.133 5 153259972.854 5       143.279 5        35.288 5
C08  36080844.918 6 187882412.395 6       120.676 6        38.676 6  36080843.918 6 145282590.066 6        93.559 6        39.241 6  36080838.363 5 152669839.278 5        99.002 5        32.891 5
C13  35752773.348 6 186174037.905 6       480.188 6        37.812 6  35752774.672 5 143961675.417 5       371.703 5        32.144 5                                                                
C16  36463000.156 5 189872402.575 5       366.301 5        35.017 5                                                                                                                                
C20  22854837.824 6 119011135.129 6     -1169.988 6        40.785 6                                                                  22854826.715 5  96706240.831 5      -951.408 5        34.417 5
C32  26421437.141 6 137583349.086 6     -2174.988 6        38.232 6                                                                  26421437.906 6 111797729.964 6     -1768.713 6        36.014 6
C35  23865787.871 5 124275324.470 5      1328.645 5        33.905 5                                                                                                                                
C37  25291946.887 7 131701809.421 7      1148.039 7        47.715 7                                                                  25291950.930 7 107018543.576 7       932.732 7        45.901 7
J01  39546131.863 6 207816216.200 6      -220.674 6        41.776 6  39546130.504 6 161934812.029 6      -172.664 6        41.747 6  39546134.859 7 155187521.044 7      -165.373 7        44.772 7
E05  24107898.328 6 126687830.950 6     -1407.002 6        38.616 6  24107901.762 6  94604587.672 6     -1051.291 6        36.731 6  24107894.223 5  97072511.539 5     -1079.508 5        33.527 5  24107898.473 5 102831042.862 5     -1142.480 5        35.154 5
E09  26007226.879 6 136668951.443 6     -2408.975 6        39.134 6                                                                                                                                  26007231.586 5 110932553.845 5     -1956.582 5        31.864 5
> 2020 08 27 07 40 35.0000000  0 17       0.000000000000
G05  22341332.027 6 117404456.619 6     -1771.027 6        38.616 6  22341327.965 4  91484105.764 4     -1379.377 4        26.100 4  22341330.023 4  91484008.505 4     -1379.377 4        29.482 4                                                                
G13  20657742.664 7 108557164.135 7     -1699.289 7        42.225 7  20657739.688 4  84589981.133 4     -1324.064 4        28.350 4                                                                                                                                
G15  20035111.793 7 105285152.347 7       340.281 7        43.869 7  20035111.137 5  82040364.956 5       265.174 5        33.869 5  20035111.223 3  82040447.725 3       265.213 3        21.629 3                                                                
G30  24853565.992 6 130606329.877 6     -1799.777 6        37.005 6  24853571.359 2 101771192.024 2     -1401.896 2        17.649 2  24853572.289 4 101771268.793 4     -1401.896 4        24.851 4  24853573.461 6  97530726.070 6     -1344.051 6        41.276 6
R11  23305983.121 7 124540218.309 7      2354.363 7        42.751 7                                                                
R24  19458021.844 6 104051027.931 6     -1610.402 6        36.014 6                                                                
C06  36220279.648 6 188608488.154 6       178.172 6        38.616 6  36220276.289 5 145844020.034 5       136.803 5        32.144 5  36220276.016 5 153259829.001 5       143.596 5        35.288 5
C08  36080821.762 6 187882291.165 6       121.297 6        38.854 6  36080820.402 6 145282496.338 6        93.951 6        39.134 6  36080815.109 5 152669740.757 5        99.689 5        32.656 5
C13  35752680.863 6 186173556.870 6       481.629 6        37.885 6  35752682.758 5 143961303.469 5       372.760 5        31.864 5                                                                
C16  36462929.922 5 189872037.144 5       364.617 5        34.417 5                                                                                                                                
C20  22855062.828 6 119012304.681 6     -1169.895 6        40.785 6                                                                  22855051.336 5  96707191.089 5      -949.588 5        34.575 5
C32  26421854.852 6 137585523.505 6     -2174.484 6        38.364 6                                                                  26421855.418 6 111799496.816 6     -1767.305 6        36.124 6
C35  23865532.621 5 124273994.159 5      1329.756 5        33.720 5                                                                                                                                
C37  25291726.730 7 131700661.331 7      1148.330 7        47.546 7                                                                  25291730.457 7 107017610.651 7       933.225 7        45.820 7
J01  39546173.563 6 207816436.612 6      -220.031 6        41.656 6  39546172.203 6 161934983.762 6      -171.369 6        41.717 6  39546176.746 7 155187685.634 7      -164.459 7        44.682 7
E05  24108166.258 6 126689238.257 6     -1406.848 6        38.616 6  24108169.570 6  94605638.542 6     -1049.656 6        36.438 6  24108161.930 5  97073589.822 5     -1077.650 5        33.720 5  24108166.402 5 102832185.176 5     -1142.566 5        35.288 5
E09  26007686.121 6 136671360.380 6     -2408.645 6        39.134 6                                                                                                                                  26007690.113 5 110934509.126 5     -1955.262 5        31.564 5
> 2020 08 27 07 40 36.0000000  0 17       0.000000000000
G05  22341669.242 6 117406227.541 6     -1771.340 6        38.736 6  22341664.992 4  91485485.692 4     -1380.268 4        25.861 4  22341666.383 4  91485388.438 4     -1380.229 4        29.482 4                                                                
G13  20658065.859 7 108558864.163 7     -1700.598 7        42.251 7  20658063.270 4  84591305.823 4     -1325.092 4        27.913 4                                                                                                                                
G15  20035046.922 7 105284812.611 7       338.838 7        43.850 7  20035046.578 5  82040100.220 5       264.654 5        33.724 5  20035045.922 3  82040182.992 3       264.615 3        21.171 3                                                                
G30  24853908.645 6 130608130.214 6     -1800.813 6        37.093 6  24853913.855 2 101772594.903 2     -1402.924 2        15.608 2  24853914.586 4 101772671.680 4     -1402.943 4        24.746 4  24853915.945 6  97532070.490 6     -1345.334 6        41.342 6
R11  23305541.625 7 124537864.593 7      2353.018 7        42.607 7                                                                
R24  19458322.863 5 104052640.133 5     -1612.744 5        35.418 5                                                                
C06  36220245.648 6 188608311.424 6       176.318 6        38.736 6  36220242.395 5 145843883.403 5       135.813 5        31.564 5  36220242.023 5 153259685.405 5       143.156 5        35.418 5
C08  36080798.457 6 187882170.249 6       119.932 6        39.024 6  36080797.277 6 145282402.822 6        93.352 6        39.188 6  36080791.941 5 152669642.529 5        98.076 5        32.656 5
C13  35752588.516 6 186173076.057 6       481.787 6        37.956 6  35752590.484 5 143960931.715 5       370.949 5        32.144 5                                                                
C16  36462859.684 5 189871671.896 5       364.561 5        34.727 5                                                                                                                                
C20  22855287.430 6 119013474.440 6     -1170.049 6        40.931 6                                                                  22855276.066 5  96708141.650 5      -950.576 5        34.575 5
C32  26422272.199 6 137587698.003 6     -2175.049 6        37.737 6                                                                  26422273.008 6 111801263.760 6     -1766.514 6        36.014 6
C35  23865277.363 5 124272664.585 5      1328.975 5        34.082 5                                                                                                                                
C37  25291506.172 7 131699513.770 7      1147.139 7        47.639 7                                                                  25291510.023 7 107016678.171 7       932.063 7        45.773 7
J01  39546216.008 6 207816657.088 6      -220.518 6        41.864 6  39546214.578 6 161935155.569 6      -172.104 6        41.687 6  39546218.719 7 155187850.263 7      -164.609 7        44.845 7
E05  24108434.648 6 126690645.909 6     -1408.564 6        38.364 6  24108437.410 6  94606689.756 6     -1051.115 6        36.731 6  24108429.867 5  97074668.410 5     -1078.973 5        33.905 5  24108434.090 5 102833327.714 5     -1143.006 5        35.288 5
E09  26008143.680 6 136673769.388 6     -2409.582 6        39.294 6                                                                                                                                  26008148.301 5 110936464.509 5     -1956.463 5        31.242 5
> 2020 08 27 07 40 37.0000000  0 17       0.000000000000
G05  22342006.031 6 117407997.938 6     -1771.229 6        38.795 6  22342001.938 4  91486865.215 4     -1379.764 4        25.150 4  22342003.098 4  91486767.962 4     -1379.686 4        29.300 4                                                                
G13  20658389.625 7 108560564.025 7     -1699.979 7        42.382 7  20658386.723 4  84592630.385 4     -1324.686 4        27.809 4                                                                                                                                
G15  20034981.910 7 105284472.757 7       340.061 7        43.701 7  20034981.910 5  82039835.423 5       264.025 5        33.856 5  20034981.551 3  82039918.196 3       263.986 3        21.629 3                                                                
G30  24854251.016 6 130609930.377 6     -1799.432 6        37.093 6  24854256.512 2 101773997.647 2     -1403.201 2        17.069 2  24854257.527 4 101774074.429 4     -1403.201 4        25.053 4  24854258.465 6  97533414.771 6     -1344.734 6        41.002 6
R11  23305102.137 7 124535510.538 7      2353.988 7        42.607 7                                                                
R24  19458620.449 5 104054252.440 5     -1612.555 5        35.017 5                                                                
C06  36220211.797 6 188608134.167 6       176.697 6        38.676 6  36220208.504 5 145843746.292 5       137.643 5        31.864 5  36220208.023 5 153259541.315 5       144.865 5        35.154 5
C08  36080774.797 6 187882048.777 6       121.307 6        39.024 6  36080773.867 6 145282308.898 6        94.322 6        39.397 6  36080768.602 5 152669543.881 5        97.502 5        32.656 5
C13  35752495.887 6 186172594.731 6       480.955 6        38.027 6  35752497.855 5 143960559.497 5       372.096 5        32.144 5                                                                
C16  36462789.270 5 189871306.181 5       365.975 5        35.017 5                                                                                                                                
C20  22855512.391 6 119014643.652 6     -1169.531 6        40.931 6                                                                  22855500.707 5  96709091.765 5      -951.600 5        34.727 5
C32  26422689.691 6 137589871.810 6     -2174.531 6        37.346 6                                                                  26422690.438 5 111803030.122 5     -1765.643 5        35.544 5
C35  23865022.324 5 124271334.814 5      1328.846 5        34.417 5                                                                                                                                
C37  25291285.617 7 131698365.938 7      1147.732 7        47.631 7                                                                  25291289.648 7 107015745.457 7       932.795 7        45.678 7
J01  39546257.172 6 207816876.827 6      -219.451 6        41.835 6  39546256.238 6 161935326.789 6      -171.385 6        41.806 6  39546260.391 7 155188014.354 7      -163.740 7        44.816 7
E05  24108702.035 6 126692053.010 6     -1406.658 6        38.428 6  24108705.207 6  94607740.519 6     -1050.672 6        36.915 6  24108697.699 5  97075746.624 5     -1078.217 5        33.905 5  24108701.980 5 102834469.885 5     -1142.590 5        35.017 5
E09  26008601.809 6 136676177.707 6     -2408.982 6        39.597 6                                                                                                                                  26008606.633 5 110938419.335 5     -1955.305 5        31.564 5
> 2020 08 27 07 40 38.0000000  0 16       0.000000000000
G05  22342342.996 6 117409768.583 6     -1770.287 6        38.736 6  22342338.902 4  91488244.952 4     -1379.785 4        24.639 4  22342339.707 4  91488147.700 4     -1379.727 4        29.072 4                                                                
G13  20658713.141 7 108562264.573 7     -1700.775 7        42.278 7  20658710.250 4  84593955.480 4     -1325.215 4        27.426 4                                                                                                                                
G15  20034917.645 7 105284133.660 7       339.186 7        43.346 7  20034917.359 5  82039571.145 5       264.453 5        33.777 5  20034917.000 3  82039653.917 3       264.473 3        21.406 3                                                                
G30  24854594.133 6 130611731.265 6     -1801.654 6        37.585 6  24854599.129 2 101775400.897 2     -1403.066 2        17.069 2  24854600.570 4 101775477.670 4     -1403.047 4        24.529 4  24854601.188 6  97534759.519 6     -1344.063 6        40.967 6
R11  23304660.969 7 124533157.090 7      2353.256 7        42.558 7                                                                
R24  19458926.523 5 104055865.894 5     -1614.479 5        34.575 5                                                                
C06  36220177.867 6 188607957.206 6       176.742 6        38.616 6  36220174.395 5 145843609.481 5       136.408 5        31.564 5  36220173.910 5 153259397.544 5       144.057 5        35.154 5
C08  36080751.672 6 187881927.648 6       120.590 6        39.079 6  36080750.852 6 145282215.233 6        93.830 6        39.294 6  36080745.383 5 152669445.382 5        98.197 5        32.656 5
C13  35752403.719 6 186172113.684 6       480.551 6        37.812 6  35752405.258 5 143960187.479 5       372.268 5        32.407 5                                                                
C16  36462718.922 5 189870940.787 5       366.039 5        34.874 5                                                                                                                                
C20  22855736.922 6 119015813.125 6     -1169.273 6        40.634 6                                                                  22855725.461 5  96710042.044 5      -950.045 5        34.727 5
C32  26423107.039 6 137592045.704 6     -2173.844 6        37.427 6                                                                  26423107.781 5 111804796.636 5     -1766.686 5        35.666 5
C35  23864767.355 5 124270005.780 5      1327.797 5        34.082 5                                                                                                                                
C37  25291065.598 7 131697218.661 7      1147.289 7        47.585 7                                                                  25291069.238 7 107014813.224 7       931.930 7        45.678 7
E05  24108969.602 6 126693460.527 6     -1407.299 6        38.736 6  24108973.148 6  94608791.570 6     -1050.879 6        36.915 6  24108965.625 5  97076825.059 5     -1078.104 5        34.253 5  24108969.688 5 102835612.337 5     -1142.258 5        35.288 5
E09  26009059.617 6 136678586.094 6     -2408.354 6        39.294 6                                                                                                                                  26009064.926 5 110940374.107 5     -1953.195 5        31.242 5
> 2020 08 27 07 40 49.0000000  0 18       0.000000000000
G05  22346049.527 6 117429259.237 6     -1772.662 6        37.093 6  22346048.254 3  91503432.443 3     -1381.566 3        23.670 3  22346047.383 4  91503335.193 4     -1381.566 4        28.486 4                                                                
G13  20662280.156 6 108581009.129 6     -1706.842 6        41.747 6  20662276.910 4  84608561.613 4     -1330.004 4        26.253 4                                                                                                                                
G15  20034215.801 7 105280446.240 7       332.357 7        43.003 7  20034215.070 5  82036697.852 5       258.471 5        33.560 5  20034212.438 3  82036780.629 3       258.451 3        20.379 3                                                                
G30  24858370.492 6 130631577.701 6     -1806.939 6        39.024 6  24858375.273 3 101790865.659 3     -1407.621 3        18.161 3  24858374.570 3 101790942.419 3     -1407.621 3        22.932 3  24858377.656 6  97549579.955 6     -1349.502 6        40.672 6
R11  23299823.043 6 124507301.172 6      2348.039 6        41.806 6                                                                
R24  19462252.961 5 104073675.327 5     -1623.760 5        33.325 5                                                                
C06  36219807.027 6 188606024.915 6       175.080 6        38.491 6                                                                  36219802.844 5 153257827.397 5       142.012 5        35.288 5
C08  36080499.066 6 187880609.056 6       118.381 6        39.448 6  36080497.168 6 145281195.612 6        91.541 6        39.498 6  36080492.617 5 152668373.910 5        96.836 5        32.656 5
C13  35751390.113 6 186166833.098 6       479.318 6        38.232 6  35751389.363 5 143956104.219 5       369.842 5        30.517 5                                                                
C16  36461949.648 5 189866936.640 5       363.205 5        35.154 5                                                                                                                                
C20  22858209.609 6 119028689.108 6     -1171.539 6        40.748 6                                                                  22858198.762 5  96720504.803 5      -951.543 5        35.017 5
C29  22364865.793 5 116459726.569 5     -1607.672 5        32.407 5                                                                                                                                
C32  26427698.309 6 137615960.616 6     -2173.141 6        37.812 6                                                                  26427699.867 5 111824229.401 5     -1765.430 5        35.288 5
C35  23861968.746 5 124255425.201 5      1322.717 5        32.891 5                                                                                                                                
C37  25288648.582 8 131684629.493 8      1142.248 8        48.138 8                                                                  25288652.102 7 107004583.510 7       928.184 7        45.058 7
J01  39546760.141 6 207819515.210 6      -219.791 6        41.978 6  39546758.996 6 161937382.657 6      -171.449 6        41.864 6  39546762.547 7 155189984.565 7      -163.740 7        44.772 7
E05  24111918.102 6 126708959.320 6     -1409.400 6        38.968 6  24111922.781 6  94620365.403 6     -1053.271 6        37.093 6  24111915.543 5  97088700.817 5     -1080.275 5        35.418 5  24111919.305 5 102848192.550 5     -1144.418 5        35.544 5
E09  26014100.621 6 136705080.352 6     -2407.799 6        39.241 6                                                                                                                                  26014106.305 5 110961879.188 5     -1953.715 5        30.517 5
> 2020 08 27 07 40 50.0000000  0 18       0.000000000000
G05  22346386.609 6 117431032.064 6     -1772.746 6        37.005 6  22346385.754 3  91504813.832 3     -1381.158 3        23.670 3  22346384.965 4  91504716.586 4     -1381.139 4        28.303 4                                                                
G13  20662605.078 6 108582716.433 6     -1707.609 6        41.921 6  20662601.773 4  84609891.984 4     -1330.553 4        26.177 4                                                                                                                                
G15  20034152.512 7 105280114.617 7       331.336 7        43.113 7  20034152.039 5  82036439.463 5       258.000 5        33.518 5  20034149.934 3  82036522.234 3       257.980 3        20.923 3                                                                
G30  24858714.586 6 130633385.024 6     -1807.863 6        39.079 6  24858719.254 2 101792273.999 2     -1409.225 2        17.649 2  24858718.164 3 101792350.761 3     -1409.225 3        23.090 3  24858721.465 6  97550929.559 6     -1349.371 6        40.710 6
R11  23299381.273 6 124504953.309 6      2347.662 6        41.626 6                                                                
R24  19462557.570 5 104075299.731 5     -1624.467 5        33.720 5                                                                
C06  36219773.684 6 188605850.271 6       174.801 6        38.795 6                                                                  36219769.230 5 153257685.439 5       142.988 5        35.288 5
C08  36080476.559 6 187880490.202 6       118.297 6        39.693 6  36080474.520 6 145281103.725 6        91.420 6        39.188 6  36080469.910 5 152668277.328 5        97.676 5        32.407 5
C13  35751298.387 6 186166353.771 6       479.000 6        38.232 6  35751297.457 5 143955733.584 5       370.111 5        30.895 5                                                                
C16  36461880.063 5 189866573.759 5       362.066 5        35.154 5                                                                                                                                
C20  22858434.508 6 119029860.444 6     -1172.250 6        40.967 6                                                                  22858423.617 5  96721456.625 5      -951.914 5        34.727 5
C29  22365174.582 5 116461334.822 5     -1609.750 5        32.656 5                                                                                                                                
C32  26428116.164 6 137618134.652 6     -2174.887 6        38.027 6                                                                  26428117.184 5 111825995.978 5     -1766.250 5        35.418 5
C35  23861715.039 5 124254103.035 5      1321.852 5        33.113 5                                                                                                                                
C37  25288429.469 8 131683487.568 8      1141.676 8        48.305 8                                                                  25288432.816 7 107003655.582 7       927.949 7        45.141 7
J01  39546801.957 6 207819734.793 6      -219.191 6        41.978 6  39546801.027 6 161937553.785 6      -171.180 6        41.921 6  39546804.344 7 155190148.570 7      -164.078 7        44.831 7
E05  24112186.359 6 126710369.522 6     -1409.211 6        38.911 6  24112191.180 6  94621418.464 6     -1052.730 6        36.915 6  24112183.984 5  97089781.362 5     -1081.021 5        35.288 5  24112187.605 5 102849337.212 5     -1146.059 5        35.666 5
E09  26014559.906 6 136707488.819 6     -2408.684 6        39.188 6                                                                                                                                  26014564.688 5 110963834.107 5     -1954.262 5        30.103 5
> 2020 08 27 07 40 51.0000000  0 18       0.000000000000
G05  22346724.152 6 117432804.671 6     -1772.074 6        36.824 6  22346723.066 4  91506195.087 4     -1380.742 4        24.181 4  22346722.148 4  91506097.837 4     -1380.762 4        28.350 4                                                                
G13  20662930.457 7 108584423.917 7     -1708.070 7        42.144 7  20662926.691 4  84611222.492 4     -1330.977 4        25.246 4                                                                                                                                
G15  20034088.824 7 105279783.248 7       330.875 7        43.026 7  20034089.008 5  82036181.216 5       259.043 5        33.574 5  20034087.465 3  82036263.988 3       259.043 3        21.171 3                                                                
G30  24859059.285 6 130635192.517 6     -1807.094 6        38.911 6  24859063.305 2 101793682.389 2     -1407.578 2        17.649 2  24859062.074 3 101793759.150 3     -1407.539 3        22.932 3  24859065.535 6  97552279.346 6     -1350.127 6        40.672 6
R11  23298943.117 6 124502605.481 6      2347.645 6        41.626 6                                                                
R24  19462861.500 5 104076924.695 5     -1624.348 5        33.905 5                                                                
C06  36219739.863 6 188605675.424 6       175.588 6        38.854 6                                                                  36219735.773 5 153257543.401 5       142.959 5        35.154 5
C08  36080453.688 6 187880371.153 6       119.064 6        39.645 6  36080451.359 6 145281011.658 6        92.279 6        39.294 6  36080447.063 5 152668180.619 5        97.607 5        32.407 5
C13  35751206.113 6 186165874.278 6       479.338 6        38.027 6  35751204.969 5 143955362.829 5       368.568 5        31.242 5                                                                
C16  36461810.543 5 189866210.622 5       363.498 5        35.418 5                                                                                                                                
C20  22858659.434 6 119031031.555 6     -1171.600 6        41.002 6                                                                  22858648.547 5  96722408.228 5      -952.275 5        34.727 5
C29  22365483.609 5 116462943.174 5     -1608.475 5        32.407 5                                                                                                                                
C32  26428533.801 6 137620308.244 6     -2173.826 6        38.027 6                                                                  26428534.555 5 111827762.207 5     -1765.693 5        35.544 5
C35  23861461.469 5 124252781.046 5      1321.428 5        32.144 5                                                                                                                                
C37  25288210.379 8 131682345.707 8      1141.721 8        48.351 8                                                                  25288213.473 7 107002727.730 7       928.252 7        45.058 7
J01  39546843.367 7 207819954.037 7      -218.598 7        42.117 7  39546842.367 7 161937724.611 7      -170.684 7        42.278 7  39546846.121 7 155190312.278 7      -163.719 7        44.860 7
E05  24112454.785 6 126711779.593 6     -1410.180 6        38.736 6  24112459.496 6  94622471.446 6     -1053.174 6        36.824 6  24112452.406 5  97090861.790 5     -1080.318 5        35.418 5  24112456.090 5 102850481.682 5     -1144.203 5        35.544 5
E09  26015018.145 6 136709896.908 6     -2408.422 6        39.134 6                                                                                                                                                                                                
> 2020 08 27 07 40 52.0000000  0 18       0.000000000000
G05  22347061.277 6 117434577.112 6     -1773.271 6        37.263 6  22347060.305 4  91507576.175 4     -1381.033 4        24.059 4  22347059.777 4  91507478.916 4     -1381.033 4        28.209 4                                                                
G13  20663254.992 7 108586131.544 7     -1708.037 7        42.034 7  20663251.570 4  84612553.104 4     -1330.916 4        25.339 4                                                                                                                                
G15  20034025.863 7 105279452.099 7       330.457 7        43.003 7  20034026.051 5  82035923.190 5       258.127 5        33.574 5  20034024.074 3  82036005.966 3       258.146 3        21.171 3                                                                
G30  24859403.277 6 130637000.166 6     -1808.135 6        38.911 6  24859407.270 3 101795090.954 3     -1408.279 3        18.618 3  24859406.570 3 101795167.716 3     -1408.318 3        22.768 3  24859409.473 6  97553629.205 6     -1350.410 6        40.748 6
R11  23298504.684 6 124500257.666 6      2347.906 6        41.776 6                                                                
R24  19463167.301 5 104078550.219 5     -1626.646 5        33.905 5                                                                
C06  36219706.453 6 188605500.423 6       174.975 6        38.911 6                                                                  36219702.234 5 153257401.226 5       141.229 5        35.154 5
C08  36080430.793 6 187880251.929 6       119.311 6        39.498 6  36080428.719 6 145280919.477 6        91.912 6        39.346 6  36080424.039 5 152668083.721 5        97.303 5        32.407 5
C13  35751114.035 6 186165394.491 6       479.115 6        38.096 6  35751112.605 5 143954991.766 5       372.010 5        30.895 5                                                                
C16  36461740.754 5 189865847.391 5       362.885 5        35.288 5                                                                                                                                
C20  22858884.305 6 119032202.377 6     -1170.455 6        41.002 6                                                                  22858873.367 5  96723359.681 5      -951.660 5        34.727 5
C29  22365792.656 5 116464551.733 5     -1608.580 5        32.144 5                                                                                                                                
C32  26428951.063 6 137622481.451 6     -2172.936 6        38.165 6                                                                  26428951.941 5 111829528.137 5     -1765.723 5        35.288 5
C35  23861207.695 5 124251459.173 5      1321.225 5        32.656 5                                                                                                                                
C37  25287991.129 8 131681203.896 8      1141.615 8        48.325 8                                                                  25287994.172 7 107001799.936 7       927.088 7        44.932 7
J01  39546884.723 6 207820172.858 6      -219.131 6        41.950 6  39546883.508 6 161937895.113 6      -170.994 6        41.978 6  39546887.809 7 155190475.673 7      -163.320 7        44.801 7
E05  24112723.230 6 126713189.491 6     -1410.010 6        38.676 6  24112727.816 6  94623524.269 6     -1052.891 6        36.915 6  24112720.805 5  97091942.104 5     -1080.451 5        35.288 5  24112724.574 5 102851626.105 5     -1144.533 5        35.418 5
E09  26015476.613 6 136712304.558 6     -2407.295 6        39.241 6                                                                                                                                                                                                
> 2020 08 27 07 40 53.0000000  0 18       0.000000000000
G05  22347398.770 6 117436349.535 6     -1772.902 6        37.427 6  22347397.695 3  91508957.297 3     -1381.506 3        23.390 3  22347397.480 4  91508860.034 4     -1381.525 4        28.256 4                                                                
G13  20663580.031 7 108587839.607 7     -1708.410 7        42.304 7  20663576.598 4  84613884.051 4     -1331.154 4        25.053 4                                                                                                                                
G15  20033963.555 7 105279121.416 7       330.303 7        43.026 7  20033963.125 5  82035665.547 5       256.582 5        33.670 5  20033962.125 3  82035748.317 3       256.621 3        21.406 3                                                                
G30  24859747.926 6 130638808.186 6     -1807.883 6        38.736 6  24859751.359 3 101796499.820 3     -1409.201 3        18.161 3  24859750.570 3 101796576.587 3     -1409.182 3        22.768 3  24859753.563 6  97554979.350 6     -1349.863 6        40.748 6
R11  23298064.762 6 124497910.275 6      2346.998 6        41.626 6                                                                
R24  19463472.469 5 104080176.421 5     -1626.850 5        34.417 5                                                                
C06  36219672.836 6 188605325.429 6       175.031 6        38.795 6                                                                  36219668.707 5 153257259.024 5       142.439 5        35.154 5
C08  36080407.836 6 187880132.709 6       119.563 6        39.741 6  36080406.012 6 145280827.294 6        92.234 6        39.294 6  36080401.109 5 152667986.916 5        96.170 5        32.144 5
C13  35751021.930 6 186164914.684 6       479.680 6        38.428 6  35751020.715 5 143954620.729 5       372.000 5        31.242 5                                                                
C16  36461670.969 5 189865484.137 5       362.590 5        35.154 5                                                                                                                                
C20  22859109.184 6 119033373.260 6     -1170.086 6        40.858 6                                                                  22859098.230 5  96724311.084 5      -951.213 5        34.874 5
C29  22366101.383 5 116466160.675 5     -1607.996 5        31.564 5                                                                                                                                
C32  26429368.574 6 137624654.556 6     -2173.152 6        38.364 6                                                                  26429369.199 5 111831293.981 5     -1766.137 5        35.017 5
C35  23860953.609 5 124250137.728 5      1321.691 5        31.864 5                                                                                                                                
C37  25287771.672 8 131680062.394 8      1141.457 8        48.370 8                                                                  25287774.832 7 107000872.349 7       927.928 7        44.974 7
J01  39546926.586 6 207820391.503 6      -218.508 6        41.921 6  39546925.512 6 161938065.487 6      -170.430 6        41.864 6  39546929.375 7 155190638.933 7      -162.832 7        44.974 7
E05  24112991.105 6 126714599.448 6     -1410.070 6        39.079 6  24112996.113 6  94624577.161 6     -1052.500 6        37.093 6  24112989.188 5  97093022.440 5     -1079.504 5        35.544 5  24112992.781 5 102852770.540 5     -1144.213 5        35.418 5
E09  26015934.590 6 136714712.129 6     -2407.531 6        39.188 6                                                                                                                                                                                                
> 2020 08 27 07 40 54.0000000  0 18       0.000000000000
G05  22347735.371 6 117438121.689 6     -1772.410 6        37.346 6  22347735.016 3  91510338.212 3     -1381.348 3        23.242 3  22347735.016 4  91510240.944 4     -1381.348 4        28.256 4                                                                
G13  20663904.758 7 108589547.791 7     -1708.953 7        42.483 7  20663901.637 4  84615215.119 4     -1331.758 4        24.851 4                                                                                                                                
G15  20033900.645 7 105278790.924 7       329.816 7        42.680 7  20033900.188 5  82035408.000 5       256.348 5        33.697 5  20033899.570 3  82035490.763 3       256.367 3        20.923 3                                                                
G30  24860091.824 6 130640616.356 6     -1808.738 6        38.736 6  24860095.473 2 101797908.739 2     -1409.395 2        17.069 2  24860093.898 3 101797985.504 3     -1409.375 3        22.043 3  24860097.504 6  97556329.614 6     -1351.180 6        40.556 6
R11  23297626.516 6 124495562.864 6      2346.459 6        41.806 6                                                                
R24  19463776.883 5 104081803.146 5     -1628.424 5        34.253 5                                                                
C06  36219639.188 6 188605150.260 6       173.918 6        38.616 6                                                                  36219635.047 5 153257116.647 5       141.998 5        35.154 5
C08  36080384.813 6 187880013.294 6       118.508 6        39.741 6  36080382.918 6 145280734.931 6        92.232 6        38.968 6  36080377.949 5 152667889.862 5        96.021 5        32.144 5
C13  35750929.469 6 186164434.644 6       479.328 6        38.968 6  35750928.469 5 143954249.545 5       370.533 5        30.517 5                                                                
C16  36461601.332 5 189865120.689 5       362.668 5        35.288 5                                                                                                                                
C20  22859333.922 6 119034543.885 6     -1171.297 6        40.967 6                                                                  22859323.000 5  96725262.309 5      -950.951 5        35.017 5
C29  22366410.406 5 116467769.769 5     -1609.051 5        32.144 5                                                                                                                                
C32  26429785.773 6 137626827.211 6     -2172.977 6        38.298 6                                                                  26429786.391 5 111833059.417 5     -1765.463 5        35.418 5
C35  23860699.777 5 124248816.529 5      1318.686 5        30.895 5                                                                                                                                
C37  25287552.469 8 131678920.910 8      1140.561 8        48.318 8                                                                  25287555.695 7 106999944.813 7       926.588 7        44.742 7
J01  39546967.918 6 207820609.701 6      -218.934 6        41.978 6  39546966.918 6 161938235.516 6      -170.566 6        41.950 6  39546970.922 7 155190801.885 7      -163.348 7        44.801 7
E05  24113258.809 6 126716009.241 6     -1411.492 6        38.736 6  24113264.277 6  94625629.938 6     -1053.680 6        36.731 6  24113257.586 5  97094102.688 5     -1081.596 5        35.785 5  24113261.043 5 102853914.848 5     -1145.100 5        35.544 5
E09  26016393.031 6 136717119.241 6     -2408.035 6        38.968 6                                                                                                                                                                                                
> 2020 08 27 07 40 55.0000000  0 18       0.000000000000
G05  22348072.457 6 117439893.534 6     -1771.914 6        37.093 6  22348072.344 3  91511718.875 3     -1381.305 3        23.803 3  22348071.598 4  91511621.609 4     -1381.266 4        28.161 4                                                                
G13  20664229.680 7 108591256.025 7     -1708.730 7        42.356 7  20664226.605 4  84616546.207 4     -1331.520 4        25.339 4                                                                                                                                
G15  20033837.645 7 105278460.554 7       330.508 7        42.936 7  20033837.332 5  82035150.628 5       255.414 5        33.546 5  20033836.715 3  82035233.381 3       255.414 3        20.923 3                                                                
G30  24860435.777 6 130642424.517 6     -1808.184 6        38.676 6  24860439.625 2 101799317.697 2     -1408.336 2        17.069 2  24860437.781 3 101799394.467 3     -1408.297 3        22.768 3  24860441.531 6  97557679.861 6     -1350.514 6        40.517 6
R11  23297186.180 6 124493215.361 6      2347.129 6        41.776 6                                                                
R24  19464078.203 5 104083430.205 5     -1626.504 5        33.905 5                                                                
C06  36219605.629 6 188604974.715 6       174.898 6        38.736 6                                                                  36219601.402 5 153256974.060 5       141.684 5        35.544 5
C08  36080361.664 6 187879893.555 6       119.195 6        39.645 6  36080359.730 6 145280642.339 6        92.900 6        38.968 6  36080354.867 5 152667792.565 5        96.938 5        32.144 5
C13  35750837.352 6 186163954.193 6       480.914 6        38.795 6  35750836.242 5 143953878.042 5       371.318 5        30.895 5                                                                
C16  36461531.391 5 189864756.968 5       363.609 5        35.288 5                                                                                                                                
C20  22859558.469 6 119035714.142 6     -1170.473 6        40.967 6                                                                  22859547.684 5  96726213.250 5      -951.246 5        34.874 5
C29  22366719.516 5 116469378.865 5     -1608.830 5        32.144 5                                                                                                                                
C32  26430202.918 6 137628999.383 6     -2172.072 6        38.428 6                                                                  26430203.465 5 111834824.501 5     -1765.152 5        35.017 5
C35  23860445.965 5 124247495.304 5      1320.582 5        31.242 5                                                                                                                                
C37  25287333.141 8 131677779.356 8      1141.363 8        48.351 8                                                                  25287336.555 7 106999017.208 7       927.543 7        44.727 7
J01  39547009.449 6 207820827.351 6      -217.637 6        41.950 6  39547008.090 6 161938405.101 6      -169.488 6        41.978 6  39547012.387 7 155190964.426 7      -162.760 7        44.667 7
E05  24113526.637 6 126717418.683 6     -1409.277 6        38.736 6  24113532.434 6  94626682.447 6     -1051.607 6        36.438 6  24113525.824 5  97095182.673 5     -1080.479 5        35.154 5  24113529.500 5 102855058.868 5     -1143.428 5        35.666 5
E09  26016850.246 6 136719525.869 6     -2407.207 6        38.968 6                                                                                                                                                                                                
> 2020 08 27 07 40 56.0000000  0 18       0.000000000000
G05  22348410.160 6 117441665.698 6     -1771.855 6        37.507 6  22348409.527 3  91513099.763 3     -1381.266 3        23.803 3  22348409.016 4  91513002.498 4     -1381.266 4        28.161 4                                                                
G13  20664554.789 7 108592964.979 7     -1709.805 7        42.607 7  20664551.855 4  84617877.856 4     -1332.223 4        25.339 4                                                                                                                                
G15  20033775.406 7 105278130.962 7       328.791 7        42.936 7  20033774.660 5  82034893.786 5       255.768 5        33.588 5  20033773.762 3  82034976.545 3       255.787 3        21.171 3                                                                
G30  24860780.633 6 130644233.424 6     -1809.902 6        38.554 6  24860783.969 3 101800727.273 3     -1410.992 3        18.161 3  24860781.133 3 101800804.035 3     -1411.031 3        22.768 3  24860785.629 6  97559030.640 6     -1351.029 6        40.595 6
R11  23296746.898 6 124490868.467 6      2346.219 6        41.595 6                                                                
R24  19464382.723 5 104085058.443 5     -1628.898 5        34.417 5                                                                
C06  36219571.863 6 188604799.518 6       174.627 6        38.554 6                                                                  36219567.602 5 153256831.658 5       140.936 5        35.418 5
C08  36080338.844 6 187879774.162 6       118.807 6        39.741 6  36080336.664 6 145280550.015 6        92.037 6        38.911 6  36080331.789 5 152667695.501 5        96.268 5        32.891 5
C13  35750745.133 6 186163474.118 6       480.057 6        38.616 6  35750743.918 5 143953506.835 5       369.498 5        30.517 5                                                                
C16  36461461.531 5 189864393.557 5       363.533 5        35.785 5                                                                                                                                
C20  22859782.910 6 119036884.681 6     -1170.900 6        40.785 6                                                                  22859772.523 5  96727164.396 5      -951.584 5        35.154 5
C29  22367028.348 5 116470988.686 5     -1610.197 5        31.564 5                                                                                                                                
C32  26430620.039 6 137631171.715 6     -2172.971 6        38.428 6                                                                  26430620.445 5 111836589.681 5     -1765.568 5        35.288 5
C35  23860192.270 5 124246174.730 5      1321.092 5        30.517 5                                                                                                                                
C37  25287113.965 8 131676638.401 8      1140.369 8        48.517 8                                                                  25287117.457 7 106998090.098 7       926.463 7        44.816 7
J01  39547050.879 7 207821045.150 7      -218.064 7        42.034 7  39547049.805 7 161938574.813 7      -170.152 7        42.034 7  39547053.840 7 155191127.054 7      -162.748 7        44.742 7
E05  24113795.082 6 126718828.583 6     -1411.250 6        38.676 6  24113800.691 6  94627735.281 6     -1053.490 6        36.731 6  24113794.262 5  97096262.948 5     -1080.404 5        35.901 5  24113797.730 5 102856203.272 5     -1144.949 5        35.666 5
E09  26017308.715 6 136721932.593 6     -2407.168 6        39.134 6                                                                                                                                                                                                
> 2020 08 27 07 40 57.0000000  0 18       0.000000000000
G05  22348747.754 6 117443438.060 6     -1772.641 6        37.812 6  22348746.637 3  91514480.807 3     -1381.086 3        23.242 3  22348746.680 4  91514383.543 4     -1381.105 4        28.256 4                                                                
G13  20664880.078 7 108594674.486 7     -1709.828 7        42.433 7  20664877.047 4  84619209.938 4     -1332.414 4        25.053 4                                                                                                                                
G15  20033712.199 7 105277801.983 7       328.766 7        42.728 7  20033712.016 5  82034637.456 5       255.516 5        33.490 5  20033710.555 3  82034720.218 3       255.418 3        21.629 3                                                                
G30  24861124.813 6 130646042.809 6     -1809.047 6        38.554 6  24861128.488 3 101802137.176 3     -1411.418 3        18.618 3  24861125.672 3 101802213.951 3     -1411.418 3        22.598 3  24861129.934 6  97560381.843 6     -1351.756 6        40.273 6
R11  23296308.359 6 124488522.074 6      2346.244 6        41.374 6                                                                
R24  19464688.418 5 104086687.609 5     -1630.846 5        34.575 5                                                                
C06  36219538.242 6 188604624.519 6       175.072 6        38.616 6                                                                  36219533.945 5 153256689.472 5       141.605 5        35.418 5
C08  36080315.742 6 187879654.933 6       118.939 6        39.834 6  36080313.848 6 145280457.836 6        92.064 6        39.024 6  36080308.859 5 152667598.633 5        96.918 5        32.656 5
C13  35750653.203 6 186162994.163 6       479.721 6        38.428 6  35750651.559 5 143953135.690 5       370.951 5        30.895 5                                                                
C16  36461391.672 5 189864030.436 5       362.963 5        35.544 5                                                                                                                                
C20  22860007.820 6 119038055.398 6     -1170.650 6        40.748 6                                                                  22859997.246 5  96728115.701 5      -950.602 5        35.154 5
C29  22367337.684 5 116472599.077 5     -1611.998 5        31.242 5                                                                                                                                
C32  26431037.477 6 137633344.060 6     -2172.506 6        38.616 6                                                                  26431037.492 5 111838354.892 5     -1765.855 5        35.288 5
C35  23859938.965 5 124244854.857 5      1320.854 5        30.103 5                                                                                                                                
C37  25286894.719 8 131675497.908 8      1140.053 8        48.422 8                                                                  25286898.473 7 106997163.343 7       926.645 7        44.742 7
J01  39547092.344 6 207821262.952 6      -218.109 6        41.978 6  39547091.484 6 161938744.526 6      -169.758 6        41.978 6  39547095.141 7 155191289.688 7      -162.557 7        44.831 7
E05  24114062.777 6 126720238.632 6     -1410.043 6        38.616 6  24114068.895 6  94628788.243 6     -1053.377 6        36.731 6  24114062.715 5  97097343.432 5     -1081.725 5        35.666 5  24114065.926 5 102857347.806 5     -1144.777 5        35.544 5
E09  26017766.723 6 136724339.365 6     -2406.801 6        39.294 6                                                                                                                                                                                                
> 2020 08 27 07 40 58.0000000  0 17       0.000000000000
G05  22349085.316 6 117445210.381 6     -1772.412 6        38.096 6  22349083.902 3  91515861.833 3     -1380.990 3        23.532 3  22349083.242 4  91515764.565 4     -1380.971 4        28.350 4                                                                
G13  20665205.621 7 108596384.340 7     -1709.795 7        42.356 7  20665202.563 4  84620542.306 4     -1332.377 4        24.639 4                                                                                                                                
G15  20033649.535 7 105277473.441 7       328.311 7        42.607 7  20033649.406 5  82034381.399 5       255.844 5        33.764 5  20033648.605 3  82034464.162 3       255.844 3        21.406 3                                                                
G30  24861469.242 6 130647852.580 6     -1810.010 6        38.616 6  24861472.906 3 101803547.360 3     -1410.893 3        18.161 3  24861470.461 3 101803624.136 3     -1410.912 3        22.420 3  24861474.281 6  97561733.274 6     -1351.662 6        40.477 6
R11  23295867.645 6 124486175.915 6      2346.982 6        41.717 6                                                                
R24  19464992.508 5 104088317.467 5     -1630.459 5        34.253 5                                                                
C06  36219504.840 6 188604449.520 6       174.596 6        38.676 6  36219499.152 5 145840915.080 5       134.678 5        31.242 5  36219500.254 5 153256547.232 5       142.875 5        35.154 5
C08  36080292.605 6 187879535.709 6       119.479 6        39.880 6  36080291.105 6 145280365.616 6        92.705 6        38.911 6  36080285.953 5 152667501.765 5        96.059 5        32.656 5
C13  35750560.848 6 186162514.126 6       479.986 6        38.491 6  35750559.059 5 143952764.489 5       371.084 5        30.517 5                                                                
C16  36461321.996 5 189863667.283 5       361.881 5        35.544 5                                                                                                                                
C20  22860232.594 6 119039226.061 6     -1171.223 6        40.967 6                                                                  22860222.113 5  96729066.930 5      -949.977 5        35.288 5
C29  22367646.809 5 116474209.708 5     -1610.598 5        30.895 5                                                                                                                                
C32  26431454.566 6 137635516.185 6     -2171.867 6        39.079 6                                                                  26431454.543 5 111840119.916 5     -1764.645 5        35.154 5
C37  25286675.902 8 131674357.648 8      1140.123 8        48.548 8                                                                  25286679.418 7 106996236.777 7       926.820 7        44.697 7
J01  39547133.852 6 207821480.502 6      -217.803 6        41.776 6  39547132.418 6 161938914.035 6      -168.941 6        41.978 6  39547136.574 7 155191452.166 7      -162.445 7        44.932 7
E05  24114332.590 6 126721648.724 6     -1409.814 6        38.616 6  24114337.188 6  94629841.230 6     -1052.521 6        36.731 6  24114331.148 5  97098423.912 5     -1081.043 5        35.666 5  24114334.434 5 102858492.438 5     -1146.066 5        35.288 5
E09  26018224.555 6 136726745.903 6     -2405.576 6        39.024 6                                                                                                                                                                                                
> 2020 08 27 07 40 59.0000000  0 17       0.000000000000
G05  22349422.313 6 117446982.800 6     -1772.719 6        38.096 6  22349421.199 3  91517242.921 3     -1381.025 3        23.933 3  22349420.738 4  91517145.654 4     -1381.025 4        27.913 4                                                                
G13  20665530.742 7 108598094.699 7     -1710.395 7        42.278 7  20665528.008 4  84621875.054 4     -1332.686 4        25.053 4                                                                                                                                
G15  20033587.305 7 105277145.438 7       327.730 7        42.508 7  20033586.949 5  82034125.812 5       255.557 5        33.710 5  20033587.305 3  82034208.569 3       255.576 3        21.406 3                                                                
G30  24861814.254 6 130649662.803 6     -1811.098 6        38.676 6  24861817.402 3 101804957.912 3     -1410.889 3        18.618 3  24861815.184 3 101805034.686 3     -1410.869 3        22.420 3  24861818.980 6  97563085.046 6     -1351.842 6        40.231 6
R11  23295429.230 6 124483830.163 6      2346.057 6        41.626 6                                                                
R24  19465297.324 5 104089948.096 5     -1630.096 5        34.082 5                                                                
C06  36219471.266 6 188604274.623 6       174.506 6        38.364 6  36219465.504 5 145840779.841 5       134.387 5        31.242 5  36219466.691 5 153256405.144 5       141.955 5        35.418 5
C08  36080269.617 6 187879416.589 6       119.330 6        39.880 6  36080268.367 6 145280273.547 6        91.320 6        38.854 6  36080262.906 5 152667404.964 5        97.404 5        32.407 5
C13  35750468.852 6 186162034.180 6       480.189 6        38.554 6                                                                                                                                
C16  36461252.219 5 189863304.218 5       362.084 5        35.544 5                                                                                                                                
C20  22860457.547 6 119040396.814 6     -1171.314 6        40.822 6                                                                  22860446.832 5  96730018.270 5      -951.385 5        35.154 5
C29  22367956.367 5 116475820.885 5     -1610.455 5        30.895 5                                                                                                                                
C32  26431871.766 6 137637688.242 6     -2172.096 6        39.134 6                                                                  26431871.570 5 111841884.904 5     -1764.705 5        35.288 5
C37  25286456.809 8 131673217.734 8      1140.033 8        48.706 8                                                                  25286460.637 7 106995310.520 7       926.350 7        44.860 7
J01  39547175.504 6 207821697.937 6      -216.781 6        41.950 6  39547173.430 6 161939083.493 6      -169.482 6        41.978 6  39547177.965 7 155191614.553 7      -162.467 7        45.003 7
E05  24114601.258 6 126723058.984 6     -1410.414 6        38.298 6  24114605.516 6  94630894.373 6     -1053.189 6        36.915 6  24114599.582 6  97099504.463 6     -1080.438 6        36.335 6  24114602.559 5 102859637.041 5     -1143.949 5        35.288 5
E09  26018681.961 6 136729152.430 6     -2406.801 6        38.968 6                                                                                                                                                                                                
> 2020 08 27 07 41  0.0000000  0 17       0.000000000000
G05  22349760.035 6 117448755.557 6     -1773.527 6        38.298 6  22349758.531 4  91518624.305 4     -1381.730 4        24.059 4  22349758.461 4  91518527.038 4     -1381.750 4        28.161 4                                                                
G13  20665856.730 7 108599805.781 7     -1711.281 7        42.330 7  20665853.582 4  84623208.369 4     -1333.371 4        25.694 4                                                                                                                                
G15  20033524.941 7 105276818.213 7       326.666 7        42.632 7  20033524.598 5  82033870.811 5       255.457 5        33.803 5  20033524.941 3  82033953.573 3       255.438 3        21.406 3                                                                
G30  24862158.270 6 130651473.702 6     -1811.359 6        38.616 6  24862161.934 3 101806369.014 3     -1411.672 3        20.080 3  24862159.199 3 101806445.775 3     -1411.711 3        22.932 3  24862163.578 6  97564437.352 6     -1352.285 6        40.189 6
R11  23294989.816 6 124481485.060 6      2344.459 6        41.626 6                                                                
R24  19465604.148 5 104091579.846 5     -1632.846 5        34.253 5                                                                
C06  36219437.664 6 188604100.083 6       174.164 6        38.554 6  36219431.688 5 145840644.857 5       134.740 5        31.564 5  36219433.156 5 153256263.350 5       140.807 5        35.418 5
C08  36080246.926 6 187879297.864 6       118.734 6        39.788 6  36080245.531 6 145280181.728 6        91.771 6        38.911 6  36080240.168 5 152667308.515 5        96.256 5        32.407 5
C13  35750376.762 6 186161554.532 6       480.141 6        38.616 6                                                                                                                                
C16  36461182.664 5 189862941.522 5       362.602 5        35.901 5                                                                                                                                
C20  22860682.371 6 119041567.835 6     -1170.777 6        41.037 6                                                                  22860671.645 5  96730969.873 5      -951.557 5        35.418 5
C29  22368265.828 5 116477432.738 5     -1610.484 5        31.242 5                                                                                                                                
C32  26432288.758 6 137639860.479 6     -2172.047 6        38.795 6                                                                  26432288.738 5 111843650.024 5     -1765.697 5        35.288 5
C37  25286237.973 8 131672078.455 8      1139.301 8        48.658 8                                                                  25286241.852 7 106994384.766 7       925.592 7        44.667 7
J01  39547216.883 6 207821915.546 6      -217.436 6        41.835 6  39547215.238 6 161939253.051 6      -169.406 6        41.864 6  39547219.344 7 155191777.040 7      -162.324 7        44.989 7
E05  24114868.004 6 126724469.632 6     -1410.695 6        38.232 6  24114873.980 6  94631947.786 6     -1053.887 6        36.824 6  24114868.211 5  97100585.330 5     -1080.455 5        35.901 5  24114871.098 5 102860782.049 5     -1145.283 5        35.154 5
E09  26019140.453 6 136731559.089 6     -2406.789 6        39.079 6                                                                                                                                                                                                
> 2020 08 27 07 41  1.0000000  0  8       0.000000000000
G05  22350096.094 6 117450527.929 6     -1773.342 6        38.165 6  22350095.723 4  91520005.370 4     -1380.994 4        24.059 4  22350095.734 4  91519908.102 4     -1380.975 4        27.963 4                                                                
G13  20666182.484 7 108601516.858 7     -1711.350 7        42.144 7  20666179.168 4  84624541.690 4     -1333.572 4        25.520 4                                                                                                                                
G15  20033462.633 7 105276491.071 7       326.033 7        42.508 7  20033462.262 5  82033615.888 5       254.826 5        33.724 5  20033462.488 3  82033698.647 3       254.826 3        21.841 3                                                                
G30  24862502.484 6 130653284.620 6     -1811.994 6        38.795 6  24862506.633 3 101807780.077 3     -1410.604 3        18.618 3  24862503.988 3 101807856.832 3     -1410.564 3        23.090 3  24862508.195 6  97565789.665 6     -1353.186 6        40.103 6
R11  23294550.461 6 124479139.867 6      2343.777 6        41.438 6                                                                
R24  19465908.598 5 104093211.924 5     -1633.273 5        34.253 5                                                                
E05  24115137.238 6 126725879.941 6     -1410.842 6        38.298 6                                                                                                                                                                                                
E09  26019599.355 6 136733965.167 6     -2406.020 6        39.024 6                                                                                                                                                                                                
> 2020 08 27 07 41 10.0000000  0  3       0.000000000000
C32                                                                                                                                                                                                
C37                                                                                                                                                                                                
J01  39547629.391 6 207824085.271 6      -216.807 6        41.921 6  39547627.891 7 161940943.760 7      -169.195 7        42.034 7  39547632.305 7 155193397.301 7      -162.373 7        45.031 7
> 2020 08 27 07 41 11.0000000  0 17       0.000000000000
G05  22353471.301 6 117468261.415 6     -1774.139 6        38.676 6  22353470.086 3  91533823.632 3     -1383.389 3        23.532 3  22353469.871 4  91533726.348 4     -1383.389 4        27.007 4                                                                
G13  20669443.652 6 108618658.522 6     -1716.443 6        41.502 6  20669440.430 4  84637898.845 4     -1337.451 4        24.416 4                                                                                                                                
G15  20032847.152 7 105273253.595 7       320.920 7        42.913 7  20032846.551 5  82031093.233 5       249.385 5        34.229 5  20032848.512 3  82031175.988 3       249.365 3        23.390 3                                                                
G30  24865953.676 6 130671423.259 6     -1816.287 6        39.597 6  24865958.199 3 101821914.155 3     -1415.322 3        19.758 3  24865958.469 4 101821990.875 4     -1415.322 4        24.639 4  24865958.719 6  97579334.746 6     -1356.736 6        39.448 6
R11  23290167.520 6 124455712.989 6      2340.803 6        40.556 6  23290167.230 5  96798855.216 5      1819.779 5        31.564 5
R24  19468970.133 5 104109583.334 5     -1641.873 5        34.575 5                                                                
C06  36219070.453 6 188602186.729 6       172.439 6        38.736 6  36219064.301 5 145839165.383 5       133.395 5        31.564 5  36219065.637 5 153254708.557 5       140.498 5        35.666 5
C08  36079997.520 6 187877998.091 6       117.049 6        39.448 6  36079995.836 6 145279176.656 6        90.289 6        39.294 6  36079990.285 5 152666252.265 5        95.986 5        32.656 5
C13  35749364.816 6 186156282.005 6       477.537 6        38.616 6                                                                                                                                
C16  36460418.625 5 189858959.421 5       360.740 5        35.544 5                                                                                                                                
C20  22863155.750 6 119054453.366 6     -1172.441 6        40.356 6                                                                  22863146.113 5  96741440.414 5      -951.982 5        35.544 5
C32  26436878.180 6 137663749.267 6     -2170.605 6        40.146 6                                                                  26436875.500 6 111863061.644 6     -1764.951 6        36.014 6
C35  23856397.383 5 124226521.040 5      1313.064 5        30.895 5                                                                                                                                
C37  25283836.391 8 131659569.624 8      1134.822 8        49.597 8                                                                  25283839.832 7 106984220.313 7       922.139 7        44.757 7
J01  39547670.234 6 207824301.776 6      -217.166 6        41.978 6  39547669.590 6 161941112.461 6      -169.131 6        41.950 6  39547673.480 7 155193558.953 7      -161.738 7        45.072 7
E05  24117823.961 6 126739995.379 6     -1412.537 6        37.093 6  24117828.082 6  94643541.704 6     -1054.744 6        36.124 6  24117823.891 6  97112481.737 6     -1082.211 6        37.179 6  24117824.250 5 102873384.135 5     -1145.514 5        33.720 5
E09  26024177.039 6 136758026.211 6     -2405.584 6        39.693 6                                                                                                                                                                                                
> 2020 08 27 07 41 12.0000000  0 17       0.000000000000
G05  22353809.371 6 117470035.154 6     -1773.941 6        38.911 6  22353807.555 4  91535205.750 4     -1382.082 4        24.181 4  22353807.727 4  91535108.456 4     -1382.063 4        26.747 4                                                                
G13  20669770.129 6 108620375.198 6     -1716.461 6        41.309 6  20669767.012 4  84639236.499 4     -1337.414 4        24.416 4                                                                                                                                
G15  20032785.852 7 105272932.709 7       320.746 7        42.936 7  20032785.422 5  82030843.155 5       250.652 5        34.157 5  20032787.211 3  82030925.902 3       250.633 3        23.390 3                                                                
G30  24866299.902 6 130673239.537 6     -1816.383 6        39.597 6  24866303.707 3 101823329.404 3     -1415.441 3        20.080 3  24866303.910 4 101823406.129 4     -1415.422 4        24.746 4  24866304.215 6  97580691.037 6     -1356.441 6        39.346 6
R11  23289730.035 6 124453372.270 6      2340.600 6        40.517 6  23289728.031 5  96797034.682 5      1819.627 5        31.242 5
R24  19469278.031 5 104111224.944 5     -1641.744 5        34.417 5                                                                
C06  36219037.199 6 188602013.375 6       172.656 6        38.736 6  36219031.441 5 145839031.292 5       134.498 5        32.144 5  36219032.441 5 153254567.664 5       141.354 5        35.418 5
C08  36079974.891 6 187877880.516 6       117.344 6        39.548 6  36079973.746 6 145279085.730 6        90.982 6        39.134 6  36079967.699 5 152666156.795 5        94.791 5        31.864 5
C13  35749272.824 6 186155802.974 6       479.434 6        38.491 6                                                                                                                                
C16  36460349.098 5 189858598.056 5       361.875 5        35.017 5                                                                                                                                
C20  22863380.883 6 119055625.115 6     -1171.289 6        40.146 6                                                                  22863371.063 5  96742392.565 5      -951.752 5        35.017 5
C32  26437295.023 6 137665920.443 6     -2170.684 6        40.231 6                                                                  26437292.496 6 111864825.861 6     -1763.570 6        36.014 6
C35  23856145.234 5 124225208.506 5      1311.719 5        30.895 5                                                                                                                                
C37  25283618.227 8 131658434.552 8      1135.352 8        49.577 8                                                                  25283621.996 7 106983297.976 7       922.877 7        44.636 7
J01  39547711.887 6 207824518.001 6      -216.090 6        41.864 6  39547710.313 6 161941280.950 6      -168.547 6        41.921 6  39547714.645 7 155193720.435 7      -161.480 7        44.974 7
E05  24118092.633 6 126741407.580 6     -1411.715 6        36.915 6  24118096.805 6  94644596.267 6     -1053.375 6        36.231 6  24118092.691 6  97113563.828 6     -1081.518 6        37.263 6  24118092.762 5 102874530.439 5     -1146.641 5        33.905 5
E09  26024635.020 6 136760431.759 6     -2405.250 6        39.548 6                                                                                                                                                                                                
