     3.02           OBSERVATION DATA    GPS                 RINEX VERSION / TYPE
Assistant 1.0       StaticToRinex       20200827 170805 LCL PGM / RUN BY / DATE 
       G = GPS       R = GLONASS       C = COMPASS          COMMENT             
       S = SBAS      J = QZSS          E = GALILEO          COMMENT             
0000                                                        MARKER NAME         
1                                                           MARKER NUMBER       
                                                            MARKER TYPE         
                                                            OBSERVER / AGENCY
                                                            REC # / TYPE / VERS 
0                                                           ANT # / TYPE        
        0.0000        0.0000        0.0000                  APPROX POSITION XYZ 
        0.0000        0.0000        0.0000                  ANTENNA: DELTA H/E/N
G    8 C1C L1C D1C S1C C2P L2P D2P S2P                      SYS / # / OBS TYPES 
DBHZ                                                        COMMENT             
     1.000                                                  INTERVAL            
  2020    08    27    08    50    0.0000000     GPS         TIME OF FIRST OBS   
  2020    08    27    09    07   33.0000000     GPS         TIME OF LAST OBS    
     0                                                      RCV CLOCK OFFS APPL 
G L1C  0.00000                                              SYS / PHASE SHIFT   
G L2P  0.00000                                              SYS / PHASE SHIFT   
    18                                                      LEAP SECONDS        
*** Above antenna height is from mark to PHASE CENTER.      COMMENT             
     0     0        0.0000        ANT MEASURE TYPE/HEIGT    COMMENT             
    0.0000    0.0000    0.0000    0.0000    0.0000          COMMENT             
                    BASE STATION                            COMMENT             
                                                            END OF HEADER       
> 2020 08 27 08 50  0.0000000  0  3       0.000000000000
G05  23935024.840 7 125779404.301 7     -2278.996 7        45.935 7  23935026.398 6  98009931.055 6     -1775.803 6        36.598 6
G13  22602887.555 7 118778975.536 7     -2946.496 7        42.090 7  22602888.398 3  92555049.351 3     -2295.998 3        22.420 3
G15  20565897.203 6 108074518.311 6     -1509.816 6        40.822 6  20565897.492 3  84213911.540 3     -1176.486 3        21.171 3
> 2020 08 27 08 50  1.0000000  0  3       0.000000000000
G05  23935458.293 7 125781682.920 7     -2278.365 7        45.935 7  23935460.012 6  98011706.580 6     -1774.881 6        36.577 6
G13  22603448.359 6 118781921.323 6     -2945.240 6        41.921 6  22603449.031 3  92557344.765 3     -2294.979 3        22.043 3
G15  20566184.707 6 108076027.397 6     -1508.873 6        40.748 6  20566184.578 3  84215087.447 3     -1175.721 3        20.379 3
> 2020 08 27 08 50  2.0000000  0  3       0.000000000000
G05  23935891.734 7 125783961.608 7     -2279.014 7        46.014 7  23935893.598 6  98013482.204 6     -1776.307 6        36.714 6
G13  22604008.582 6 118784867.172 6     -2945.867 6        41.864 6  22604009.555 3  92559640.232 3     -2295.584 3        21.171 3
G15  20566472.051 6 108077536.707 6     -1509.561 6        40.822 6  20566471.551 3  84216263.531 3     -1176.346 3        20.923 3
> 2020 08 27 08 50  3.0000000  0  3       0.000000000000
G05  23936325.961 7 125786240.390 7     -2278.133 7        46.002 7  23936327.336 6  98015257.871 6     -1775.424 6        36.840 6
G13  22604568.871 6 118787813.115 6     -2945.438 6        41.626 6  22604570.047 3  92561935.777 3     -2295.189 3        20.923 3
G15  20566758.895 6 108079046.307 6     -1508.738 6        40.822 6  20566758.578 3  84217439.850 3     -1175.678 3        19.758 3
> 2020 08 27 08 50  4.0000000  0  3       0.000000000000
G05  23936759.680 7 125788519.325 7     -2278.779 7        46.178 7  23936761.098 6  98017033.665 6     -1775.629 6        36.866 6
G13  22605129.656 6 118790759.163 6     -2946.357 6        41.533 6  22605130.543 3  92564231.389 3     -2295.863 3        20.660 3
G15  20567045.656 6 108080556.229 6     -1510.166 6        41.037 6  20567045.625 3  84218616.429 3     -1176.820 3        20.923 3
> 2020 08 27 08 50  5.0000000  0  3       0.000000000000
G05  23937193.238 7 125790798.574 7     -2279.338 7        46.199 7  23937194.871 6  98018809.690 6     -1775.809 6        36.754 6
G13  22605690.711 6 118793705.489 6     -2946.566 6        41.470 6  22605691.195 3  92566527.224 3     -2295.984 3        20.923 3
G15  20567333.262 6 108082066.630 6     -1511.213 6        40.895 6  20567332.746 3  84219793.362 3     -1177.586 3        21.171 3
> 2020 08 27 08 50  6.0000000  0  3       0.000000000000
G05  23937627.375 7 125793077.906 7     -2279.906 7        46.325 7  23937628.590 6  98020585.811 6     -1776.621 6        36.898 6
G13  22606250.910 6 118796651.865 6     -2946.703 6        41.276 6  22606251.797 3  92568823.090 3     -2296.055 3        20.660 3
G15  20567621.156 6 108083577.245 6     -1511.119 6        40.748 6  20567620.113 3  84220970.480 3     -1177.500 3        20.080 3
> 2020 08 27 08 50  7.0000000  0  3       0.000000000000
G05  23938060.723 7 125795357.193 7     -2279.527 7        46.356 7  23938062.266 6  98022361.882 6     -1776.428 6        37.051 6
G13  22606811.320 6 118799598.171 6     -2946.246 6        41.406 6  22606812.496 3  92571118.918 3     -2295.764 3        20.923 3
G15  20567908.836 6 108085088.004 6     -1510.758 6        40.822 6  20567907.418 3  84222147.686 3     -1177.248 3        20.660 3
> 2020 08 27 08 50  8.0000000  0  3       0.000000000000
G05  23938494.484 7 125797636.648 7     -2279.768 7        46.468 7  23938496.117 6  98024138.063 6     -1776.398 6        37.155 6
G13  22607372.008 6 118802544.625 6     -2946.604 6        41.175 6  22607373.141 3  92573414.857 3     -2296.047 3        21.406 3
G15  20568195.930 6 108086599.108 6     -1510.939 6        40.931 6  20568194.773 3  84223325.168 3     -1177.414 3        20.660 3
> 2020 08 27 08 50  9.0000000  0  3       0.000000000000
G05  23938928.230 7 125799916.508 7     -2279.850 7        46.508 7  23938930.004 6  98025914.582 6     -1776.537 6        37.369 6
G13  22607932.676 6 118805491.454 6     -2946.412 6        40.967 6  22607933.809 3  92575711.086 3     -2295.814 3        22.043 3
G15  20568483.148 6 108088110.789 6     -1511.686 6        40.822 6  20568482.277 3  84224503.075 3     -1177.963 3        20.379 3
> 2020 08 27 08 50 10.0000000  0  3       0.000000000000
G05  23939361.695 7 125802196.679 7     -2281.098 7        46.438 7  23939363.840 6  98027691.319 6     -1777.135 6        37.404 6
G13  22608493.777 6 118808438.579 6     -2948.012 6        40.931 6  22608494.578 3  92578007.548 3     -2297.174 3        21.406 3
G15  20568771.375 6 108089622.959 6     -1513.305 6        40.822 6  20568769.844 3  84225681.410 3     -1179.283 3        21.406 3
> 2020 08 27 08 50 11.0000000  0  3       0.000000000000
G05  23939796.203 7 125804476.724 7     -2280.596 7        46.635 7  23939797.777 6  98029468.006 6     -1777.254 6        37.269 6
G13  22609055.066 6 118811385.565 6     -2948.037 6        40.785 6  22609055.352 3  92580303.901 3     -2297.254 3        20.923 3
G15  20569059.359 6 108091135.153 6     -1513.057 6        40.672 6  20569057.340 3  84226859.762 3     -1178.992 3        22.236 3
> 2020 08 27 08 50 12.0000000  0  3       0.000000000000
G05  23940230.395 7 125806756.672 7     -2279.971 7        46.488 7  23940231.684 6  98031244.587 6     -1776.982 6        37.346 6
G13  22609616.035 6 118814332.395 6     -2947.217 6        40.556 6  22609615.949 3  92582600.113 3     -2296.572 3        20.923 3
G15  20569346.594 6 108092647.419 6     -1512.412 6        40.595 6  20569345.117 3  84228038.139 3     -1178.467 3        21.841 3
> 2020 08 27 08 50 13.0000000  0  3       0.000000000000
G05  23940663.965 7 125809036.973 7     -2279.889 7        46.488 7  23940665.410 6  98033021.438 6     -1776.629 6        37.438 6
G13  22610176.527 6 118817279.570 6     -2947.623 6        40.517 6  22610176.586 3  92584896.628 3     -2296.883 3        20.923 3
G15  20569634.352 6 108094160.191 6     -1512.486 6        40.748 6  20569632.734 3  84229216.934 3     -1178.680 3        22.598 3
> 2020 08 27 08 50 14.0000000  0  3       0.000000000000
G05  23941098.023 7 125811317.401 7     -2279.879 7        46.438 7  23941099.383 6  98034798.398 6     -1776.744 6        37.506 6
G13  22610737.082 6 118820226.837 6     -2947.066 6        40.477 6  22610737.297 3  92587193.193 3     -2296.412 3        21.171 3
G15  20569922.891 6 108095673.273 6     -1512.320 6        40.858 6  20569920.527 3  84230395.944 3     -1178.521 3        23.090 3
> 2020 08 27 08 50 15.0000000  0  3       0.000000000000
G05  23941532.539 7 125813598.150 7     -2281.074 7        46.577 7  23941533.297 6  98036575.590 6     -1776.986 6        37.561 6
G13  22611298.379 6 118823174.396 6     -2947.773 6        40.437 6  22611298.105 3  92589489.985 3     -2296.928 3        20.080 3
G15  20570211.879 6 108097186.842 6     -1513.633 6        40.858 6  20570208.258 3  84231575.347 3     -1179.467 3        22.236 3
> 2020 08 27 08 50 16.0000000  0  3       0.000000000000
G05  23941966.234 7 125815879.062 7     -2281.502 7        46.407 7  23941967.191 6  98038352.928 6     -1777.172 6        37.622 6
G13  22611859.277 6 118826122.131 6     -2947.791 6        40.231 6  22611859.121 3  92591786.900 3     -2296.977 3        19.758 3
G15  20570499.906 6 108098700.731 6     -1513.592 6        40.895 6  20570496.039 3  84232755.005 3     -1179.418 3        22.236 3
> 2020 08 27 08 50 17.0000000  0  3       0.000000000000
G05  23942400.301 7 125818159.925 7     -2280.973 7        46.377 7  23942401.320 6  98040130.243 6     -1777.637 6        37.478 6
G13  22612420.129 6 118829069.769 6     -2947.848 6        40.273 6  22612419.898 3  92594083.775 3     -2296.992 3        19.032 3
G15  20570788.020 6 108100214.796 6     -1514.254 6        41.002 6  20570783.914 3  84233934.802 3     -1179.883 3        21.406 3
> 2020 08 27 08 50 18.0000000  0  3       0.000000000000
G05  23942834.398 7 125820441.180 7     -2281.539 7        46.387 7  23942835.355 6  98041907.829 6     -1777.627 6        37.340 6
G13  22612981.574 6 118832017.772 6     -2947.633 6        40.356 6  22612980.758 3  92596380.916 3     -2296.865 3        19.410 3
G15  20571075.730 6 108101729.367 6     -1514.566 6        41.072 6  20571072.012 3  84235114.986 3     -1180.127 3        21.629 3
> 2020 08 27 08 50 19.0000000  0  3       0.000000000000
G05  23943268.563 7 125822722.344 7     -2281.473 7        46.335 7  23943269.465 6  98043685.353 6     -1777.701 6        37.263 6
G13  22613542.094 6 118834965.664 6     -2948.289 6        40.356 6  22613541.734 3  92598677.967 3     -2297.350 3        19.032 3
G15  20571363.371 6 108103244.043 6     -1515.438 6        41.037 6  20571360.270 3  84236295.256 3     -1180.787 3        21.629 3
> 2020 08 27 08 50 20.0000000  0  3       0.000000000000
G05  23943702.715 7 125825004.010 7     -2281.967 7        46.428 7  23943703.676 6  98045463.278 6     -1778.240 6        37.455 6
G13  22614103.738 6 118837914.035 6     -2949.252 6        40.672 6  22614102.938 3  92600975.395 3     -2298.084 3        18.618 3
G15  20571651.426 6 108104759.363 6     -1515.932 6        41.107 6  20571648.566 3  84237476.009 3     -1181.248 3        21.406 3
> 2020 08 27 08 50 21.0000000  0  3       0.000000000000
G05  23944137.141 7 125827285.696 7     -2281.730 7        46.428 7  23944137.715 6  98047241.212 6     -1777.934 6        37.556 6
G13  22614664.516 6 118840862.392 6     -2949.035 6        40.710 6  22614663.871 3  92603272.821 3     -2297.953 3        18.618 3
G15  20571939.898 6 108106274.871 6     -1515.266 6        40.931 6  20571936.980 3  84238656.936 3     -1180.727 3        20.923 3
> 2020 08 27 08 50 22.0000000  0  3       0.000000000000
G05  23944570.516 7 125829567.557 7     -2281.723 7        46.488 7  23944571.973 6  98049019.280 6     -1777.738 6        37.709 6
G13  22615225.383 6 118843810.865 6     -2947.602 6        40.895 6  22615224.836 3  92605570.343 3     -2296.840 3        19.410 3
G15  20572228.320 6 108107790.732 6     -1515.277 6        41.107 6  20572225.387 3  84239838.128 3     -1180.746 3        20.923 3
> 2020 08 27 08 50 23.0000000  0  3       0.000000000000
G05  23945005.098 7 125831849.517 7     -2282.232 7        46.241 7  23945006.230 6  98050797.439 6     -1778.303 6        37.649 6
G13  22615786.461 6 118846759.463 6     -2949.088 6        40.858 6  22615786.016 3  92607867.940 3     -2297.893 3        20.660 3
G15  20572517.523 6 108109306.866 6     -1516.607 6        41.438 6  20572513.844 3  84241019.526 3     -1181.760 3        21.406 3
> 2020 08 27 08 50 24.0000000  0  3       0.000000000000
G05  23945439.512 7 125834131.813 7     -2282.402 7        46.325 7  23945440.570 6  98052575.852 6     -1778.463 6        37.534 6
G13  22616347.797 6 118849708.337 6     -2948.965 6        40.967 6  22616347.293 3  92610165.762 3     -2297.857 3        20.660 3
G15  20572806.125 6 108110823.508 6     -1516.914 6        41.175 6  20572802.262 3  84242201.327 3     -1182.057 3        21.629 3
> 2020 08 27 08 50 25.0000000  0  3       0.000000000000
G05  23945873.695 7 125836414.130 7     -2282.283 7        46.283 7  23945874.754 6  98054354.292 6     -1778.477 6        37.556 6
G13  22616909.043 6 118852657.188 6     -2948.240 6        41.242 6  22616908.457 3  92612463.581 3     -2297.324 3        20.660 3
G15  20573094.211 6 108112340.317 6     -1516.912 6        41.037 6  20573090.723 3  84243383.266 3     -1181.973 3        22.768 3
> 2020 08 27 08 50 26.0000000  0  3       0.000000000000
G05  23946307.980 7 125838696.632 7     -2282.654 7        46.156 7  23946309.195 6  98056132.857 6     -1778.381 6        37.622 6
G13  22617470.250 6 118855606.238 6     -2948.826 6        41.242 6  22617469.637 3  92614761.533 3     -2297.834 3        21.171 3
G15  20573383.113 6 108113857.496 6     -1517.283 6        41.175 6  20573379.465 3  84244565.471 3     -1182.326 3        23.090 3
> 2020 08 27 08 50 27.0000000  0  3       0.000000000000
G05  23946742.332 7 125840979.239 7     -2282.854 7        46.188 7  23946743.535 6  98057911.515 6     -1778.824 6        37.483 6
G13  22618031.668 6 118858555.355 6     -2949.104 6        41.276 6  22618030.754 3  92617059.538 3     -2298.043 3        20.379 3
G15  20573671.801 6 108115374.934 6     -1517.951 6        41.175 6  20573668.207 3  84245747.901 3     -1182.830 3        22.768 3
> 2020 08 27 08 50 28.0000000  0  3       0.000000000000
G05  23947176.996 7 125843262.192 7     -2283.049 7        46.113 7  23947177.926 6  98059690.435 6     -1779.311 6        37.432 6
G13  22618592.969 6 118861504.787 6     -2949.670 6        41.374 6  22618591.738 3  92619357.783 3     -2298.412 3        20.660 3
G15  20573960.797 6 108116892.888 6     -1518.029 6        41.107 6  20573957.121 3  84246930.713 3     -1182.865 3        22.236 3
> 2020 08 27 08 50 29.0000000  0  3       0.000000000000
G05  23947611.707 7 125845545.122 7     -2283.332 7        46.091 7  23947612.465 6  98061469.331 6     -1778.902 6        37.328 6
G13  22619154.316 6 118864454.161 6     -2949.311 6        41.470 6  22619152.871 3  92621656.016 3     -2298.141 3        20.923 3
G15  20574249.555 6 108118410.978 6     -1518.293 6        41.002 6  20574245.891 3  84248113.642 3     -1183.160 3        22.932 3
> 2020 08 27 08 50 30.0000000  0  3       0.000000000000
G05  23948045.297 7 125847828.142 7     -2283.318 7        45.924 7  23948046.898 6  98063248.297 6     -1778.672 6        37.363 6
G13  22619715.688 6 118867403.624 6     -2949.432 6        41.564 6  22619714.113 3  92623954.287 3     -2298.281 3        21.406 3
G15  20574538.762 6 108119929.354 6     -1518.846 6        40.858 6  20574534.883 3  84249296.798 3     -1183.516 3        22.598 3
> 2020 08 27 08 50 31.0000000  0  3       0.000000000000
G05  23948479.805 7 125850111.324 7     -2283.107 7        45.866 7  23948481.309 6  98065027.424 6     -1779.322 6        37.234 6
G13  22620276.691 6 118870353.207 6     -2949.201 6        41.374 6  22620275.387 3  92626252.646 3     -2297.994 3        21.629 3
G15  20574827.031 6 108121448.052 6     -1519.182 6        40.595 6  20574823.758 3  84250480.212 3     -1183.832 3        22.236 3
> 2020 08 27 08 50 32.0000000  0  3       0.000000000000
G05  23948914.543 7 125852394.608 7     -2283.313 7        45.878 7  23948915.844 6  98066806.590 6     -1778.840 6        37.275 6
G13  22620837.492 6 118873302.866 6     -2949.521 6        41.564 6  22620836.648 3  92628551.085 3     -2298.391 3        20.080 3
G15  20575115.531 6 108122966.997 6     -1519.172 6        40.315 6  20575112.566 3  84251663.822 3     -1183.781 3        22.420 3
> 2020 08 27 08 50 33.0000000  0  3       0.000000000000
G05  23949349.387 7 125854678.146 7     -2283.727 7        45.690 7  23949350.387 6  98068585.980 6     -1779.295 6        37.305 6
G13  22621399.828 6 118876252.747 6     -2949.957 6        41.438 6  22621397.941 3  92630849.692 3     -2298.709 3        20.379 3
G15  20575404.992 6 108124486.371 6     -1519.586 6        40.015 6  20575401.773 3  84252847.743 3     -1184.158 3        22.043 3
> 2020 08 27 08 50 34.0000000  0  3       0.000000000000
G05  23949783.938 7 125856961.750 7     -2283.598 7        45.666 7  23949784.957 6  98070365.416 6     -1779.461 6        37.222 6
G13  22621961.160 6 118879202.689 6     -2950.121 6        41.656 6  22621959.289 3  92633148.352 3     -2298.758 3        21.171 3
G15  20575693.879 6 108126005.994 6     -1520.160 6        39.548 6  20575690.730 3  84254031.853 3     -1184.637 3        22.420 3
> 2020 08 27 08 50 35.0000000  0  3       0.000000000000
G05  23950218.355 7 125859245.542 7     -2283.676 7        45.726 7  23950219.586 6  98072144.991 6     -1779.486 6        37.125 6
G13  22622521.930 6 118882152.780 6     -2950.590 6        41.626 6  22622520.613 3  92635447.131 3     -2299.232 3        21.406 3
G15  20575983.344 6 108127525.982 6     -1520.473 6        39.134 6  20575980.051 3  84255216.272 3     -1184.818 3        22.768 3
> 2020 08 27 08 50 36.0000000  0  3       0.000000000000
G05  23950653.063 7 125861529.765 7     -2283.879 7        45.506 7  23950654.094 6  98073924.913 6     -1779.766 6        36.937 6
G13  22623083.703 6 118885103.277 6     -2950.305 6        41.564 6  22623081.969 3  92637746.223 3     -2298.887 3        20.379 3
G15  20576272.668 6 108129046.509 6     -1519.563 6        38.554 6  20576269.234 3  84256401.082 3     -1184.121 3        21.841 3
> 2020 08 27 08 50 37.0000000  0  3       0.000000000000
G05  23951087.430 7 125863814.344 7     -2284.127 7        45.366 7  23951088.777 6  98075705.102 6     -1779.926 6        36.714 6
G13  22623645.277 6 118888054.067 6     -2950.123 6        41.747 6  22623643.391 3  92640045.538 3     -2298.695 3        21.841 3
G15  20576562.082 6 108130567.651 6     -1521.334 6        38.232 6  20576558.594 3  84257586.402 3     -1185.453 3        22.043 3
> 2020 08 27 08 50 38.0000000  0  3       0.000000000000
G05  23951522.750 7 125866099.232 7     -2285.371 7        45.379 7  23951523.477 6  98077485.523 6     -1780.715 6        36.570 6
G13  22624207.090 7 118891005.155 7     -2951.367 7        42.006 7  22624204.941 3  92642345.098 3     -2299.719 3        21.629 3
G15  20576851.449 6 108132089.198 6     -1521.678 6        37.662 6  20576848.242 3  84258772.017 3     -1185.695 3        22.043 3
> 2020 08 27 08 50 39.0000000  0  3       0.000000000000
G05  23951957.250 7 125868384.243 7     -2285.182 7        45.327 7  23951958.336 6  98079266.068 6     -1780.592 6        36.632 6
G13  22624768.367 7 118893956.372 7     -2951.432 7        42.144 7  22624766.566 3  92644644.742 3     -2299.850 3        21.406 3
G15  20577140.137 6 108133611.097 6     -1522.330 6        37.346 6  20577137.805 3  84259957.911 3     -1186.141 3        21.171 3
> 2020 08 27 08 50 40.0000000  0  3       0.000000000000
G05  23952391.414 7 125870669.304 7     -2285.395 7        45.405 7  23952393.172 6  98081046.630 6     -1781.086 6        36.472 6
G13  22625330.457 7 118896907.575 7     -2951.840 7        42.304 7  22625328.266 3  92646944.371 3     -2300.109 3        21.406 3
G15  20577429.922 6 108135133.157 6     -1522.563 6        37.005 6  20577427.504 3  84261143.921 3     -1186.418 3        21.171 3
> 2020 08 27 08 50 41.0000000  0  3       0.000000000000
G05  23952826.340 7 125872954.615 7     -2285.518 7        45.469 7  23952828.070 6  98082827.383 6     -1780.711 6        36.223 6
G13  22625891.879 7 118899859.007 7     -2951.551 7        42.171 7  22625889.945 3  92649244.177 3     -2299.832 3        20.660 3
G15  20577719.609 6 108136655.635 6     -1522.217 6        36.635 6  20577717.105 3  84262330.269 3     -1186.182 3        20.660 3
> 2020 08 27 08 50 42.0000000  0  3       0.000000000000
G05  23953261.984 7 125875240.195 7     -2285.416 7        45.418 7  23953263.070 6  98084608.365 6     -1781.268 6        36.215 6
G13  22626453.871 7 118902810.707 7     -2952.037 7        42.330 7  22626451.797 3  92651544.207 3     -2300.311 3        20.660 3
G15  20578009.441 6 108138178.596 6     -1522.975 6        36.731 6  20578006.883 3  84263516.981 3     -1186.697 3        21.171 3
> 2020 08 27 08 50 43.0000000  0  3       0.000000000000
G05  23953696.664 7 125877526.023 7     -2285.439 7        45.301 7  23953698.051 6  98086389.521 6     -1780.777 6        36.371 6
G13  22627015.188 7 118905762.591 7     -2951.650 7        42.225 7  22627013.672 3  92653844.370 3     -2300.055 3        20.923 3
G15  20578298.742 6 108139701.919 6     -1522.607 6        36.231 6  20578296.625 3  84264703.986 3     -1186.422 3        20.923 3
> 2020 08 27 08 50 44.0000000  0  3       0.000000000000
G05  23954131.625 7 125879811.923 7     -2286.162 7        45.275 7  23954133.000 6  98088170.735 6     -1781.455 6        36.275 6
G13  22627577.359 7 118908714.504 7     -2951.533 7        42.304 7  22627575.328 3  92656144.562 3     -2299.893 3        21.629 3
G15  20578588.609 6 108141225.492 6     -1523.740 6        36.014 6  20578586.434 3  84265891.187 3     -1187.314 3        21.629 3
> 2020 08 27 08 50 45.0000000  0  3       0.000000000000
G05  23954566.980 7 125882097.934 7     -2286.193 7        45.195 7  23954567.996 6  98089952.037 6     -1781.037 6        36.223 6
G13  22628138.488 7 118911666.538 7     -2951.936 7        42.278 7  22628137.086 3  92658444.835 3     -2300.100 3        20.660 3
G15  20578877.723 5 108142749.403 5     -1525.393 5        35.544 5  20578876.578 3  84267078.666 3     -1188.732 3        20.660 3
> 2020 08 27 08 50 46.0000000  0  3       0.000000000000
G05  23955002.246 7 125884384.296 7     -2286.258 7        45.086 7  23955003.273 6  98091733.635 6     -1781.578 6        36.116 6
G13  22628700.535 7 118914618.880 7     -2952.156 7        42.171 7  22628698.934 3  92660745.370 3     -2300.328 3        21.171 3
G15  20579168.035 5 108144273.743 5     -1523.953 5        35.154 5  20579166.574 3  84268266.466 3     -1187.457 3        20.660 3
> 2020 08 27 08 50 47.0000000  0  3       0.000000000000
G05  23955436.910 7 125886670.758 7     -2286.500 7        44.974 7  23955438.473 6  98093515.263 6     -1781.240 6        36.046 6
G13  22629262.840 7 118917571.285 7     -2952.398 7        42.356 7  22629260.852 3  92663045.946 3     -2300.596 3        21.841 3
G15  20579458.465 5 108145798.383 5     -1524.293 5        34.727 5  20579456.820 3  84269454.488 3     -1187.764 3        20.080 3
> 2020 08 27 08 50 48.0000000  0  3       0.000000000000
G05  23955872.086 7 125888957.400 7     -2287.115 7        44.946 7  23955873.633 5  98095297.086 5     -1782.406 5        35.728 5
G13  22629824.078 7 118920523.839 7     -2952.721 7        42.382 7  22629822.617 3  92665346.647 3     -2300.805 3        21.406 3
G15  20579748.688 5 108147323.368 5     -1525.494 5        34.417 5  20579747.086 3  84270642.775 3     -1188.676 3        19.758 3
> 2020 08 27 08 50 49.0000000  0  3       0.000000000000
G05  23956306.785 7 125891244.039 7     -2286.223 7        44.831 7  23956308.848 5  98097078.876 5     -1781.918 5        35.853 5
G13  22630385.844 7 118923476.371 7     -2952.844 7        42.304 7  22630384.258 3  92667647.339 3     -2301.039 3        21.629 3
G15  20580038.578 5 108148848.523 5     -1524.934 5        33.905 5  20580037.250 3  84271831.196 3     -1188.285 3        20.080 3
> 2020 08 27 08 50 50.0000000  0  3       0.000000000000
G05  23956742.238 7 125893530.919 7     -2286.934 7        44.697 7  23956743.883 5  98098860.854 5     -1782.039 5        35.703 5
G13  22630947.500 7 118926429.094 7     -2952.539 7        42.278 7  22630946.172 3  92669948.143 3     -2300.672 3        21.841 3
G15  20580328.648 5 108150374.017 5     -1525.586 5        33.905 5  20580327.359 3  84273019.892 3     -1188.719 3        20.080 3
> 2020 08 27 08 50 51.0000000  0  3       0.000000000000
G05  23957177.527 7 125895817.756 7     -2286.863 7        44.449 7  23957179.102 5  98100642.814 5     -1782.131 5        35.511 5
G13  22631510.000 7 118929381.780 7     -2952.938 7        42.483 7  22631507.980 3  92672248.943 3     -2300.979 3        21.841 3
G15  20580619.129 5 108151899.721 5     -1524.891 5        33.325 5  20580617.582 3  84274208.740 3     -1188.225 3        21.171 3
> 2020 08 27 08 50 52.0000000  0  3       0.000000000000
G05  23957612.707 7 125898105.055 7     -2287.621 7        44.512 7  23957614.367 5  98102425.119 5     -1782.830 5        35.284 5
G13  22632071.961 7 118932334.864 7     -2953.305 7        42.483 7  22632069.930 3  92674550.039 3     -2301.287 3        21.629 3
G15  20580909.645 5 108153426.002 5     -1525.629 5        33.325 5  20580907.941 3  84275398.040 3     -1188.748 3        20.923 3
> 2020 08 27 08 50 53.0000000  0  3       0.000000000000
G05  23958047.973 7 125900392.335 7     -2287.098 7        44.528 7  23958049.547 5  98104207.420 5     -1782.793 5        35.376 5
G13  22632633.859 7 118935287.938 7     -2953.172 7        42.558 7  22632631.957 3  92676851.131 3     -2301.191 3        21.629 3
G15  20581201.102 5 108154952.494 5     -1526.805 5        33.527 5  20581198.410 3  84276587.514 3     -1189.785 3        20.660 3
> 2020 08 27 08 50 54.0000000  0  3       0.000000000000
G05  23958483.152 7 125902679.433 7     -2287.045 7        44.449 7  23958484.637 5  98105989.544 5     -1781.947 5        35.440 5
G13  22633195.531 7 118938240.781 7     -2952.396 7        42.607 7  22633193.801 3  92679152.049 3     -2300.541 3        20.923 3
G15  20581491.184 5 108156478.936 5     -1526.381 5        32.891 5  20581488.910 3  84277776.952 3     -1189.389 3        20.660 3
> 2020 08 27 08 50 55.0000000  0  3       0.000000000000
G05  23958917.961 7 125904966.799 7     -2288.428 7        44.433 7  23958919.809 5  98107771.910 5     -1783.057 5        35.494 5
G13  22633757.125 7 118941193.860 7     -2953.896 7        42.704 7  22633755.766 3  92681453.153 3     -2301.787 3        21.841 3
G15  20581781.617 5 108158005.764 5     -1527.393 5        33.325 5  20581779.426 3  84278966.702 3     -1190.186 3        19.758 3
> 2020 08 27 08 50 56.0000000  0  3       0.000000000000
G05  23959353.121 7 125907254.316 7     -2287.223 7        44.433 7  23959354.840 5  98109554.397 5     -1782.010 5        35.376 5
G13  22634319.207 7 118944147.088 7     -2953.006 7        42.508 7  22634317.848 3  92683754.361 3     -2301.072 3        21.406 3
G15  20582071.965 5 108159533.048 5     -1528.570 5        33.113 5  20582070.020 3  84280156.799 3     -1191.070 3        19.032 3
> 2020 08 27 08 50 57.0000000  0  3       0.000000000000
G05  23959788.906 7 125909541.742 7     -2287.604 7        44.401 7  23959790.352 5  98111336.814 5     -1783.127 5        35.208 5
G13  22634881.055 7 118947100.187 7     -2953.619 7        42.891 7  22634879.809 3  92686055.494 3     -2301.545 3        21.171 3
G15  20582361.941 5 108161060.295 5     -1528.795 5        33.527 5  20582360.609 3  84281346.843 3     -1191.291 3        19.410 3
> 2020 08 27 08 50 58.0000000  0  3       0.000000000000
G05  23960224.484 7 125911829.626 7     -2287.705 7        44.303 7  23960225.785 5  98113119.563 5     -1782.846 5        35.339 5
G13  22635442.980 7 118950053.696 7     -2953.330 7        42.728 7  22635441.852 3  92688356.906 3     -2301.225 3        21.171 3
G15  20582652.707 5 108162588.175 5     -1528.602 5        33.325 5  20582651.391 3  84282537.391 3     -1191.125 3        19.410 3
> 2020 08 27 08 50 59.0000000  0  3       0.000000000000
G05  23960659.746 7 125914117.164 7     -2288.213 7        44.253 7  23960661.148 5  98114902.059 5     -1782.539 5        35.227 5
G13  22636005.023 7 118953006.860 7     -2954.385 7        42.868 7  22636003.809 3  92690658.067 3     -2302.070 3        21.629 3
G15  20582943.449 5 108164115.851 5     -1528.721 5        33.720 5  20582941.918 3  84283727.792 3     -1191.094 3        19.032 3
> 2020 08 27 08 51  0.0000000  0  3       0.000000000000
G05  23961094.910 7 125916404.782 7     -2287.934 7        44.433 7  23961096.512 5  98116684.616 5     -1782.287 5        35.293 5
G13  22636567.109 7 118955960.032 7     -2953.207 7        42.821 7  22636565.793 3  92692959.247 3     -2301.213 3        21.629 3
G15  20583234.379 5 108165643.756 5     -1526.801 5        34.082 5  20583232.559 3  84284918.355 3     -1189.689 3        18.618 3
> 2020 08 27 08 51  1.0000000  0  3       0.000000000000
G05  23961529.809 7 125918692.614 7     -2287.973 7        44.269 7  23961531.828 5  98118467.369 5     -1783.734 5        35.302 5
G13  22637129.648 7 118958913.434 7     -2953.910 7        42.845 7  22637127.859 3  92695260.591 3     -2301.703 3        21.629 3
G15  20583525.039 5 108167172.146 5     -1529.145 5        34.417 5  20583523.266 3  84286109.294 3     -1191.527 3        20.080 3
> 2020 08 27 08 51  2.0000000  0  3       0.000000000000
G05  23961965.590 7 125920980.651 7     -2288.266 7        44.286 7  23961967.137 5  98120250.222 5     -1782.729 5        35.494 5
G13  22637691.492 7 118961866.982 7     -2953.578 7        42.891 7  22637689.875 3  92697562.070 3     -2301.498 3        21.629 3
G15  20583816.152 5 108168700.818 5     -1528.969 5        34.253 5  20583814.078 3  84287300.445 3     -1191.322 3        19.410 3
> 2020 08 27 08 51  3.0000000  0  3       0.000000000000
G05  23962400.742 7 125923268.796 7     -2287.869 7        44.236 7  23962402.488 5  98122033.195 5     -1782.988 5        35.413 5
G13  22638253.996 7 118964820.629 7     -2953.865 7        42.981 7  22638251.996 3  92699863.619 3     -2301.758 3        21.629 3
G15  20584107.070 5 108170229.793 5     -1529.471 5        34.082 5  20584104.895 3  84288491.851 3     -1191.758 3        19.410 3
> 2020 08 27 08 51  4.0000000  0  3       0.000000000000
G05  23962836.457 7 125925556.789 7     -2287.977 7        44.401 7  23962837.887 5  98123816.036 5     -1783.109 5        35.449 5
G13  22638815.059 7 118967774.069 7     -2953.502 7        43.026 7  22638814.086 3  92702165.006 3     -2301.469 3        21.406 3
G15  20584398.402 5 108171758.773 5     -1528.895 5        34.417 5  20584395.758 3  84289683.251 3     -1191.352 3        19.758 3
> 2020 08 27 08 51  5.0000000  0  3       0.000000000000
G05  23963271.422 7 125927844.916 7     -2287.949 7        44.401 7  23963273.340 5  98125598.988 5     -1782.686 5        35.274 5
G13  22639378.094 7 118970727.636 7     -2953.086 7        43.113 7  22639376.234 3  92704466.475 3     -2301.143 3        22.236 3
G15  20584689.707 5 108173288.069 5     -1528.848 5        34.082 5  20584686.645 3  84290874.900 3     -1191.260 3        18.618 3
> 2020 08 27 08 51  6.0000000  0  3       0.000000000000
G05  23963707.199 7 125930133.298 7     -2287.824 7        44.319 7  23963708.891 5  98127382.151 5     -1783.365 5        35.440 5
G13  22639939.648 7 118973681.427 7     -2953.781 7        42.936 7  22639938.176 3  92706768.148 3     -2301.764 3        21.629 3
G15  20584980.961 5 108174817.796 5     -1530.207 5        34.253 5  20584977.754 3  84292066.897 3     -1192.350 3        19.032 3
> 2020 08 27 08 51  7.0000000  0  3       0.000000000000
G05  23964143.070 7 125932421.756 7     -2289.195 7        44.512 7  23964144.371 5  98129165.361 5     -1783.785 5        35.617 5
G13  22640501.867 7 118976635.224 7     -2954.234 7        43.048 7  22640500.207 3  92709069.803 3     -2301.988 3        21.406 3
G15  20585272.305 5 108176347.733 5     -1531.305 5        34.417 5  20585268.770 2  84293259.057 2     -1193.238 2        17.069 2
> 2020 08 27 08 51  8.0000000  0  3       0.000000000000
G05  23964578.266 7 125934710.033 7     -2288.871 7        44.496 7  23964579.883 5  98130948.417 5     -1783.158 5        35.617 5
G13  22641064.129 7 118979588.852 7     -2953.617 7        42.845 7  22641062.281 3  92711371.337 3     -2301.576 3        22.043 3
G15  20585563.551 5 108177877.652 5     -1530.727 5        34.727 5  20585559.902 2  84294451.217 2     -1192.807 2        16.400 2
> 2020 08 27 08 51  9.0000000  0  3       0.000000000000
G05  23965014.578 7 125936998.283 7     -2288.498 7        44.512 7  23965015.379 5  98132731.489 5     -1783.395 5        35.728 5
G13  22641626.363 7 118982542.432 7     -2953.615 7        42.845 7  22641624.316 3  92713672.846 3     -2301.559 3        22.043 3
G15  20585854.914 5 108179407.674 5     -1529.299 5        35.288 5  20585851.223 2  84295643.422 2     -1191.715 2        17.069 2
> 2020 08 27 08 51 10.0000000  0  3       0.000000000000
G05  23965449.668 7 125939286.656 7     -2289.000 7        44.575 7  23965450.828 5  98134514.616 5     -1783.580 5        35.853 5
G13  22642188.375 7 118985496.088 7     -2954.527 7        42.751 7  22642186.457 3  92715974.378 3     -2302.232 3        21.841 3
G15  20586145.766 5 108180938.065 5     -1530.426 5        35.418 5  20586142.344 2  84296835.928 2     -1192.643 2        17.069 2
> 2020 08 27 08 51 11.0000000  0  3       0.000000000000
G05  23965884.813 7 125941575.145 7     -2289.207 7        44.651 7  23965886.258 5  98136297.857 5     -1783.248 5        35.625 5
G13  22642750.016 7 118988449.820 7     -2954.146 7        42.845 7  22642748.512 3  92718275.988 3     -2301.881 3        21.841 3
G15  20586436.816 5 108182468.704 5     -1531.219 5        35.785 5  20586433.555 2  84298028.653 2     -1193.189 2        17.649 2
> 2020 08 27 08 51 12.0000000  0  3       0.000000000000
G05  23966320.500 7 125943863.609 7     -2287.555 7        44.786 7  23966321.758 5  98138081.077 5     -1782.754 5        35.745 5
G13  22643311.766 7 118991403.524 7     -2952.828 7        42.583 7  22643310.434 3  92720577.598 3     -2300.898 3        22.236 3
G15  20586728.555 6 108183999.485 6     -1530.504 6        36.438 6  20586724.734 3  84299221.449 3     -1192.637 3        18.161 3
> 2020 08 27 08 51 13.0000000  0  3       0.000000000000
G05  23966755.922 7 125946152.188 7     -2288.717 7        44.742 7  23966757.336 5  98139864.375 5     -1783.695 5        35.934 5
G13  22643873.680 7 118994357.277 7     -2953.873 7        42.607 7  22643872.547 3  92722879.202 3     -2301.566 3        22.043 3
G15  20587020.738 6 108185530.536 6     -1531.979 6        36.635 6  20587016.117 3  84300414.484 3     -1193.734 3        18.618 3
> 2020 08 27 08 51 14.0000000  0  3       0.000000000000
G05  23967191.836 7 125948440.586 7     -2288.625 7        44.932 7  23967192.895 6  98141647.531 6     -1783.014 6        36.092 6
G13  22644435.516 7 118997310.866 7     -2954.113 7        42.458 7  22644434.656 3  92725180.698 3     -2301.900 3        21.171 3
G15  20587312.563 6 108187061.576 6     -1531.596 6        36.231 6  20587307.367 3  84301607.491 3     -1193.443 3        19.032 3
> 2020 08 27 08 51 15.0000000  0  3       0.000000000000
G05  23967627.109 7 125950729.142 7     -2288.938 7        44.974 7  23967628.410 6  98143430.825 6     -1783.369 6        36.162 6
G13  22644997.855 7 119000264.526 7     -2953.664 7        42.407 7  22644996.793 3  92727482.241 3     -2301.533 3        21.841 3
G15  20587604.172 6 108188592.919 6     -1531.650 6        36.538 6  20587598.574 3  84302800.755 3     -1193.564 3        19.410 3
> 2020 08 27 08 51 16.0000000  0  3       0.000000000000
G05  23968063.059 7 125953017.977 7     -2288.119 7        44.845 7  23968064.047 6  98145214.339 6     -1783.324 6        36.022 6
G13  22645559.582 7 119003218.492 7     -2953.432 7        42.304 7  22645558.840 3  92729784.030 3     -2301.352 3        21.629 3
G15  20587895.883 6 108190124.766 6     -1532.611 6        36.231 6  20587890.047 3  84303994.414 3     -1194.184 3        19.410 3
> 2020 08 27 08 51 17.0000000  0  3       0.000000000000
G05  23968498.406 7 125955307.105 7     -2289.578 7        44.946 7  23968499.551 6  98146998.079 6     -1784.504 6        36.053 6
G13  22646122.281 7 119006172.676 7     -2954.227 7        42.433 7  22646121.164 3  92732085.992 3     -2301.984 3        22.043 3
G15  20588187.281 6 108191657.006 6     -1533.309 6        36.538 6  20588181.641 3  84305188.336 3     -1194.719 3        20.080 3
> 2020 08 27 08 51 18.0000000  0  3       0.000000000000
G05  23968934.203 7 125957596.120 7     -2289.283 7        44.974 7  23968935.191 6  98148781.717 6     -1783.541 6        36.092 6
G13  22646684.141 7 119009126.772 7     -2954.244 7        42.382 7  22646683.367 3  92734387.877 3     -2302.018 3        22.043 3
G15  20588478.410 6 108193189.293 6     -1531.822 6        36.438 6  20588473.316 3  84306382.326 3     -1193.658 3        20.379 3
> 2020 08 27 08 51 19.0000000  0  3       0.000000000000
G05  23969369.461 7 125959885.474 7     -2289.098 7        45.058 7  23969370.918 6  98150565.624 6     -1783.631 6        36.245 6
G13  22647246.320 7 119012081.127 7     -2954.430 7        42.458 7  22647245.504 3  92736689.986 3     -2302.186 3        22.420 3
G15  20588770.004 6 108194722.099 6     -1531.910 6        36.538 6  20588764.965 3  84307576.727 3     -1193.711 3        20.379 3
> 2020 08 27 08 51 20.0000000  0  3       0.000000000000
G05  23969805.199 7 125962175.004 7     -2289.969 7        45.168 7  23969806.516 6  98152349.693 6     -1784.902 6        36.200 6
G13  22647807.836 7 119015035.649 7     -2955.398 7        42.382 7  22647807.750 3  92738992.198 3     -2302.871 3        22.768 3
G15  20589061.934 6 108196255.287 6     -1533.990 6        36.731 6  20589056.754 3  84308771.435 3     -1195.430 3        20.080 3
> 2020 08 27 08 51 21.0000000  0  3       0.000000000000
G05  23970240.688 7 125964464.502 7     -2289.471 7        45.222 7  23970242.176 6  98154133.701 6     -1783.906 6        36.245 6
G13  22648370.820 7 119017990.075 7     -2954.080 7        42.278 7  22648369.875 3  92741294.354 3     -2301.855 3        22.420 3
G15  20589354.617 6 108197788.533 6     -1533.533 6        37.263 6  20589348.535 3  84309966.160 3     -1195.039 3        20.379 3
> 2020 08 27 08 51 22.0000000  0  3       0.000000000000
G05  23970676.781 7 125966754.302 7     -2289.869 7        45.195 7  23970677.996 6  98155917.967 6     -1784.242 6        36.371 6
G13  22648933.547 7 119020944.828 7     -2955.221 7        42.330 7  22648932.348 3  92743596.746 3     -2302.758 3        22.932 3
G15  20589646.473 6 108199322.297 6     -1534.400 6        37.346 6  20589640.449 3  84311161.300 3     -1195.609 3        19.410 3
> 2020 08 27 08 51 23.0000000  0  3       0.000000000000
G05  23971112.020 7 125969044.311 7     -2290.604 7        45.141 7  23971113.781 6  98157702.375 6     -1784.813 6        36.549 6
G13  22649495.855 7 119023899.712 7     -2955.486 7        42.304 7  22649494.668 3  92745899.260 3     -2302.938 3        23.532 3
G15  20589938.336 6 108200856.398 6     -1534.646 6        37.507 6  20589932.527 3  84312356.688 3     -1195.848 3        19.032 3
> 2020 08 27 08 51 24.0000000  0  3       0.000000000000
G05  23971548.398 7 125971334.163 7     -2289.871 7        45.327 7  23971549.559 6  98159486.683 6     -1784.543 6        36.528 6
G13  22650058.156 7 119026854.432 7     -2954.480 7        42.225 7  22650056.910 3  92748201.634 3     -2302.102 3        22.932 3
G15  20590230.051 6 108202390.546 6     -1534.344 6        37.507 6  20590224.340 3  84313552.148 3     -1195.559 3        18.618 3
> 2020 08 27 08 51 25.0000000  0  3       0.000000000000
G05  23971984.191 7 125973624.341 7     -2290.174 7        45.248 7  23971985.406 6  98161271.229 6     -1784.666 6        36.687 6
G13  22650619.867 6 119029809.438 6     -2954.881 6        41.978 6  22650619.324 3  92750504.237 3     -2302.498 3        22.932 3
G15  20590522.320 6 108203925.185 6     -1534.959 6        37.585 6  20590516.395 3  84314747.956 3     -1196.072 3        19.410 3
> 2020 08 27 08 51 26.0000000  0  3       0.000000000000
G05  23972420.004 7 125975914.698 7     -2290.307 7        45.314 7  23972421.180 6  98163055.934 6     -1784.895 6        36.639 6
G13  22651182.461 7 119032764.590 7     -2955.307 7        42.006 7  22651181.789 3  92752806.963 3     -2302.844 3        22.420 3
G15  20590814.184 6 108205460.105 6     -1534.545 6        37.662 6  20590808.461 3  84315943.985 3     -1195.734 3        19.758 3
> 2020 08 27 08 51 27.0000000  0  3       0.000000000000
G05  23972855.680 7 125978205.094 7     -2291.066 7        45.340 7  23972857.012 6  98164840.632 6     -1784.850 6        36.794 6
G13  22651744.199 6 119035719.733 6     -2954.973 6        41.864 6  22651744.230 3  92755109.666 3     -2302.545 3        22.236 3
G15  20591105.906 6 108206995.276 6     -1535.891 6        37.885 6  20591100.570 3  84317140.229 3     -1196.822 3        20.080 3
> 2020 08 27 08 51 28.0000000  0  3       0.000000000000
G05  23973291.977 7 125980495.760 7     -2290.982 7        45.469 7  23973292.805 6  98166625.591 6     -1785.180 6        36.963 6
G13  22652306.703 6 119038675.136 6     -2955.455 6        41.747 6  22652306.887 3  92757412.589 3     -2303.051 3        22.043 3
G15  20591398.395 6 108208530.896 6     -1536.840 6        37.885 6  20591392.656 3  84318336.843 3     -1197.582 3        20.080 3
> 2020 08 27 08 51 29.0000000  0  3       0.000000000000
G05  23973727.117 7 125982786.573 7     -2291.451 7        45.531 7  23973728.777 6  98168410.637 6     -1785.707 6        36.963 6
G13  22652868.621 6 119041630.632 6     -2955.592 6        41.470 6  22652869.336 3  92759715.562 3     -2303.068 3        22.043 3
G15  20591690.445 6 108210066.781 6     -1537.193 6        37.812 6  20591685.020 3  84319533.646 3     -1197.797 3        20.080 3
> 2020 08 27 08 51 30.0000000  0  3       0.000000000000
G05  23974163.273 7 125985077.251 7     -2290.600 7        45.431 7  23974164.703 6  98170195.564 6     -1784.646 6        37.076 6
G13  22653431.273 6 119044585.990 6     -2955.014 6        41.438 6  22653431.746 3  92762018.439 3     -2302.654 3        21.841 3
G15  20591982.508 6 108211602.670 6     -1535.482 6        38.027 6  20591977.297 3  84320730.451 3     -1196.502 3        19.758 3
> 2020 08 27 08 51 31.0000000  0  3       0.000000000000
G05  23974599.363 7 125987368.178 7     -2291.193 7        45.469 7  23974600.707 6  98171980.701 6     -1785.369 6        37.063 6
G13  22653993.855 6 119047541.528 6     -2955.490 6        41.276 6  22653994.141 3  92764321.467 3     -2303.006 3        22.043 3
G15  20592275.363 6 108213139.030 6     -1536.605 6        37.885 6  20592269.539 3  84321927.630 3     -1197.361 3        18.618 3
> 2020 08 27 08 51 32.0000000  0  3       0.000000000000
G05  23975035.895 7 125989659.516 7     -2291.666 7        45.481 7  23975036.711 6  98173766.155 6     -1785.553 6        37.094 6
G13  22654555.594 6 119050497.517 6     -2956.588 6        41.242 6  22654556.770 3  92766624.818 3     -2303.836 3        21.841 3
G15  20592567.230 6 108214675.969 6     -1537.701 6        38.027 6  20592562.051 3  84323125.232 3     -1198.268 3        18.161 3
> 2020 08 27 08 51 33.0000000  0  3       0.000000000000
G05  23975470.797 7 125991951.120 7     -2291.400 7        45.327 7  23975472.832 6  98175551.811 6     -1785.283 6        37.026 6
G13  22655118.707 6 119053453.669 6     -2956.303 6        41.072 6  22655119.164 3  92768928.315 3     -2303.604 3        22.598 3
G15  20592859.469 6 108216213.289 6     -1536.850 6        37.812 6  20592854.648 3  84324323.136 3     -1197.510 3        19.032 3
> 2020 08 27 08 51 34.0000000  0  3       0.000000000000
G05  23975907.391 7 125994242.938 7     -2291.850 7        45.519 7  23975908.980 6  98177337.655 6     -1786.043 6        37.149 6
G13  22655681.223 6 119056410.036 6     -2956.889 6        41.242 6  22655681.723 3  92771231.967 3     -2304.088 3        22.768 3
G15  20593151.684 6 108217750.997 6     -1537.689 6        37.885 6  20593147.246 3  84325521.345 3     -1198.172 3        18.161 3
> 2020 08 27 08 51 35.0000000  0  3       0.000000000000
G05  23976343.621 7 125996534.691 7     -2292.232 7        45.519 7  23976345.051 6  98179123.440 6     -1786.256 6        36.969 6
G13  22656243.656 6 119059366.282 6     -2956.822 6        41.242 6  22656244.301 3  92773535.520 3     -2304.010 3        22.043 3
G15  20593444.391 6 108219288.844 6     -1538.951 6        38.232 6  20593439.926 3  84326719.666 3     -1199.145 3        18.618 3
> 2020 08 27 08 51 36.0000000  0  3       0.000000000000
G05  23976780.066 7 125998826.710 7     -2291.791 7        45.288 7  23976781.082 6  98180909.426 6     -1785.566 6        36.943 6
G13  22656806.453 6 119062322.773 6     -2956.518 6        41.141 6  22656806.883 3  92775839.279 3     -2303.770 3        22.236 3
G15  20593737.602 6 108220827.100 6     -1538.588 6        38.232 6  20593732.750 3  84327918.311 3     -1198.965 3        19.410 3
> 2020 08 27 08 51 37.0000000  0  3       0.000000000000
G05  23977216.391 7 126001118.679 7     -2291.871 7        45.443 7  23977217.309 6  98182695.374 6     -1785.916 6        36.898 6
G13  22657369.129 6 119065279.188 6     -2956.168 6        41.342 6  22657369.445 3  92778142.969 3     -2303.514 3        22.236 3
G15  20594030.691 6 108222365.449 6     -1539.098 6        38.428 6  20594025.496 3  84329117.026 3     -1199.412 3        19.032 3
> 2020 08 27 08 51 38.0000000  0  3       0.000000000000
G05  23977652.555 7 126003410.802 7     -2292.301 7        45.544 7  23977653.516 6  98184481.450 6     -1786.264 6        36.898 6
G13  22657931.930 6 119068235.741 6     -2956.893 6        41.470 6  22657932.016 3  92780446.772 3     -2304.096 3        22.598 3
G15  20594323.766 6 108223904.121 6     -1538.941 6        38.298 6  20594318.199 3  84330315.992 3     -1199.174 3        20.660 3
> 2020 08 27 08 51 39.0000000  0  3       0.000000000000
G05  23978088.430 7 126005703.509 7     -2292.602 7        45.568 7  23978089.875 6  98186267.966 6     -1786.203 6        36.761 6
G13  22658494.582 6 119071192.810 6     -2956.703 6        41.502 6  22658494.797 3  92782750.993 3     -2303.879 3        22.236 3
G15  20594616.547 6 108225443.545 6     -1539.320 6        38.232 6  20594611.180 3  84331515.546 3     -1199.465 3        20.379 3
> 2020 08 27 08 51 40.0000000  0  3       0.000000000000
G05  23978524.973 7 126007996.215 7     -2293.154 7        45.469 7  23978526.090 6  98188054.482 6     -1786.793 6        36.988 6
G13  22659057.477 6 119074149.890 6     -2957.744 6        41.747 6  22659057.508 3  92785055.205 3     -2304.742 3        22.598 3
G15  20594909.426 6 108226983.151 6     -1540.889 6        38.616 6  20594904.219 3  84332715.252 3     -1200.699 3        20.923 3
> 2020 08 27 08 51 41.0000000  0  3       0.000000000000
G05  23978961.195 7 126010288.965 7     -2292.828 7        45.519 7  23978962.441 6  98189841.049 6     -1786.865 6        36.963 6
G13  22659620.336 6 119077106.976 6     -2957.379 6        41.806 6  22659620.551 3  92787359.413 3     -2304.463 3        22.768 3
G15  20595202.125 6 108228522.935 6     -1540.523 6        38.491 6  20595197.273 3  84333915.091 3     -1200.498 3        21.406 3
> 2020 08 27 08 51 42.0000000  0  3       0.000000000000
G05  23979397.656 7 126012581.675 7     -2292.871 7        45.443 7  23979398.641 6  98191627.569 6     -1786.598 6        37.001 6
G13  22660183.000 6 119080063.964 6     -2957.461 6        41.717 6  22660183.246 3  92789663.552 3     -2304.527 3        22.043 3
G15  20595494.777 6 108230062.870 6     -1540.760 6        38.165 6  20595490.414 3  84335115.038 3     -1200.602 3        21.171 3
> 2020 08 27 08 51 43.0000000  0  3       0.000000000000
G05  23979834.074 7 126014875.070 7     -2293.475 7        45.443 7  23979835.004 6  98193414.636 6     -1787.295 6        37.026 6
G13  22660745.484 6 119083021.620 6     -2957.596 6        41.747 6  22660746.055 3  92791968.207 3     -2304.619 3        21.841 3
G15  20595787.676 6 108231603.601 6     -1540.311 6        38.027 6  20595783.711 3  84336315.608 3     -1200.225 3        21.171 3
> 2020 08 27 08 51 44.0000000  0  3       0.000000000000
G05  23980269.879 7 126017168.415 7     -2293.621 7        45.556 7  23980271.496 6  98195201.637 6     -1786.711 6        37.026 6
G13  22661308.785 6 119085979.188 6     -2957.313 6        41.626 6  22661308.844 3  92794272.816 3     -2304.465 3        22.043 3
G15  20596081.250 6 108233144.495 6     -1540.945 6        38.298 6  20596076.914 3  84337516.308 3     -1200.717 3        20.660 3
> 2020 08 27 08 51 45.0000000  0  3       0.000000000000
G05  23980706.574 7 126019461.731 7     -2293.701 7        45.469 7  23980707.836 6  98196988.646 6     -1786.869 6        36.879 6
G13  22661871.402 6 119088936.717 6     -2958.057 6        41.595 6  22661871.703 3  92796577.399 3     -2304.994 3        21.629 3
G15  20596374.281 6 108234685.522 6     -1541.455 6        38.165 6  20596370.289 3  84338717.100 3     -1201.127 3        20.379 3
> 2020 08 27 08 51 46.0000000  0  3       0.000000000000
G05  23981143.047 7 126021755.401 7     -2294.201 7        45.418 7  23981144.305 6  98198775.926 6     -1787.471 6        36.801 6
G13  22662433.938 6 119091894.552 6     -2958.381 6        41.626 6  22662434.480 3  92798882.198 3     -2305.166 3        22.043 3
G15  20596667.945 6 108236227.060 6     -1542.326 6        38.298 6  20596663.766 3  84339918.306 3     -1201.846 3        20.660 3
> 2020 08 27 08 51 47.0000000  0  3       0.000000000000
G05  23981579.254 7 126024049.110 7     -2293.721 7        45.327 7  23981580.957 6  98200563.233 6     -1787.207 6        36.687 6
G13  22662996.352 6 119094852.374 6     -2957.568 6        41.502 6  22662997.352 3  92801187.001 3     -2304.609 3        22.420 3
G15  20596961.348 6 108237768.770 6     -1541.924 6        38.165 6  20596957.125 3  84341119.638 3     -1201.602 3        21.629 3
> 2020 08 27 08 51 48.0000000  0  3       0.000000000000
G05  23982016.250 7 126026342.965 7     -2293.613 7        45.392 7  23982017.480 6  98202350.650 6     -1787.352 6        36.680 6
G13  22663559.555 6 119097810.318 6     -2957.910 6        41.502 6  22663560.301 3  92803491.893 3     -2304.871 3        22.236 3
G15  20597254.395 6 108239310.783 6     -1541.777 6        38.364 6  20597250.715 3  84342321.211 3     -1201.336 3        20.923 3
> 2020 08 27 08 51 49.0000000  0  3       0.000000000000
G05  23982452.281 7 126028637.126 7     -2293.947 7        45.405 7  23982453.996 6  98204138.313 6     -1787.977 6        36.754 6
G13  22664123.508 6 119100768.527 6     -2958.264 6        41.470 6  22664123.195 3  92805796.998 3     -2305.184 3        21.841 3
G15  20597547.758 6 108240853.290 6     -1542.912 6        38.428 6  20597544.141 3  84343523.159 3     -1202.275 3        20.923 3
> 2020 08 27 08 51 50.0000000  0  3       0.000000000000
G05  23982888.980 7 126030931.458 7     -2294.555 7        45.366 7  23982890.672 6  98205926.101 6     -1788.152 6        36.653 6
G13  22664685.559 6 119103726.902 6     -2959.145 6        41.533 6  22664686.117 3  92808102.189 3     -2305.771 3        20.660 3
G15  20597841.512 6 108242396.114 6     -1542.992 6        38.491 6  20597837.906 3  84344725.369 3     -1202.293 3        20.379 3
> 2020 08 27 08 51 51.0000000  0  3       0.000000000000
G05  23983325.836 7 126033225.896 7     -2294.801 7        45.288 7  23983327.324 6  98207713.969 6     -1788.256 6        36.619 6
G13  22665248.617 6 119106685.305 6     -2958.336 6        41.470 6  22665249.035 3  92810407.450 3     -2305.248 3        21.406 3
G15  20598134.988 6 108243939.231 6     -1544.508 6        38.298 6  20598131.609 3  84345927.807 3     -1203.529 3        20.660 3
> 2020 08 27 08 51 52.0000000  0  3       0.000000000000
G05  23983762.508 7 126035520.324 7     -2294.477 7        45.248 7  23983764.012 6  98209501.810 6     -1787.725 6        36.500 6
G13  22665811.641 6 119109643.724 6     -2958.947 6        41.276 6  22665812.027 3  92812712.709 3     -2305.713 3        21.406 3
G15  20598429.855 6 108245482.501 6     -1544.262 6        37.885 6  20598425.422 3  84347130.348 3     -1203.252 3        21.406 3
> 2020 08 27 08 51 53.0000000  0  3       0.000000000000
G05  23984199.480 7 126037814.949 7     -2294.725 7        45.168 7  23984200.625 6  98211289.851 6     -1788.287 6        36.563 6
G13  22666374.824 6 119112602.278 6     -2958.475 6        41.374 6  22666375.109 3  92815018.068 3     -2305.240 3        20.923 3
G15  20598723.309 6 108247026.111 6     -1544.061 6        38.096 6  20598719.289 3  84348333.174 3     -1203.131 3        21.406 3
> 2020 08 27 08 51 54.0000000  0  3       0.000000000000
G05  23984636.082 7 126040109.809 7     -2294.266 7        45.141 7  23984637.297 6  98213078.054 6     -1787.768 6        36.429 6
G13  22666937.773 6 119115561.080 6     -2959.031 6        41.374 6  22666938.246 3  92817323.622 3     -2305.717 3        21.171 3
G15  20599016.961 6 108248570.169 6     -1544.676 6        37.885 6  20599013.297 3  84349536.302 3     -1203.588 3        22.420 3
> 2020 08 27 08 51 55.0000000  0  3       0.000000000000
G05  23985072.199 7 126042404.627 7     -2294.973 7        45.182 7  23985073.902 6  98214866.211 6     -1788.238 6        36.312 6
G13  22667500.527 6 119118519.748 6     -2958.900 6        41.438 6  22667501.387 3  92819629.059 3     -2305.621 3        21.629 3
G15  20599310.988 6 108250114.295 6     -1545.207 6        37.956 6  20599307.270 3  84350739.497 3     -1204.059 3        22.598 3
> 2020 08 27 08 51 56.0000000  0  3       0.000000000000
G05  23985509.250 7 126044699.758 7     -2295.080 7        45.031 7  23985510.641 6  98216654.626 6     -1788.289 6        36.327 6
G13  22668064.074 6 119121478.733 6     -2959.475 6        41.309 6  22668064.559 3  92821934.764 3     -2306.043 3        20.660 3
G15  20599604.805 6 108251658.905 6     -1545.275 6        38.027 6  20599601.055 3  84351943.095 3     -1204.090 3        22.598 3
> 2020 08 27 08 51 57.0000000  0  3       0.000000000000
G05  23985946.289 7 126046994.798 7     -2294.926 7        45.086 7  23985947.348 6  98218442.968 6     -1788.385 6        36.407 6
G13  22668627.316 6 119124437.574 6     -2959.027 6        41.242 6  22668627.617 3  92824240.350 3     -2305.785 3        21.629 3
G15  20599898.750 6 108253203.577 6     -1545.121 6        38.096 6  20599895.188 3  84353146.724 3     -1203.971 3        22.768 3
> 2020 08 27 08 51 58.0000000  0  3       0.000000000000
G05  23986382.414 7 126049290.150 7     -2295.031 7        45.058 7  23986384.305 6  98220231.561 6     -1788.506 6        36.422 6
G13  22669189.938 6 119127396.688 6     -2958.527 6        41.502 6  22669190.781 3  92826546.151 3     -2305.225 3        21.406 3
G15  20600192.500 6 108254748.737 6     -1545.109 6        38.616 6  20600189.281 3  84354350.730 3     -1204.014 3        22.236 3
> 2020 08 27 08 51 59.0000000  0  3       0.000000000000
G05  23986819.156 7 126051585.631 7     -2295.443 7        45.058 7  23986821.129 6  98222020.243 6     -1788.932 6        36.465 6
G13  22669753.457 6 119130355.917 6     -2959.252 6        41.438 6  22669753.957 3  92828852.041 3     -2305.924 3        20.660 3
G15  20600487.152 6 108256294.181 6     -1545.736 6        38.428 6  20600483.316 3  84355555.006 3     -1204.557 3        21.171 3
> 2020 08 27 08 52  0.0000000  0  3       0.000000000000
G05  23987256.387 7 126053881.268 7     -2296.027 7        45.045 7  23987258.020 6  98223809.040 6     -1789.006 6        36.275 6
G13  22670316.754 6 119133315.275 6     -2959.621 6        41.406 6  22670317.023 3  92831158.021 3     -2306.252 3        20.923 3
G15  20600781.289 6 108257839.941 6     -1546.164 6        38.554 6  20600777.629 3  84356759.514 3     -1204.826 3        20.923 3
> 2020 08 27 08 52  1.0000000  0  3       0.000000000000
G05  23987692.617 7 126056176.724 7     -2295.227 7        45.072 7  23987694.793 6  98225597.729 6     -1788.611 6        36.116 6
G13  22670879.617 6 119136274.407 6     -2958.859 6        41.438 6  22670880.176 3  92833463.862 3     -2305.584 3        21.171 3
G15  20601075.145 6 108259385.691 6     -1545.246 6        38.298 6  20601071.824 3  84357964.016 3     -1204.119 3        20.660 3
> 2020 08 27 08 52  2.0000000  0  3       0.000000000000
G05  23988129.758 7 126058472.515 7     -2295.465 7        45.003 7  23988131.773 6  98227386.638 6     -1788.906 6        36.200 6
G13  22671442.820 6 119139233.817 6     -2959.586 6        41.470 6  22671443.266 3  92835769.895 3     -2306.172 3        21.841 3
G15  20601369.047 6 108260931.891 6     -1545.914 6        38.554 6  20601366.215 3  84359168.818 3     -1204.531 3        21.841 3
> 2020 08 27 08 52  3.0000000  0  3       0.000000000000
G05  23988566.781 7 126060768.259 7     -2296.461 7        44.831 7  23988568.527 6  98229175.535 6     -1789.654 6        36.177 6
G13  22672006.484 6 119142193.182 6     -2960.855 6        41.438 6  22672006.355 3  92838075.881 3     -2307.096 3        22.043 3
G15  20601663.840 6 108262478.264 6     -1547.201 6        38.298 6  20601660.422 3  84360373.787 3     -1205.611 3        21.406 3
> 2020 08 27 08 52  4.0000000  0  3       0.000000000000
G05  23989003.152 7 126063064.092 7     -2295.396 7        44.903 7  23989005.387 6  98230964.489 6     -1788.664 6        36.215 6
G13  22672569.348 6 119145152.576 6     -2959.146 6        41.502 6  22672569.723 3  92840381.896 3     -2305.793 3        22.236 3
G15  20601957.691 6 108264024.897 6     -1547.682 6        38.298 6  20601954.961 3  84361578.963 3     -1205.969 3        21.841 3
> 2020 08 27 08 52  5.0000000  0  3       0.000000000000
G05  23989440.453 7 126065360.174 7     -2295.865 7        44.621 7  23989442.285 6  98232753.623 6     -1788.871 6        36.030 6
G13  22673132.426 6 119148112.151 6     -2958.502 6        41.342 6  22673132.840 3  92842688.066 3     -2305.258 3        22.932 3
G15  20602252.617 6 108265571.844 6     -1546.590 6        38.165 6  20602249.340 3  84362784.379 3     -1205.199 3        21.841 3
> 2020 08 27 08 52  6.0000000  0  3       0.000000000000
G05  23989877.691 7 126067656.371 7     -2295.781 7        44.682 7  23989879.379 6  98234542.883 6     -1789.264 6        36.245 6
G13  22673695.441 6 119151071.870 6     -2959.590 6        41.175 6  22673696.086 3  92844994.326 3     -2306.139 3        22.236 3
G15  20602546.617 6 108267119.138 6     -1546.621 6        38.027 6  20602543.844 3  84363990.063 3     -1205.143 3        21.629 3
> 2020 08 27 08 52  7.0000000  0  3       0.000000000000
G05  23990314.555 7 126069952.853 7     -2296.844 7        44.712 7  23990316.289 6  98236332.333 6     -1789.660 6        36.154 6
G13  22674259.086 6 119154031.810 6     -2960.301 6        41.276 6  22674259.359 3  92847300.773 3     -2306.691 3        22.043 3
G15  20602841.250 6 108268666.856 6     -1547.371 6        38.165 6  20602838.547 3  84365196.056 3     -1205.695 3        21.629 3
> 2020 08 27 08 52  8.0000000  0  3       0.000000000000
G05  23990751.184 7 126072249.394 7     -2297.453 7        44.559 7  23990753.359 5  98238121.821 5     -1789.781 5        35.982 5
G13  22674821.922 6 119156991.769 6     -2960.617 6        41.276 6  22674822.551 3  92849607.233 3     -2306.930 3        21.841 3
G15  20603135.930 6 108270214.789 6     -1548.273 6        38.428 6  20603133.066 3  84366402.228 3     -1206.383 3        21.171 3
> 2020 08 27 08 52  9.0000000  0  3       0.000000000000
G05  23991188.348 7 126074545.737 7     -2296.234 7        44.528 7  23991190.281 5  98239911.197 5     -1789.289 5        35.886 5
G13  22675385.008 6 119159951.515 6     -2959.672 6        41.470 6  22675385.738 3  92851913.527 3     -2306.262 3        20.660 3
G15  20603431.148 6 108271762.711 6     -1547.855 6        38.096 6  20603427.598 3  84367608.400 3     -1206.223 3        21.406 3
> 2020 08 27 08 52 10.0000000  0  3       0.000000000000
G05  23991625.008 7 126076842.365 7     -2296.592 7        44.481 7  23991627.285 5  98241700.785 5     -1789.914 5        35.982 5
G13  22675948.590 6 119162911.517 6     -2959.949 6        41.242 6  22675949.090 3  92854220.039 3     -2306.438 3        19.758 3
G15  20603726.148 6 108273311.076 6     -1548.604 6        38.491 6  20603722.340 3  84368814.913 3     -1206.750 3        21.171 3
> 2020 08 27 08 52 11.0000000  0  3       0.000000000000
G05  23992062.113 7 126079139.002 7     -2296.234 7        44.253 7  23992064.359 5  98243490.370 5     -1789.578 5        35.894 5
G13  22676512.188 6 119165871.498 6     -2959.984 6        41.175 6  22676512.328 3  92856526.505 3     -2306.395 3        20.660 3
G15  20604020.730 6 108274859.613 6     -1548.441 6        38.364 6  20604016.953 3  84370021.562 3     -1206.512 3        21.629 3
> 2020 08 27 08 52 12.0000000  0  3       0.000000000000
G05  23992498.973 7 126081435.779 7     -2296.756 7        44.151 7  23992501.160 5  98245280.061 5     -1789.686 5        35.634 5
G13  22677075.250 6 119168831.570 6     -2960.330 6        41.141 6  22677075.609 3  92858833.050 3     -2306.795 3        20.080 3
G15  20604315.355 6 108276408.411 6     -1548.748 6        38.676 6  20604312.008 3  84371228.407 3     -1206.834 3        22.043 3
> 2020 08 27 08 52 13.0000000  0  3       0.000000000000
G05  23992936.016 7 126083732.642 7     -2297.258 7        44.168 7  23992938.289 5  98247069.797 5     -1789.754 5        35.547 5
G13  22677638.648 6 119171791.658 6     -2959.660 6        41.037 6  22677638.934 3  92861139.620 3     -2306.297 3        20.080 3
G15  20604609.309 6 108277957.468 6     -1549.348 6        38.491 6  20604606.820 3  84372435.475 3     -1207.293 3        22.598 3
> 2020 08 27 08 52 14.0000000  0  3       0.000000000000
G05  23993372.879 7 126086029.741 7     -2297.260 7        44.151 7  23993375.496 5  98248859.769 5     -1790.203 5        35.458 5
G13  22678201.145 6 119174751.993 6     -2959.916 6        41.107 6  22678202.219 3  92863446.361 3     -2306.375 3        20.080 3
G15  20604904.367 6 108279506.937 6     -1549.232 6        38.428 6  20604901.852 3  84373642.852 3     -1207.195 3        22.768 3
> 2020 08 27 08 52 15.0000000  0  3       0.000000000000
G05  23993810.344 7 126088326.968 7     -2297.082 7        43.959 7  23993812.465 5  98250649.816 5     -1790.180 5        35.494 5
G13  22678764.676 6 119177712.434 6     -2960.266 6        41.209 6  22678765.563 3  92865753.218 3     -2306.781 3        20.379 3
G15  20605199.027 6 108281056.714 6     -1549.758 6        38.554 6  20605196.898 3  84374850.479 3     -1207.582 3        22.043 3
> 2020 08 27 08 52 16.0000000  0  3       0.000000000000
G05  23994247.344 7 126090624.545 7     -2298.002 7        43.959 7  23994249.746 5  98252440.118 5     -1790.279 5        35.485 5
G13  22679328.594 6 119180673.139 6     -2961.244 6        41.242 6  22679328.867 3  92868060.260 3     -2307.447 3        20.923 3
G15  20605493.648 6 108282606.902 6     -1550.189 6        38.165 6  20605491.934 3  84376058.435 3     -1207.975 3        22.043 3
> 2020 08 27 08 52 17.0000000  0  3       0.000000000000
G05  23994684.711 7 126092922.263 7     -2297.887 7        43.923 7  23994686.898 5  98254230.544 5     -1790.584 5        35.302 5
G13  22679891.883 6 119183633.951 6     -2960.994 6        41.002 6  22679892.398 3  92870367.395 3     -2307.205 3        21.171 3
G15  20605788.641 6 108284157.489 6     -1551.285 6        38.027 6  20605787.125 3  84377266.689 3     -1208.885 3        21.841 3
> 2020 08 27 08 52 18.0000000  0  3       0.000000000000
G05  23995122.531 7 126095220.355 7     -2297.957 7        43.869 7  23995124.277 5  98256021.257 5     -1790.389 5        35.265 5
G13  22680455.914 6 119186595.089 6     -2960.555 6        41.141 6  22680455.926 3  92872674.771 3     -2306.834 3        21.171 3
G15  20606084.230 6 108285708.579 6     -1551.453 6        37.812 6  20606082.285 3  84378475.334 3     -1208.943 3        22.236 3
> 2020 08 27 08 52 19.0000000  0  3       0.000000000000
G05  23995559.746 7 126097518.835 7     -2298.230 7        43.777 7  23995561.563 5  98257812.279 5     -1791.086 5        35.179 5
G13  22681019.047 6 119189556.608 6     -2961.729 6        41.072 6  22681019.746 3  92874982.430 3     -2307.766 3        21.171 3
G15  20606379.066 6 108287260.186 6     -1552.879 6        37.662 6  20606377.633 3  84379684.375 3     -1210.012 3        22.598 3
> 2020 08 27 08 52 20.0000000  0  3       0.000000000000
G05  23995997.102 7 126099817.214 7     -2298.350 7        43.547 7  23995998.934 5  98259603.229 5     -1790.980 5        35.330 5
G13  22681582.609 6 119192517.965 6     -2961.846 6        41.107 6  22681583.227 3  92877289.982 3     -2307.836 3        20.080 3
G15  20606674.191 6 108288811.869 6     -1552.471 6        37.427 6  20606673.016 3  84380893.489 3     -1209.750 3        22.768 3
> 2020 08 27 08 52 21.0000000  0  3       0.000000000000
G05  23996434.355 7 126102116.003 7     -2298.773 7        43.567 7  23996436.332 5  98261394.477 5     -1791.057 5        35.217 5
G13  22682146.359 6 119195479.688 6     -2960.727 6        40.967 6  22682147.031 3  92879597.797 3     -2307.053 3        20.379 3
G15  20606969.066 6 108290364.085 6     -1551.605 6        37.427 6  20606968.523 3  84382103.000 3     -1209.025 3        22.236 3
> 2020 08 27 08 52 22.0000000  0  3       0.000000000000
G05  23996871.605 7 126104415.044 7     -2298.959 7        43.567 7  23996873.824 5  98263185.949 5     -1791.725 5        35.131 5
G13  22682709.957 6 119198441.670 6     -2961.811 6        41.175 6  22682710.660 3  92881905.840 3     -2307.975 3        19.758 3
G15  20607264.227 6 108291916.772 6     -1552.494 6        37.263 6  20607264.125 3  84383312.896 3     -1209.713 3        21.841 3
> 2020 08 27 08 52 23.0000000  0  3       0.000000000000
G05  23997308.918 7 126106714.346 7     -2300.002 7        43.507 7  23997311.363 5  98264977.573 5     -1791.658 5        35.293 5
G13  22683273.906 6 119201403.851 6     -2962.521 6        40.967 6  22683274.336 3  92884214.032 3     -2308.416 3        19.758 3
G15  20607560.449 6 108293469.854 6     -1553.283 6        37.093 6  20607559.906 3  84384523.093 3     -1210.352 3        21.629 3
> 2020 08 27 08 52 24.0000000  0  3       0.000000000000
G05  23997746.715 7 126109013.752 7     -2299.053 7        43.625 7  23997748.832 5  98266769.346 5     -1791.498 5        35.284 5
G13  22683837.191 6 119204366.104 6     -2962.158 6        40.822 6  22683838.008 3  92886522.293 3     -2308.178 3        19.410 3
G15  20607855.867 6 108295023.226 6     -1553.525 6        36.915 6  20607855.652 3  84385733.504 3     -1210.424 3        22.043 3
> 2020 08 27 08 52 25.0000000  0  3       0.000000000000
G05  23998184.566 7 126111313.350 7     -2299.115 7        43.720 7  23998186.324 5  98268561.219 5     -1791.109 5        35.170 5
G13  22684400.535 6 119207328.517 6     -2962.104 6        40.931 6  22684401.625 3  92888830.674 3     -2308.141 3        19.410 3
G15  20608151.918 6 108296576.902 6     -1553.723 6        37.263 6  20608151.344 3  84386944.165 3     -1210.680 3        22.598 3
> 2020 08 27 08 52 26.0000000  0  3       0.000000000000
G05  23998622.148 7 126113613.039 7     -2300.166 7        43.663 7  23998624.066 5  98270353.207 5     -1792.650 5        35.227 5
G13  22684964.898 6 119210291.010 6     -2963.506 6        40.967 6  22684965.355 3  92891139.139 3     -2309.291 3        18.618 3
G15  20608447.551 6 108298130.889 6     -1554.854 6        37.005 6  20608447.293 3  84388155.065 3     -1211.713 3        21.841 3
> 2020 08 27 08 52 27.0000000  0  3       0.000000000000
G05  23999059.277 7 126115912.929 7     -2299.350 7        43.739 7  23999061.555 5  98272145.321 5     -1791.721 5        35.170 5
G13  22685528.664 6 119213253.625 6     -2962.064 6        41.072 6  22685529.168 3  92893447.641 3     -2308.068 3        19.032 3
G15  20608743.023 6 108299685.186 6     -1554.252 6        36.635 6  20608743.293 3  84389366.200 3     -1211.115 3        20.379 3
> 2020 08 27 08 52 28.0000000  0  3       0.000000000000
G05  23999497.656 7 126118213.177 7     -2300.119 7        43.777 7  23999499.219 5  98273937.715 5     -1792.381 5        35.358 5
G13  22686092.824 6 119216216.569 6     -2962.463 6        40.931 6  22686092.996 3  92895756.439 3     -2308.434 3        19.032 3
G15  20609039.023 6 108301239.991 6     -1553.928 6        36.824 6  20609039.270 3  84390577.757 3     -1210.916 3        20.660 3
> 2020 08 27 08 52 29.0000000  0  3       0.000000000000
G05  23999935.207 7 126120513.488 7     -2300.342 7        43.663 7  23999937.012 5  98275730.161 5     -1792.695 5        35.339 5
G13  22686657.008 6 119219179.589 6     -2963.467 6        40.822 6  22686656.754 3  92898065.272 3     -2309.121 3        20.080 3
G15  20609334.629 6 108302795.051 6     -1555.010 6        36.438 6  20609335.344 3  84391789.473 3     -1211.836 3        20.660 3
> 2020 08 27 08 52 30.0000000  0  3       0.000000000000
G05  24000372.500 7 126122813.864 7     -2300.266 7        43.682 7  24000374.691 5  98277522.656 5     -1792.734 5        35.082 5
G13  22687220.508 6 119222142.609 6     -2963.176 6        40.931 6  22687220.508 3  92900374.108 3     -2308.984 3        18.618 3
G15  20609630.547 6 108304350.369 6     -1555.695 6        36.635 6  20609631.391 3  84393001.405 3     -1211.092 3        20.379 3
> 2020 08 27 08 52 31.0000000  0  3       0.000000000000
G05  24000810.672 7 126125114.537 7     -2301.105 7        43.795 7  24000812.605 5  98279315.389 5     -1793.217 5        34.983 5
G13  22687784.602 6 119225105.852 6     -2963.176 6        40.634 6  22687784.414 3  92902683.107 3     -2308.939 3        20.080 3
G15  20609926.199 6 108305906.067 6     -1555.207 6        36.124 6  20609927.527 3  84394213.572 3     -1209.799 3        20.923 3
> 2020 08 27 08 52 32.0000000  0  3       0.000000000000
G05  24001248.465 7 126127415.099 7     -2300.252 7        43.869 7  24001250.441 5  98281108.051 5     -1792.689 5        34.902 5
G13  22688348.027 6 119228069.003 6     -2963.182 6        40.785 6  22688348.316 3  92904992.063 3     -2309.018 3        19.758 3
G15  20610222.758 5 108307461.899 5     -1556.580 5        35.785 5  20610223.559 3  84395425.976 3     -1212.787 3        20.660 3
> 2020 08 27 08 52 33.0000000  0  3       0.000000000000
G05  24001686.047 7 126129715.795 7     -2300.838 7        43.527 7  24001688.320 5  98282900.769 5     -1792.559 5        34.892 5
G13  22688911.531 6 119231032.221 6     -2962.869 6        40.595 6  22688912.348 3  92907301.049 3     -2308.750 3        20.379 3
G15  20610518.680 5 108309017.954 5     -1555.096 5        35.418 5  20610519.781 3  84396638.514 3     -1213.086 3        21.629 3
> 2020 08 27 08 52 34.0000000  0  3       0.000000000000
G05  24002124.602 7 126132016.666 7     -2300.529 7        43.701 7  24002126.219 5  98284693.662 5     -1792.871 5        34.809 5
G13  22689475.148 6 119233995.582 6     -2962.600 6        40.397 6  22689476.277 3  92909610.171 3     -2308.555 3        21.406 3
G15  20610814.715 5 108310574.396 5     -1556.799 5        35.418 5  20610815.973 3  84397851.317 3     -1213.477 3        20.379 3
> 2020 08 27 08 52 35.0000000  0  3       0.000000000000
G05  24002562.105 7 126134317.683 7     -2301.592 7        43.941 7  24002564.137 5  98286486.643 5     -1792.975 5        34.617 5
G13  22690039.574 6 119236959.051 6     -2963.408 6        40.710 6  22690040.133 3  92911919.355 3     -2309.146 3        20.923 3
G15  20611111.273 5 108312131.059 5     -1555.908 5        35.418 5  20611112.262 3  84399064.298 3     -1211.568 3        21.171 3
> 2020 08 27 08 52 36.0000000  0  3       0.000000000000
G05  24002999.957 7 126136618.727 7     -2300.391 7        43.959 7  24003001.844 5  98288279.680 5     -1792.576 5        34.767 5
G13  22690603.348 6 119239922.532 6     -2963.105 6        40.672 6  22690604.191 3  92914228.572 3     -2308.846 3        20.080 3
G15  20611407.465 5 108313687.994 5     -1557.168 5        34.575 5  20611408.523 3  84400277.519 3     -1213.377 3        21.406 3
> 2020 08 27 08 52 37.0000000  0  3       0.000000000000
G05  24003437.914 7 126138920.107 7     -2301.389 7        44.100 7  24003439.762 5  98290072.950 5     -1793.168 5        34.799 5
G13  22691167.227 6 119242886.302 6     -2964.182 6        40.477 6  22691168.098 3  92916537.998 3     -2309.809 3        20.080 3
G15  20611703.902 5 108315245.361 5     -1556.779 5        34.727 5  20611704.992 3  84401490.993 3     -1212.033 3        21.171 3
> 2020 08 27 08 52 38.0000000  0  3       0.000000000000
G05  24003876.227 7 126141221.589 7     -2301.219 7        44.236 7  24003877.945 5  98291866.309 5     -1793.162 5        34.973 5
G13  22691732.176 6 119245850.121 6     -2963.309 6        40.356 6  22691732.031 3  92918847.472 3     -2309.021 3        20.660 3
G15  20611999.695 5 108316803.030 5     -1556.180 5        34.417 5  20612001.641 3  84402704.820 3     -1214.197 3        21.406 3
> 2020 08 27 08 52 39.0000000  0  3       0.000000000000
G05  24004314.379 7 126143523.327 7     -2301.887 7        44.449 7  24004315.781 5  98293659.876 5     -1793.994 5        35.013 5
G13  22692295.816 6 119248814.191 6     -2964.523 6        40.634 6  22692295.816 3  92921157.140 3     -2310.029 3        20.080 3
G15  20612296.328 5 108318361.099 5     -1558.898 5        33.720 5  20612298.348 3  84403918.909 3     -1214.189 3        21.841 3
> 2020 08 27 08 52 40.0000000  0  3       0.000000000000
G05  24004752.242 7 126145825.132 7     -2302.066 7        44.543 7  24004753.629 5  98295453.480 5     -1793.883 5        35.160 5
G13  22692859.887 6 119251778.256 6     -2964.195 6        40.517 6  22692859.961 3  92923466.788 3     -2309.762 3        19.410 3
G15  20612592.102 5 108319919.408 5     -1559.078 5        33.905 5  20612594.949 3  84405133.199 3     -1214.840 3        21.406 3
> 2020 08 27 08 52 41.0000000  0  3       0.000000000000
G05  24005189.953 7 126148126.763 7     -2301.488 7        44.496 7  24005191.582 5  98297246.959 5     -1793.258 5        35.150 5
G13  22693423.520 6 119254742.136 6     -2964.203 6        40.556 6  22693424.078 3  92925776.308 3     -2309.742 3        19.758 3
G15  20612888.297 5 108321477.691 5     -1558.617 5        33.325 5  20612891.543 3  84406347.409 3     -1215.152 3        20.923 3
> 2020 08 27 08 52 42.0000000  0  3       0.000000000000
G05  24005627.551 7 126150428.742 7     -2302.027 7        44.528 7  24005629.625 5  98299040.705 5     -1793.840 5        35.208 5
G13  22693988.039 6 119257706.307 6     -2964.197 6        40.595 6  22693988.211 3  92928086.040 3     -2309.816 3        19.032 3
G15  20613184.520 5 108323036.458 5     -1558.961 5        33.527 5  20613188.238 3  84407562.076 3     -1214.992 3        20.923 3
> 2020 08 27 08 52 43.0000000  0  3       0.000000000000
G05  24006065.918 7 126152730.826 7     -2302.238 7        44.667 7  24006067.691 5  98300834.527 5     -1793.756 5        35.082 5
G13  22694551.758 6 119260670.547 6     -2964.699 6        40.356 6  22694552.199 3  92930395.829 3     -2310.104 3        19.758 3
G15  20613481.227 5 108324595.491 5     -1557.941 5        33.113 5  20613484.961 3  84408776.891 3     -1214.516 3        20.923 3
> 2020 08 27 08 52 44.0000000  0  3       0.000000000000
G05  24006504.172 7 126155033.030 7     -2301.967 7        44.621 7  24006505.773 5  98302628.454 5     -1793.475 5        35.102 5
G13  22695116.219 6 119263634.872 6     -2964.018 6        40.356 6  22695116.402 3  92932705.687 3     -2309.666 3        20.080 3
G15  20613777.531 5 108326154.822 5     -1560.287 5        32.656 5  20613781.895 3  84409991.909 3     -1214.451 3        20.379 3
> 2020 08 27 08 52 45.0000000  0  3       0.000000000000
G05  24006942.680 7 126157335.399 7     -2302.170 7        44.772 7  24006943.867 5  98304422.509 5     -1793.807 5        35.160 5
G13  22695680.645 6 119266599.337 6     -2964.826 6        40.634 6  22695680.430 3  92935015.670 3     -2310.213 3        20.923 3
G15  20614074.234 5 108327714.492 5     -1559.904 5        32.891 5  20614078.813 3  84411207.286 3     -1215.994 3        20.923 3
> 2020 08 27 08 52 46.0000000  0  3       0.000000000000
G05  24007380.633 7 126159637.736 7     -2302.549 7        44.757 7  24007381.977 5  98306216.549 5     -1793.898 5        35.227 5
G13  22696244.230 6 119269563.757 6     -2965.146 6        40.517 6  22696244.348 3  92937325.593 3     -2310.557 3        21.406 3
G15  20614371.242 5 108329274.283 5     -1560.674 5        33.527 5  20614375.590 3  84412422.648 3     -1215.031 3        21.406 3
> 2020 08 27 08 52 47.0000000  0  3       0.000000000000
G05  24007819.113 7 126161939.917 7     -2301.660 7        44.874 7  24007819.941 5  98308010.476 5     -1794.170 5        35.274 5
G13  22696807.918 6 119272527.954 6     -2965.195 6        40.517 6  22696808.363 3  92939635.354 3     -2310.635 3        21.841 3
G15  20614668.348 5 108330834.071 5     -1558.225 5        33.325 5  20614672.441 3  84413638.077 3     -1215.615 3        20.923 3
> 2020 08 27 08 52 48.0000000  0  3       0.000000000000
G05  24008257.035 7 126164242.537 7     -2303.021 7        44.917 7  24008258.152 5  98309804.691 5     -1794.697 5        35.311 5
G13  22697371.906 6 119275492.513 6     -2964.936 6        40.356 6  22697372.465 3  92941945.400 3     -2310.342 3        21.171 3
G15  20614965.469 5 108332394.487 5     -1561.654 5        32.891 5  20614969.332 3  84414853.939 3     -1216.846 3        21.171 3
> 2020 08 27 08 52 49.0000000  0  3       0.000000000000
G05  24008695.352 7 126166545.246 7     -2303.180 7        44.651 7  24008696.383 5  98311599.001 5     -1794.559 5        35.121 5
G13  22697936.145 6 119278457.148 6     -2965.328 6        40.477 6  22697936.414 3  92944255.530 3     -2310.750 3        21.406 3
G15  20615262.125 5 108333955.098 5     -1562.438 5        33.325 5  20615266.332 3  84416069.995 3     -1217.391 3        21.171 3
> 2020 08 27 08 52 50.0000000  0  3       0.000000000000
G05  24009133.531 7 126168848.067 7     -2303.602 7        44.757 7  24009134.590 5  98313393.407 5     -1794.891 5        35.053 5
G13  22698500.242 6 119281421.859 6     -2965.301 6        40.437 6  22698500.613 3  92946565.689 3     -2310.652 3        20.923 3
G15  20615558.785 5 108335515.930 5     -1561.180 5        32.891 5  20615563.648 3  84417286.251 3     -1216.920 3        21.841 3
> 2020 08 27 08 52 51.0000000  0  3       0.000000000000
G05  24009571.723 7 126171151.268 7     -2304.086 7        45.058 7  24009572.898 5  98315188.116 5     -1795.449 5        35.217 5
G13  22699064.355 6 119284386.932 6     -2965.785 6        40.356 6  22699064.844 3  92948876.150 3     -2311.094 3        20.080 3
G15  20615856.461 5 108337077.404 5     -1563.031 5        33.325 5  20615860.625 3  84418502.972 3     -1216.250 3        22.043 3
> 2020 08 27 08 52 52.0000000  0  3       0.000000000000
G05  24010010.566 7 126173454.195 7     -2302.961 7        45.100 7  24010011.125 5  98316982.590 5     -1794.383 5        35.179 5
G13  22699628.836 6 119287351.696 6     -2964.836 6        40.273 6  22699628.992 3  92951186.343 3     -2310.164 3        19.032 3
G15  20616153.215 5 108338638.618 5     -1558.957 5        33.113 5  20616157.750 3  84419719.533 3     -1215.010 3        21.629 3
> 2020 08 27 08 52 53.0000000  0  3       0.000000000000
G05  24010449.098 7 126175757.201 7     -2302.604 7        45.058 7  24010449.324 5  98318777.137 5     -1794.025 5        35.013 5
G13  22700193.430 6 119290316.478 6     -2964.344 6        40.231 6  22700193.098 3  92953496.565 3     -2309.787 3        19.410 3
G15  20616450.512 5 108340200.216 5     -1561.549 5        32.891 5  20616454.961 3  84420936.333 3     -1216.680 3        20.923 3
> 2020 08 27 08 52 54.0000000  0  3       0.000000000000
G05  24010886.641 7 126178060.569 7     -2303.035 7        45.045 7  24010887.715 5  98320571.976 5     -1794.617 5        35.131 5
G13  22700757.180 6 119293281.620 6     -2965.477 6        40.189 6  22700757.336 3  92955807.069 3     -2310.711 3        19.410 3
G15  20616748.254 5 108341762.327 5     -1562.586 5        32.407 5  20616752.203 3  84422153.568 3     -1217.566 3        21.629 3
> 2020 08 27 08 52 55.0000000  0  3       0.000000000000
G05  24011325.328 7 126180363.969 7     -2303.861 7        45.058 7  24011325.988 5  98322366.842 5     -1795.094 5        35.033 5
G13  22701321.219 6 119296246.689 6     -2965.561 6        40.189 6  22701321.563 3  92958117.522 3     -2310.836 3        20.379 3
G15  20617045.570 5 108343324.535 5     -1561.947 5        32.144 5  20617049.461 3  84423370.879 3     -1217.203 3        20.660 3
> 2020 08 27 08 52 56.0000000  0  3       0.000000000000
G05  24011763.527 7 126182667.491 7     -2304.182 7        44.989 7  24011764.387 5  98324161.791 5     -1795.381 5        35.003 5
G13  22701885.906 6 119299211.880 6     -2965.412 6        40.146 6  22701885.938 3  92960428.066 3     -2310.732 3        21.171 3
G15  20617342.535 5 108344887.044 5     -1561.643 5        32.144 5  20617346.914 3  84424588.433 3     -1216.943 3        21.171 3
> 2020 08 27 08 52 57.0000000  0  3       0.000000000000
G05  24012201.754 7 126184970.897 7     -2303.008 7        45.208 7  24012202.641 5  98325956.638 5     -1794.449 5        35.170 5
G13  22702450.055 6 119302176.900 6     -2964.902 6        40.437 6  22702450.098 3  92962738.482 3     -2310.289 3        20.660 3
G15  20617639.531 5 108346449.628 5     -1561.484 5        31.864 5  20617644.281 3  84425806.048 3     -1216.695 3        20.923 3
> 2020 08 27 08 52 58.0000000  0  3       0.000000000000
G05  24012640.156 7 126187274.471 7     -2303.133 7        45.222 7  24012641.031 5  98327751.632 5     -1794.637 5        35.170 5
G13  22703014.094 6 119305142.067 6     -2964.715 6        40.634 6  22703014.309 3  92965048.993 3     -2310.164 3        20.660 3
G15  20617936.559 5 108348012.554 5     -1561.922 5        32.144 5  20617941.625 3  84427023.918 3     -1217.078 3        20.923 3
> 2020 08 27 08 52 59.0000000  0  3       0.000000000000
G05  24013078.582 7 126189578.377 7     -2303.604 7        45.141 7  24013079.398 5  98329546.896 5     -1795.008 5        35.023 5
G13  22703578.152 6 119308107.544 6     -2965.068 6        40.517 6  22703578.566 3  92967359.755 3     -2310.438 3        20.923 3
G15  20618233.750 5 108349575.967 5     -1562.781 5        31.564 5  20618239.090 3  84428242.137 3     -1217.742 3        20.080 3
> 2020 08 27 08 53  0.0000000  0  3       0.000000000000
G05  24013517.164 7 126191882.400 7     -2304.363 7        45.208 7  24013517.809 5  98331342.227 5     -1795.332 5        35.092 5
G13  22704142.512 6 119311073.074 6     -2965.477 6        40.710 6  22704142.871 3  92969670.541 3     -2310.801 3        20.923 3
G15  20618531.676 5 108351139.630 5     -1564.344 5        31.864 5  20618536.867 3  84429460.573 3     -1218.965 3        20.923 3
> 2020 08 27 08 53  1.0000000  0  3       0.000000000000
G05  24013955.582 7 126194186.445 7     -2304.398 7        45.235 7  24013956.281 5  98333137.591 5     -1795.748 5        35.198 5
G13  22704706.707 6 119314038.602 6     -2965.551 6        40.477 6  22704707.121 3  92971981.354 3     -2310.826 3        20.660 3
G15  20618829.434 5 108352703.469 5     -1564.438 5        31.564 5  20618834.484 3  84430679.132 3     -1219.068 3        20.379 3
> 2020 08 27 08 53  2.0000000  0  3       0.000000000000
G05  24014394.141 7 126196490.696 7     -2305.400 7        45.327 7  24014394.684 5  98334933.110 5     -1796.535 5        35.121 5
G13  22705271.328 6 119317004.301 6     -2966.592 6        40.672 6  22705271.445 3  92974292.278 3     -2311.633 3        21.406 3
G15  20619127.047 5 108354267.625 5     -1564.541 5        31.242 5  20619132.211 3  84431897.948 3     -1219.055 3        21.171 3
> 2020 08 27 08 53  3.0000000  0  3       0.000000000000
G05  24014832.328 7 126198794.787 7     -2304.016 7        45.248 7  24014833.129 5  98336728.493 5     -1794.953 5        35.236 5
G13  22705835.727 6 119319969.812 6     -2965.635 6        40.748 6  22705835.699 3  92976603.063 3     -2310.871 3        21.841 3
G15  20619423.859 5 108355831.795 5     -1562.590 5        31.242 5  20619429.914 3  84433116.782 3     -1217.590 3        20.923 3
> 2020 08 27 08 53  4.0000000  0  3       0.000000000000
G05  24015271.555 7 126201099.187 7     -2304.654 7        45.353 7  24015271.613 5  98338524.141 5     -1795.633 5        35.330 5
G13  22706400.156 6 119322935.553 6     -2965.025 6        40.748 6  22706399.941 3  92978914.029 3     -2310.359 3        21.171 3
G15  20619722.426 5 108357396.503 5     -1564.264 5        30.103 5  20619727.691 3  84434336.045 3     -1218.953 3        22.043 3
> 2020 08 27 08 53  5.0000000  0  2       0.000000000000
G05  24015709.559 7 126203403.882 7     -2304.697 7        45.418 7  24015710.074 5  98340320.003 5     -1795.732 5        35.208 5
G13  22706964.227 6 119325901.605 6     -2965.479 6        40.710 6  22706964.211 3  92981225.240 3     -2310.771 3        20.660 3
> 2020 08 27 08 53  6.0000000  0  2       0.000000000000
G05  24016148.551 7 126205708.421 7     -2305.238 7        45.288 7  24016148.594 5  98342115.736 5     -1795.736 5        35.131 5
G13  22707528.996 6 119328867.439 6     -2966.176 6        40.397 6  22707528.766 3  92983536.292 3     -2311.283 3        19.758 3
> 2020 08 27 08 53  7.0000000  0  2       0.000000000000
G05  24016587.480 7 126208013.282 7     -2304.602 7        45.443 7  24016587.234 5  98343911.753 5     -1795.902 5        35.376 5
G13  22708093.703 6 119331833.574 6     -2966.555 6        40.556 6  22708093.316 3  92985847.572 3     -2311.586 3        19.758 3
> 2020 08 27 08 53  8.0000000  0  2       0.000000000000
G05  24017026.129 7 126210318.081 7     -2304.713 7        45.494 7  24017025.840 5  98345707.689 5     -1795.844 5        35.311 5
G13  22708657.270 6 119334799.591 6     -2966.568 6        40.517 6  22708657.715 3  92988158.747 3     -2311.664 3        19.758 3
> 2020 08 27 08 53  9.0000000  0  2       0.000000000000
G05  24017464.031 7 126212622.880 7     -2304.861 7        45.481 7  24017464.375 5  98347503.628 5     -1796.156 5        35.413 5
G13  22709222.098 6 119337765.569 6     -2966.326 6        40.634 6  22709222.227 3  92990469.895 3     -2311.332 3        20.923 3
> 2020 08 27 08 53 10.0000000  0  2       0.000000000000
G05  24017902.930 7 126214927.930 7     -2304.990 7        45.581 7  24017903.117 5  98349299.771 5     -1796.047 5        35.494 5
G13  22709786.629 6 119340731.733 6     -2966.025 6        40.595 6  22709786.586 3  92992781.200 3     -2311.184 3        20.923 3
> 2020 08 27 08 53 11.0000000  0  2       0.000000000000
G05  24018341.582 7 126217233.304 7     -2305.709 7        45.531 7  24018341.723 5  98351096.165 5     -1796.271 5        35.485 5
G13  22710350.344 6 119343698.219 6     -2967.408 6        40.437 6  22710351.172 3  92995092.745 3     -2312.248 3        21.629 3
> 2020 08 27 08 53 12.0000000  0  2       0.000000000000
G05  24018780.383 7 126219538.823 7     -2305.387 7        45.519 7  24018780.414 5  98352892.681 5     -1796.412 5        35.529 5
G13  22710914.922 6 119346664.750 6     -2966.480 6        40.477 6  22710915.738 3  92997404.332 3     -2311.568 3        21.406 3
> 2020 08 27 08 53 13.0000000  0  2       0.000000000000
G05  24019219.117 7 126221844.495 7     -2306.125 7        45.593 7  24019219.320 5  98354689.309 5     -1796.740 5        35.293 5
G13  22711479.578 6 119349631.413 6     -2966.535 6        40.477 6  22711480.309 3  92999716.026 3     -2311.525 3        21.841 3
> 2020 08 27 08 53 14.0000000  0  2       0.000000000000
G05  24019658.039 7 126224150.300 7     -2306.090 7        45.642 7  24019658.082 5  98356486.034 5     -1796.590 5        35.227 5
G13  22712043.988 6 119352598.223 6     -2966.656 6        40.273 6  22712044.777 3  93002027.798 3     -2311.688 3        22.420 3
> 2020 08 27 08 53 15.0000000  0  2       0.000000000000
G05  24020096.961 7 126226456.558 7     -2306.609 7        45.593 7  24020097.063 5  98358283.115 5     -1797.043 5        35.255 5
G13  22712608.977 6 119355565.428 6     -2967.605 6        40.273 6  22712609.207 3  93004339.921 3     -2312.473 3        22.236 3
> 2020 08 27 08 53 16.0000000  0  2       0.000000000000
G05  24020535.898 7 126228762.988 7     -2306.732 7        45.443 7  24020535.898 5  98360080.342 5     -1797.314 5        35.311 5
G13  22713173.836 6 119358532.732 6     -2967.045 6        39.880 6  22713173.965 3  93006652.080 3     -2311.963 3        21.629 3
> 2020 08 27 08 53 17.0000000  0  2       0.000000000000
G05  24020974.516 7 126231069.494 7     -2307.164 7        45.568 7  24020974.801 5  98361877.594 5     -1797.273 5        35.394 5
G13  22713738.086 6 119361500.103 6     -2968.082 6        40.015 6  22713738.676 3  93008964.334 3     -2312.838 3        21.841 3
> 2020 08 27 08 53 18.0000000  0  2       0.000000000000
G05  24021413.676 7 126233376.292 7     -2306.617 7        45.617 7  24021413.891 5  98363675.119 5     -1797.869 5        35.556 5
G13  22714303.168 6 119364467.690 6     -2967.301 6        40.059 6  22714303.297 3  93011276.756 3     -2312.186 3        22.043 3
> 2020 08 27 08 53 19.0000000  0  2       0.000000000000
G05  24021852.723 7 126235683.173 7     -2307.156 7        45.605 7  24021852.852 5  98365472.661 5     -1797.223 5        35.538 5
G13  22714867.992 6 119367435.367 6     -2967.977 6        40.015 6  22714867.922 3  93013589.219 3     -2312.730 3        22.598 3
> 2020 08 27 08 53 20.0000000  0  3       0.000000000000
G05  24022292.039 7 126237990.359 7     -2307.307 7        45.581 7  24022291.938 5  98367270.488 5     -1798.094 5        35.520 5
G13  22715432.801 6 119370403.267 6     -2968.029 6        39.834 6  22715432.715 3  93015901.876 3     -2312.740 3        23.090 3
G15  20624495.223 5 108382454.131 5     -1570.314 5        32.656 5                                                                
> 2020 08 27 08 53 21.0000000  0  3       0.000000000000
G05  24022730.715 7 126240297.399 7     -2307.340 7        45.519 7  24022730.930 5  98369068.182 5     -1797.857 5        35.529 5
G13  22715997.113 6 119373371.003 6     -2968.199 6        39.834 6  22715997.539 3  93018214.389 3     -2312.818 3        22.598 3
G15  20624794.098 5 108384024.054 5     -1570.092 5        32.407 5                                                                
> 2020 08 27 08 53 22.0000000  0  3       0.000000000000
G05  24023169.910 7 126242604.753 7     -2307.418 7        45.568 7  24023170.082 5  98370866.132 5     -1798.324 5        35.413 5
G13  22716561.512 6 119376339.007 6     -2968.082 6        39.926 6  22716562.359 3  93020527.123 3     -2312.799 3        22.236 3
G15  20625092.777 5 108385594.438 5     -1569.938 5        31.564 5                                                                
> 2020 08 27 08 53 23.0000000  0  3       0.000000000000
G05  24023608.965 7 126244912.135 7     -2306.883 7        45.519 7  24023609.063 5  98372664.092 5     -1798.279 5        35.503 5
G13  22717126.914 6 119379307.032 6     -2968.641 6        39.834 6  22717127.043 3  93022839.877 3     -2313.201 3        21.629 3
G15  20625391.027 5 108387165.087 5     -1570.809 5        30.895 5                                                                
> 2020 08 27 08 53 24.0000000  0  3       0.000000000000
G05  24024047.723 7 126247219.794 7     -2307.748 7        45.340 7  24024048.184 5  98374462.248 5     -1798.266 5        35.485 5
G13  22717691.168 6 119382275.210 6     -2968.061 6        39.645 6  22717691.898 3  93025152.737 3     -2312.719 3        21.629 3
G15  20625690.133 5 108388736.082 5     -1571.322 5        31.242 5                                                                
> 2020 08 27 08 53 25.0000000  0  3       0.000000000000
G05  24024487.246 7 126249527.575 7     -2307.760 7        45.288 7  24024487.492 5  98376260.520 5     -1797.883 5        35.394 5
G13  22718256.324 6 119385243.519 6     -2968.092 6        39.645 6  22718256.883 3  93027465.711 3     -2312.863 3        21.171 3
G15  20625988.852 5 108390307.314 5     -1570.748 5        30.895 5                                                                
> 2020 08 27 08 53 26.0000000  0  2       0.000000000000
G05  24024925.867 7 126251835.447 7     -2308.582 7        45.168 7  24024926.582 5  98378058.863 5     -1798.463 5        35.440 5
G13  22718821.297 6 119388211.874 6     -2969.246 6        39.498 6  22718821.910 3  93029778.718 3     -2313.775 3        20.660 3
> 2020 08 27 08 53 27.0000000  0  2       0.000000000000
G05  24025365.051 7 126254143.276 7     -2308.461 7        45.340 7  24025365.664 5  98379857.192 5     -1799.311 5        35.449 5
G13  22719386.543 6 119391180.143 6     -2968.168 6        39.788 6  22719386.855 3  93032091.646 3     -2312.787 3        20.660 3
> 2020 08 27 08 53 28.0000000  0  2       0.000000000000
G05  24025805.129 7 126256451.112 7     -2308.061 7        45.443 7  24025804.785 5  98381655.498 5     -1798.836 5        35.547 5
G13  22719951.398 6 119394148.385 6     -2969.076 6        39.548 6  22719951.727 3  93034404.570 3     -2313.602 3        20.080 3
> 2020 08 27 08 53 29.0000000  0  2       0.000000000000
G05  24026243.539 7 126258759.156 7     -2308.158 7        45.301 7  24026244.023 5  98383453.954 5     -1798.160 5        35.728 5
G13  22720515.441 6 119397116.783 6     -2968.508 6        39.346 6  22720516.430 3  93036717.619 3     -2313.199 3        19.758 3
> 2020 08 27 08 53 30.0000000  0  2       0.000000000000
G05  24026682.883 7 126261067.250 7     -2307.967 7        45.379 7  24026683.258 5  98385252.473 5     -1798.395 5        35.660 5
G13  22721080.422 6 119400085.175 6     -2967.420 6        39.294 6  22721081.383 3  93039030.649 3     -2312.184 3        19.758 3
> 2020 08 27 08 53 31.0000000  0  2       0.000000000000
G05  24027122.113 7 126263375.408 7     -2307.871 7        45.327 7  24027122.559 5  98387051.024 5     -1797.977 5        35.529 5
G13  22721644.855 6 119403053.597 6     -2968.105 6        39.024 6  22721646.301 3  93041343.707 3     -2312.781 3        19.410 3
> 2020 08 27 08 53 32.0000000  0  2       0.000000000000
G05  24027561.520 7 126265683.692 7     -2308.723 7        45.431 7  24027561.762 5  98388849.686 5     -1798.652 5        35.643 5
G13  22722209.754 6 119406022.126 6     -2968.840 6        38.968 6  22722211.199 3  93043656.816 3     -2313.398 3        19.410 3
> 2020 08 27 08 53 33.0000000  0  2       0.000000000000
G05  24028001.031 7 126267992.181 7     -2308.967 7        45.327 7  24028001.117 5  98390648.507 5     -1799.209 5        35.520 5
G13  22722775.043 6 119408990.772 6     -2967.912 6        38.736 6  22722776.031 3  93045970.047 3     -2312.666 3        19.410 3
> 2020 08 27 08 53 34.0000000  0  2       0.000000000000
G05  24028440.207 7 126270300.416 7     -2308.268 7        45.235 7  24028440.336 5  98392447.138 5     -1798.674 5        35.422 5
G13  22723339.711 6 119411959.170 6     -2968.072 6        38.364 6  22723340.941 3  93048283.082 3     -2312.814 3        20.379 3
> 2020 08 27 08 53 35.0000000  0  2       0.000000000000
G05  24028879.828 7 126272608.702 7     -2308.328 7        45.275 7  24028879.582 5  98394245.787 5     -1798.455 5        35.358 5
G13  22723904.105 6 119414927.552 6     -2967.938 6        38.232 6  22723905.781 3  93050596.100 3     -2312.654 3        21.406 3
> 2020 08 27 08 53 36.0000000  0  2       0.000000000000
G05  24029318.691 7 126274917.254 7     -2308.965 7        45.031 7  24029318.816 5  98396044.668 5     -1799.318 5        35.476 5
G13  22724468.461 6 119417896.225 6     -2970.273 6        37.885 6  22724470.980 3  93052909.343 3     -2314.396 3        21.171 3
> 2020 08 27 08 53 37.0000000  0  2       0.000000000000
G05  24029757.758 7 126277225.685 7     -2309.092 7        45.262 7  24029758.129 5  98397843.450 5     -1799.525 5        35.591 5
G13  22725033.594 6 119420864.650 6     -2968.936 6        37.956 6  22725035.910 3  93055222.416 3     -2313.568 3        20.379 3
> 2020 08 27 08 53 38.0000000  0  2       0.000000000000
G05  24030196.844 7 126279534.534 7     -2308.457 7        45.195 7  24030197.602 5  98399642.534 5     -1798.701 5        35.608 5
G13  22725598.313 6 119423833.471 6     -2968.184 6        37.507 6  22725601.105 3  93057535.771 3     -2312.783 3        19.758 3
> 2020 08 27 08 53 39.0000000  0  2       0.000000000000
G05  24030636.359 7 126281843.631 7     -2308.883 7        45.222 7  24030636.977 5  98401441.839 5     -1798.842 5        35.367 5
G13  22726163.754 6 119426802.563 6     -2969.332 6        37.346 6  22726166.215 3  93059849.363 3     -2313.725 3        20.080 3
> 2020 08 27 08 53 40.0000000  0  2       0.000000000000
G05  24031075.930 7 126284153.105 7     -2309.639 7        45.235 7  24031076.418 5  98403241.434 5     -1800.078 5        35.198 5
G13  22726728.816 6 119429771.905 6     -2969.033 6        37.005 6  22726731.305 3  93062163.121 3     -2313.496 3        20.379 3
> 2020 08 27 08 53 41.0000000  0  2       0.000000000000
G05  24031515.492 7 126286462.468 7     -2309.420 7        45.031 7  24031516.051 5  98405040.927 5     -1799.783 5        35.217 5
G13  22727294.727 6 119432741.158 6     -2969.830 6        37.005 6  22727296.371 3  93064476.822 3     -2314.119 3        19.032 3
> 2020 08 27 08 53 42.0000000  0  2       0.000000000000
G05  24031954.965 7 126288772.028 7     -2310.094 7        45.086 7  24031955.637 5  98406840.565 5     -1799.686 5        35.227 5
G13  22727859.977 6 119435710.521 6     -2970.328 6        36.915 6  22727861.492 3  93066790.615 3     -2314.529 3        19.032 3
> 2020 08 27 08 53 43.0000000  0  2       0.000000000000
G05  24032394.445 7 126291081.570 7     -2309.439 7        45.058 7  24032395.176 5  98408640.232 5     -1800.158 5        35.141 5
G13  22728424.234 6 119438679.872 6     -2970.045 6        36.824 6  22728426.594 3  93069104.387 3     -2314.318 3        20.080 3
> 2020 08 27 08 53 44.0000000  0  2       0.000000000000
G05  24032834.242 7 126293390.841 7     -2310.014 7        45.127 7  24032834.613 5  98410439.646 5     -1799.803 5        35.311 5
G13  22728988.949 6 119441648.854 6     -2968.861 6        36.824 6  22728991.598 3  93071417.877 3     -2313.357 3        19.758 3
> 2020 08 27 08 53 45.0000000  0  2       0.000000000000
G05  24033273.344 7 126295700.606 7     -2309.418 7        44.989 7  24033274.129 5  98412239.467 5     -1799.738 5        35.321 5
G13  22729553.828 6 119444618.365 6     -2969.848 6        36.915 6  22729556.688 3  93073731.771 3     -2314.152 3        20.080 3
> 2020 08 27 08 53 46.0000000  0  3       0.000000000000
G05  24033712.926 7 126298010.521 7     -2310.447 7        44.816 7  24033713.641 5  98414039.404 5     -1800.461 5        35.198 5
G13  22730118.613 6 119447587.921 6     -2969.744 6        36.538 6  22730121.918 3  93076045.718 3     -2314.055 3        18.618 3
G15  20632349.398 5 108423727.043 5     -1575.232 5        30.895 5                                                                
> 2020 08 27 08 53 47.0000000  0  3       0.000000000000
G05  24034152.367 7 126300320.415 7     -2309.691 7        44.889 7  24034153.297 5  98415839.308 5     -1799.527 5        35.092 5
G13  22730684.266 6 119450557.442 6     -2969.828 6        36.731 6  22730686.984 3  93078359.621 3     -2314.156 3        18.618 3
G15  20632648.324 5 108425303.835 5     -1574.848 5        30.895 5                                                                
> 2020 08 27 08 53 48.0000000  0  3       0.000000000000
G05  24034592.043 7 126302630.438 7     -2309.863 7        44.757 7  24034592.828 5  98417639.323 5     -1800.000 5        35.339 5
G13  22731249.715 6 119453527.011 6     -2968.789 6        36.824 6  22731252.008 3  93080673.565 3     -2313.281 3        19.032 3
G15  20632947.340 5 108426880.996 5     -1578.066 5        30.895 5                                                                
> 2020 08 27 08 53 49.0000000  0  3       0.000000000000
G05  24035031.430 7 126304940.582 7     -2311.496 7        44.575 7  24035032.547 5  98419439.423 5     -1800.549 5        35.321 5
G13  22731814.309 6 119456496.657 6     -2969.992 6        37.179 6  22731817.145 3  93082987.582 3     -2314.260 3        18.618 3
G15  20633246.641 5 108428458.281 5     -1577.121 5        31.242 5                                                                
> 2020 08 27 08 53 50.0000000  0  3       0.000000000000
G05  24035471.262 7 126307250.994 7     -2310.342 7        44.481 7  24035472.176 5  98421239.757 5     -1800.115 5        35.236 5
G13  22732379.059 6 119459466.578 6     -2970.225 6        37.427 6  22732382.395 3  93085301.796 3     -2314.471 3        19.032 3
G15  20633545.668 5 108430036.157 5     -1578.625 5        31.564 5                                                                
> 2020 08 27 08 53 51.0000000  0  3       0.000000000000
G05  24035911.176 7 126309562.033 7     -2311.176 7        44.449 7  24035912.023 5  98423040.559 5     -1801.006 5        35.179 5
G13  22732944.613 6 119462437.049 6     -2970.492 6        37.427 6  22732947.602 3  93087616.456 3     -2314.658 3        18.618 3
G15  20633845.215 5 108431614.662 5     -1578.246 5        32.144 5                                                                
> 2020 08 27 08 53 52.0000000  0  3       0.000000000000
G05  24036350.383 7 126311873.107 7     -2311.367 7        44.449 7  24036351.914 5  98424841.386 5     -1800.852 5        35.255 5
G13  22733509.738 6 119465407.514 6     -2971.113 6        37.507 6  22733512.871 2  93089931.082 2     -2315.168 2        17.069 2
G15  20634144.047 5 108433193.393 5     -1579.162 5        32.656 5                                                                
> 2020 08 27 08 53 53.0000000  0  3       0.000000000000
G05  24036790.250 7 126314184.382 7     -2311.027 7        44.219 7  24036791.809 5  98426642.396 5     -1800.914 5        35.160 5
G13  22734075.523 6 119468378.142 6     -2969.680 6        37.662 6  22734078.113 3  93092245.872 3     -2314.059 3        18.618 3
G15  20634442.824 5 108434772.469 5     -1578.508 5        33.325 5                                                                
> 2020 08 27 08 53 54.0000000  0  3       0.000000000000
G05  24037230.602 7 126316496.485 7     -2311.811 7        44.185 7  24037231.805 5  98428444.031 5     -1801.693 5        35.170 5
G13  22734640.227 6 119471349.544 6     -2970.951 6        37.812 6  22734643.602 3  93094561.240 3     -2315.014 3        18.618 3
G15  20634742.375 5 108436352.598 5     -1581.342 5        33.325 5                                                                
> 2020 08 27 08 53 55.0000000  0  3       0.000000000000
G05  24037670.367 7 126318808.513 7     -2312.578 7        44.100 7  24037671.711 5  98430245.592 5     -1801.418 5        34.943 5
G13  22735205.910 6 119474320.835 6     -2971.914 6        38.096 6  22735208.973 3  93096876.520 3     -2315.754 3        18.161 3
G15  20635041.766 5 108437932.737 5     -1580.684 5        32.891 5                                                                
> 2020 08 27 08 53 56.0000000  0  3       0.000000000000
G05  24038110.781 7 126321120.812 7     -2311.793 7        43.814 7  24038111.652 5  98432047.395 5     -1801.594 5        34.682 5
G13  22735771.102 6 119477292.359 6     -2971.891 6        38.027 6  22735774.434 3  93099192.001 3     -2315.813 3        20.379 3
G15  20635341.090 5 108439513.277 5     -1580.895 5        33.113 5                                                                
> 2020 08 27 08 53 57.0000000  0  3       0.000000000000
G05  24038550.480 7 126323433.560 7     -2312.293 7        44.100 7  24038551.867 5  98433849.532 5     -1801.801 5        34.495 5
G13  22736336.863 6 119480264.241 6     -2971.297 6        38.298 6  22736339.980 3  93101507.756 3     -2315.277 3        18.618 3
G15  20635640.844 5 108441094.457 5     -1580.594 5        33.527 5                                                                
> 2020 08 27 08 53 58.0000000  0  3       0.000000000000
G05  24038990.516 7 126325746.216 7     -2312.527 7        43.923 7  24038991.918 5  98435651.604 5     -1802.063 5        34.405 5
G13  22736903.250 6 119483236.080 6     -2972.625 6        38.428 6  22736905.594 3  93103823.476 3     -2316.279 3        18.161 3
G15  20635940.652 5 108442675.671 5     -1581.316 5        33.325 5                                                                
> 2020 08 27 08 53 59.0000000  0  3       0.000000000000
G05  24039430.637 7 126328059.178 7     -2312.975 7        43.905 7  24039432.008 5  98437453.918 5     -1802.711 5        34.405 5
G13  22737468.145 6 119486208.073 6     -2971.451 6        38.554 6  22737471.078 3  93106139.334 3     -2315.445 3        18.161 3
G15  20636241.113 5 108444257.349 5     -1580.943 5        33.527 5                                                                
> 2020 08 27 08 54  0.0000000  0  3       0.000000000000
G05  24039870.738 7 126330372.034 7     -2313.059 7        43.795 7  24039872.141 5  98439256.143 5     -1802.656 5        34.324 5
G13  22738034.168 6 119489180.000 6     -2972.688 6        38.298 6  22738036.586 2  93108455.101 2     -2316.270 2        16.400 2
G15  20636540.844 5 108445839.142 5     -1583.000 5        33.527 5                                                                
> 2020 08 27 08 54  1.0000000  0  3       0.000000000000
G05  24040310.305 7 126332685.282 7     -2313.281 7        43.663 7  24040312.422 5  98441058.661 5     -1803.039 5        34.217 5
G13  22738599.656 6 119492152.228 6     -2972.363 6        38.491 6  22738602.273 2  93110771.111 2     -2316.164 2        17.069 2
G15  20636840.465 5 108447421.393 5     -1582.578 5        33.325 5                                                                
> 2020 08 27 08 54  2.0000000  0  3       0.000000000000
G05  24040750.379 7 126334998.548 7     -2313.109 7        43.777 7  24040752.695 5  98442861.192 5     -1802.436 5        34.289 5
G13  22739165.363 6 119495124.439 6     -2972.348 6        38.364 6  22739167.840 2  93113087.117 2     -2316.029 2        17.649 2
G15  20637140.738 5 108449003.829 5     -1582.758 5        33.720 5                                                                
> 2020 08 27 08 54  3.0000000  0  3       0.000000000000
G05  24041190.906 7 126337311.944 7     -2313.285 7        43.814 7  24041192.926 5  98444663.845 5     -1802.660 5        34.034 5
G13  22739730.383 6 119498096.716 6     -2972.172 6        38.364 6  22739733.387 3  93115403.178 3     -2315.902 3        18.161 3
G15  20637440.180 5 108450586.543 5     -1582.934 5        34.082 5                                                                
> 2020 08 27 08 54  4.0000000  0  3       0.000000000000
G05  24041631.746 7 126339625.835 7     -2314.578 7        43.795 7  24041633.074 5  98446466.854 5     -1803.168 5        34.133 5
G13  22740296.426 6 119501069.469 6     -2973.484 6        38.554 6  22740299.133 3  93117719.626 3     -2316.977 3        18.618 3
G15  20637740.215 5 108452169.882 5     -1583.953 5        33.905 5                                                                
> 2020 08 27 08 54  5.0000000  0  3       0.000000000000
G05  24042071.156 7 126341939.677 7     -2313.893 7        43.795 7  24042073.273 5  98448269.850 5     -1802.564 5        34.253 5
G13  22740861.902 6 119504042.121 6     -2973.365 6        38.795 6  22740864.680 3  93120035.991 3     -2316.959 3        19.032 3
G15  20638039.684 5 108453753.379 5     -1584.342 5        33.905 5                                                                
> 2020 08 27 08 54  6.0000000  0  3       0.000000000000
G05  24042511.766 7 126344253.505 7     -2313.191 7        43.586 7  24042513.684 5  98450072.852 5     -1803.008 5        34.169 5
G13  22741427.859 6 119507014.697 6     -2972.332 6        38.232 6  22741430.309 3  93122352.296 3     -2316.094 3        18.618 3
G15  20638338.773 5 108455336.967 5     -1582.977 5        33.527 5                                                                
> 2020 08 27 08 54  7.0000000  0  3       0.000000000000
G05  24042952.313 7 126346567.622 7     -2313.787 7        43.795 7  24042954.129 5  98451876.046 5     -1803.266 5        33.764 5
G13  22741993.609 6 119509987.527 6     -2972.869 6        38.911 6  22741996.027 2  93124668.765 2     -2316.527 2        17.649 2
G15  20638638.801 5 108456921.047 5     -1584.355 5        33.905 5                                                                
> 2020 08 27 08 54  8.0000000  0  3       0.000000000000
G05  24043392.832 7 126348882.051 7     -2314.387 7        43.814 7  24043394.465 5  98453679.471 5     -1802.967 5        33.895 5
G13  22742559.051 6 119512960.611 6     -2972.961 6        38.676 6  22742561.742 2  93126985.438 2     -2316.521 2        17.069 2
G15  20638939.094 5 108458505.533 5     -1584.426 5        34.253 5                                                                
> 2020 08 27 08 54  9.0000000  0  3       0.000000000000
G05  24043832.723 7 126351196.354 7     -2313.748 7        43.995 7  24043834.770 5  98455482.826 5     -1802.943 5        33.843 5
G13  22743125.004 6 119515933.563 6     -2972.615 6        38.736 6  22743127.496 2  93129302.017 2     -2316.264 2        17.069 2
G15  20639239.613 5 108460090.050 5     -1583.670 5        34.874 5                                                                
> 2020 08 27 08 54 10.0000000  0  3       0.000000000000
G05  24044273.063 7 126353510.905 7     -2314.721 7        43.850 7  24044275.238 5  98457286.379 5     -1803.486 5        33.777 5
G13  22743691.266 6 119518906.678 6     -2972.768 6        38.428 6  22743693.215 2  93131618.740 2     -2316.396 2        16.400 2
G15  20639540.582 5 108461674.970 5     -1583.725 5        34.253 5                                                                
> 2020 08 27 08 54 11.0000000  0  3       0.000000000000
G05  24044714.055 7 126355825.615 7     -2314.764 7        43.832 7  24044715.730 5  98459090.039 5     -1803.709 5        33.869 5
G13  22744256.605 6 119521879.935 6     -2973.338 6        38.232 6  22744259.082 2  93133935.569 2     -2316.912 2        17.069 2
G15  20639841.488 5 108463260.272 5     -1586.150 5        34.082 5                                                                
> 2020 08 27 08 54 12.0000000  0  3       0.000000000000
G05  24045154.461 7 126358140.508 7     -2314.803 7        43.995 7  24045156.180 5  98460893.862 5     -1803.977 5        33.933 5
G13  22744822.648 6 119524853.357 6     -2973.846 6        38.364 6  22744824.906 3  93136252.540 3     -2317.375 3        18.161 3
G15  20640141.949 5 108464845.846 5     -1584.646 5        34.082 5                                                                
> 2020 08 27 08 54 13.0000000  0  3       0.000000000000
G05  24045594.836 7 126360455.521 7     -2315.377 7        43.923 7  24045596.695 5  98462697.750 5     -1803.648 5        33.803 5
G13  22745388.367 6 119527826.792 6     -2973.307 6        38.096 6  22745390.672 3  93138569.486 3     -2316.793 3        18.161 3
G15  20640441.520 5 108466431.714 5     -1586.041 5        34.082 5                                                                
> 2020 08 27 08 54 14.0000000  0  3       0.000000000000
G05  24046035.141 7 126362770.659 7     -2315.135 7        43.941 7  24046037.473 5  98464501.763 5     -1804.412 5        33.959 5
G13  22745954.023 6 119530800.386 6     -2973.885 6        38.096 6  22745956.570 2  93140886.582 2     -2317.303 2        17.069 2
G15  20640741.594 5 108468017.890 5     -1587.869 5        34.417 5                                                                
> 2020 08 27 08 54 15.0000000  0  3       0.000000000000
G05  24046476.332 7 126365086.198 7     -2315.121 7        43.887 7  24046478.262 5  98466306.065 5     -1803.939 5        33.933 5
G13  22746519.848 6 119533774.290 6     -2973.734 6        38.232 6  22746522.395 2  93143203.899 2     -2317.123 2        17.649 2
G15  20641041.840 5 108469604.539 5     -1586.918 5        34.727 5                                                                
> 2020 08 27 08 54 16.0000000  0  3       0.000000000000
G05  24046916.898 7 126367401.786 7     -2315.859 7        43.814 7  24046918.832 5  98468110.426 5     -1804.717 5        33.683 5
G13  22747086.191 6 119536748.179 6     -2973.887 6        37.737 6  22747088.180 2  93145521.214 2     -2317.334 2        16.400 2
G15  20641341.320 5 108471191.438 5     -1587.246 5        34.082 5                                                                
> 2020 08 27 08 54 17.0000000  0  3       0.000000000000
G05  24047357.664 7 126369717.461 7     -2315.250 7        43.995 7  24047359.410 5  98469914.852 5     -1804.186 5        33.643 5
G13  22747652.449 6 119539722.192 6     -2974.684 6        37.885 6  22747654.195 2  93147838.594 2     -2317.936 2        17.069 2
G15  20641640.281 5 108472778.571 5     -1587.262 5        34.727 5                                                                
> 2020 08 27 08 54 18.0000000  0  3       0.000000000000
G05  24047798.578 7 126372033.335 7     -2316.154 7        44.082 7  24047800.109 5  98471719.418 5     -1804.986 5        33.946 5
G13  22748217.566 6 119542696.303 6     -2975.334 6        38.027 6  22748220.070 3  93150156.072 3     -2318.443 3        18.618 3
G15  20641939.820 5 108474366.001 5     -1586.955 5        34.417 5                                                                
> 2020 08 27 08 54 19.0000000  0  3       0.000000000000
G05  24048238.887 7 126374349.307 7     -2316.227 7        44.030 7  24048240.848 5  98473524.074 5     -1805.072 5        33.670 5
G13  22748783.797 6 119545670.477 6     -2974.801 6        37.812 6  22748786.145 3  93152473.627 3     -2318.100 3        18.161 3
G15  20642240.613 5 108475953.771 5     -1589.117 5        34.253 5                                                                
> 2020 08 27 08 54 20.0000000  0  3       0.000000000000
G05  24048680.066 7 126376665.533 7     -2316.260 7        44.082 7  24048681.641 5  98475328.896 5     -1804.963 5        33.751 5
G13  22749350.039 6 119548644.787 6     -2973.408 6        37.812 6  22749352.156 2  93154791.266 2     -2317.012 2        17.649 2
G15  20642540.848 5 108477541.894 5     -1589.014 5        34.417 5                                                                
> 2020 08 27 08 54 21.0000000  0  3       0.000000000000
G05  24049120.477 7 126378981.778 7     -2315.758 7        44.082 7  24049122.336 5  98477133.780 5     -1804.752 5        33.697 5
G13  22749915.508 6 119551619.173 6     -2974.059 6        37.737 6  22749918.086 2  93157108.978 2     -2317.428 2        17.649 2
G15  20642842.027 5 108479130.129 5     -1587.750 5        34.727 5                                                                
> 2020 08 27 08 54 22.0000000  0  3       0.000000000000
G05  24049561.410 7 126381298.276 7     -2316.092 7        44.185 7  24049563.227 5  98478938.846 5     -1804.859 5        33.404 5
G13  22750481.793 6 119554593.727 6     -2973.514 6        37.346 6  22750484.242 2  93159426.838 2     -2317.086 2        17.649 2
G15  20643142.734 5 108480718.813 5     -1588.357 5        34.417 5                                                                
> 2020 08 27 08 54 23.0000000  0  3       0.000000000000
G05  24050002.598 7 126383614.930 7     -2316.791 7        44.368 7  24050004.230 5  98480744.009 5     -1805.465 5        33.476 5
G13  22751048.043 6 119557568.403 6     -2975.189 6        37.346 6  22751050.289 2  93161744.782 2     -2318.375 2        15.608 2
G15  20643442.547 5 108482307.803 5     -1589.154 5        34.082 5                                                                
> 2020 08 27 08 54 24.0000000  0  3       0.000000000000
G05  24050442.996 7 126385931.619 7     -2316.711 7        44.168 7  24050444.941 5  98482549.225 5     -1804.973 5        33.560 5
G13  22751613.789 6 119560543.054 6     -2974.875 6        37.263 6  22751616.492 2  93164062.675 2     -2318.078 2        15.608 2
G15  20643743.285 5 108483896.955 5     -1587.883 5        34.417 5                                                                
> 2020 08 27 08 54 25.0000000  0  3       0.000000000000
G05  24050884.371 7 126388248.148 7     -2316.598 7        44.253 7  24050885.801 5  98484354.329 5     -1805.436 5        33.504 5
G13  22752179.797 6 119563517.488 6     -2974.488 6        36.915 6  22752182.602 2  93166380.424 2     -2317.721 2        16.400 2
G15  20644044.000 5 108485486.150 5     -1588.414 5        34.082 5                                                                
> 2020 08 27 08 54 26.0000000  0  3       0.000000000000
G05  24051325.395 7 126390564.896 7     -2316.600 7        44.082 7  24051326.711 5  98486159.581 5     -1805.133 5        33.302 5
G13  22752745.453 6 119566492.118 6     -2974.354 6        36.635 6  22752748.602 2  93168698.302 2     -2317.652 2        16.400 2
G15  20644344.363 5 108487075.746 5     -1590.721 5        33.720 5                                                                
> 2020 08 27 08 54 27.0000000  0  3       0.000000000000
G05  24051766.102 7 126392881.979 7     -2317.033 7        44.219 7  24051767.605 5  98487965.086 5     -1805.258 5        33.287 5
G13  22753312.227 6 119569467.037 6     -2975.316 6        36.824 6  22753314.887 2  93171016.416 2     -2318.363 2        15.608 2
G15  20644643.844 5 108488665.730 5     -1589.650 5        33.905 5                                                                
> 2020 08 27 08 54 28.0000000  0  3       0.000000000000
G05  24052207.168 7 126395198.986 7     -2317.760 7        44.236 7  24052208.313 5  98489770.529 5     -1805.283 5        33.433 5
G13  22753878.066 6 119572441.840 6     -2975.729 6        36.731 6  22753881.074 2  93173334.443 2     -2318.838 2        14.639 2
G15  20644943.391 5 108490255.844 5     -1590.768 5        34.575 5                                                                
> 2020 08 27 08 54 29.0000000  0  3       0.000000000000
G05  24052647.918 7 126397516.306 7     -2317.881 7        44.286 7  24052649.391 5  98491576.238 5     -1806.158 5        33.532 5
G13  22754444.453 6 119575416.864 6     -2974.754 6        36.824 6  22754447.285 2  93175652.620 2     -2317.934 2        17.069 2
G15  20645244.195 5 108491846.379 5     -1589.033 5        34.417 5                                                                
> 2020 08 27 08 54 30.0000000  0  3       0.000000000000
G05  24053088.566 7 126399833.598 7     -2317.277 7        44.335 7  24053090.371 5  98493381.917 5     -1805.818 5        33.360 5
G13  22755010.594 6 119578391.904 6     -2974.953 6        36.731 6  22755013.414 2  93177970.839 2     -2318.123 2        16.400 2
G15  20645545.617 5 108493437.163 5     -1591.477 5        34.253 5                                                                
> 2020 08 27 08 54 31.0000000  0  3       0.000000000000
G05  24053529.367 7 126402151.014 7     -2317.838 7        44.352 7  24053531.168 5  98495187.680 5     -1805.943 5        33.331 5
G13  22755577.313 6 119581366.940 6     -2974.361 6        36.635 6  22755579.531 2  93180289.039 2     -2317.584 2        15.608 2
G15  20645847.762 5 108495028.128 5     -1590.904 5        34.253 5                                                                
> 2020 08 27 08 54 32.0000000  0  3       0.000000000000
G05  24053970.938 7 126404468.492 7     -2317.744 7        44.286 7  24053972.152 5  98496993.506 5     -1805.572 5        33.574 5
G13  22756143.090 6 119584342.046 6     -2974.658 6        36.635 6  22756145.535 2  93182607.295 2     -2317.916 2        15.608 2
G15  20646148.957 5 108496619.320 5     -1590.498 5        34.575 5                                                                
> 2020 08 27 08 54 33.0000000  0  3       0.000000000000
G05  24054412.125 7 126406786.165 7     -2317.701 7        44.417 7  24054413.152 5  98498799.488 5     -1805.918 5        33.317 5
G13  22756709.336 6 119587317.349 6     -2976.354 6        36.438 6  22756711.770 2  93184925.695 2     -2319.199 2        17.649 2
G15  20646451.773 5 108498210.844 5     -1590.357 5        34.575 5                                                                
> 2020 08 27 08 54 34.0000000  0  3       0.000000000000
G05  24054852.906 7 126409103.955 7     -2318.430 7        44.352 7  24054854.137 5  98500605.529 5     -1805.887 5        33.302 5
G13  22757275.039 6 119590292.624 6     -2976.301 6        36.438 6  22757277.988 2  93187244.067 2     -2319.090 2        16.400 2
G15  20646754.332 5 108499802.684 5     -1591.887 5        34.575 5                                                                
> 2020 08 27 08 54 35.0000000  0  3       0.000000000000
G05  24055294.477 7 126411421.717 7     -2318.053 7        44.417 7  24055295.219 5  98502411.598 5     -1806.297 5        33.227 5
G13  22757841.098 6 119593267.844 6     -2975.514 6        36.335 6  22757844.117 2  93189562.420 2     -2318.484 2        15.608 2
G15  20647056.672 5 108501394.630 5     -1592.936 5        34.253 5                                                                
> 2020 08 27 08 54 36.0000000  0  3       0.000000000000
G05  24055735.219 7 126413739.697 7     -2317.477 7        44.303 7  24055736.348 5  98504217.820 5     -1806.107 5        33.272 5
G13  22758408.336 6 119596243.277 6     -2975.426 6        36.635 6  22758410.250 2  93191880.926 2     -2318.529 2        13.390 2
G15  20647359.617 5 108502986.973 5     -1593.258 5        33.905 5                                                                
> 2020 08 27 08 54 37.0000000  0  3       0.000000000000
G05  24056176.125 7 126416057.768 7     -2318.549 7        44.496 7  24056177.469 5  98506024.107 5     -1806.828 5        33.433 5
G13  22758974.445 6 119599218.704 6     -2975.736 6        36.824 6  22758976.492 2  93194199.436 2     -2318.664 2        14.639 2
G15  20647662.727 5 108504579.450 5     -1592.826 5        33.527 5                                                                
> 2020 08 27 08 54 38.0000000  0  3       0.000000000000
G05  24056617.449 7 126418376.132 7     -2318.195 7        44.605 7  24056618.539 5  98507830.617 5     -1806.500 5        33.257 5
G13  22759540.691 6 119602194.400 6     -2975.188 6        36.824 6  22759542.609 2  93196518.158 2     -2318.375 2        14.639 2
G15  20647966.254 5 108506172.415 5     -1592.570 5        33.527 5                                                                
> 2020 08 27 08 54 39.0000000  0  3       0.000000000000
G05  24057058.340 7 126420694.570 7     -2318.674 7        44.816 7  24057059.668 5  98509637.199 5     -1806.760 5        33.461 5
G13  22760106.785 6 119605170.117 6     -2975.334 6        36.731 6  22760108.934 2  93198836.891 2     -2318.400 2        15.608 2
G15  20648268.914 5 108507765.615 5     -1592.971 5        33.527 5                                                                
> 2020 08 27 08 54 40.0000000  0  3       0.000000000000
G05  24057499.738 7 126423012.910 7     -2318.484 7        44.772 7  24057500.895 5  98511443.677 5     -1806.154 5        33.302 5
G13  22760673.102 6 119608145.690 6     -2975.027 6        36.915 6  22760675.250 2  93201155.521 2     -2318.244 2        14.639 2
G15  20648572.371 5 108509358.893 5     -1593.094 5        33.905 5                                                                
> 2020 08 27 08 54 41.0000000  0  3       0.000000000000
G05  24057940.410 7 126425331.468 7     -2318.867 7        44.816 7  24057941.984 5  98513250.349 5     -1806.520 5        33.461 5
G13  22761238.695 6 119611121.437 6     -2975.215 6        36.824 6  22761241.617 2  93203474.268 2     -2318.414 2        16.400 2
G15  20648874.965 5 108510952.485 5     -1592.617 5        33.527 5                                                                
> 2020 08 27 08 54 42.0000000  0  3       0.000000000000
G05  24058382.160 7 126427650.202 7     -2318.396 7        44.874 7  24058383.160 5  98515057.171 5     -1806.900 5        33.724 5
G13  22761805.508 6 119614097.321 6     -2974.334 6        36.731 6  22761808.012 2  93205793.151 2     -2317.643 2        16.400 2
G15  20649177.484 5 108512546.503 5     -1594.939 5        33.527 5                                                                
> 2020 08 27 08 54 43.0000000  0  3       0.000000000000
G05  24058823.766 7 126429969.103 7     -2318.832 7        44.831 7  24058824.496 5  98516864.094 5     -1806.629 5        33.588 5
G13  22762371.746 6 119617073.368 6     -2976.469 6        37.005 6  22762374.391 2  93208112.151 2     -2319.324 2        17.069 2
G15  20649480.289 5 108514140.705 5     -1593.268 5        33.720 5                                                                
> 2020 08 27 08 54 44.0000000  0  3       0.000000000000
G05  24059264.480 7 126432288.084 7     -2319.234 7        44.974 7  24059265.754 5  98518671.111 5     -1807.553 5        33.532 5
G13  22762938.238 6 119620049.374 6     -2976.363 6        36.635 6  22762940.539 2  93210431.114 2     -2319.252 2        16.400 2
G15  20649783.922 5 108515735.176 5     -1594.254 5        34.253 5                                                                
> 2020 08 27 08 54 45.0000000  0  3       0.000000000000
G05  24059706.117 7 126434607.330 7     -2319.518 7        45.195 7  24059707.063 5  98520478.317 5     -1807.713 5        33.843 5
G13  22763504.367 6 119623025.651 6     -2976.939 6        36.824 6  22763507.000 2  93212750.281 2     -2319.783 2        17.649 2
G15  20650088.051 5 108517330.094 5     -1595.123 5        33.527 5                                                                
> 2020 08 27 08 54 46.0000000  0  3       0.000000000000
G05  24060147.711 7 126436926.676 7     -2319.604 7        45.003 7  24060148.367 5  98522285.582 5     -1807.588 5        33.697 5
G13  22764070.734 6 119626001.970 6     -2977.143 6        36.635 6  22764073.266 2  93215069.493 2     -2319.834 2        17.069 2
G15  20650391.559 5 108518925.293 5     -1596.811 5        33.113 5                                                                
> 2020 08 27 08 54 47.0000000  0  3       0.000000000000
G05  24060589.215 7 126439246.179 7     -2319.748 7        45.182 7  24060589.715 5  98524092.981 5     -1807.779 5        33.560 5
G13  22764637.730 6 119628978.373 6     -2976.779 6        36.731 6  22764639.734 2  93217388.784 2     -2319.578 2        17.069 2
G15  20650695.266 5 108520520.680 5     -1596.018 5        32.656 5                                                                
> 2020 08 27 08 54 48.0000000  0  3       0.000000000000
G05  24061030.750 7 126441565.497 7     -2319.117 7        45.208 7  24061030.992 5  98525900.238 5     -1807.221 5        33.764 5
G13  22765204.184 6 119631954.521 6     -2975.914 6        37.179 6  22765206.176 3  93219707.839 3     -2318.842 3        18.161 3
G15  20650998.285 5 108522116.134 5     -1596.070 5        32.407 5                                                                
> 2020 08 27 08 54 49.0000000  0  3       0.000000000000
G05  24061471.660 7 126443885.012 7     -2319.291 7        45.327 7  24061472.418 5  98527707.662 5     -1807.617 5        33.643 5
G13  22765770.445 6 119634930.862 6     -2976.557 6        37.179 6  22765772.563 2  93222027.052 2     -2319.434 2        17.069 2
G15  20651302.402 5 108523711.873 5     -1596.070 5        31.864 5                                                                
> 2020 08 27 08 54 50.0000000  0  3       0.000000000000
G05  24061913.223 7 126446204.917 7     -2320.215 7        45.366 7  24061913.852 5  98529515.396 5     -1808.779 5        33.683 5
G13  22766336.926 6 119637907.486 6     -2976.523 6        37.179 6  22766338.957 2  93224346.509 2     -2319.307 2        15.608 2
G15  20651606.594 5 108525308.220 5     -1598.281 5        31.864 5                                                                
> 2020 08 27 08 54 51.0000000  0  3       0.000000000000
G05  24062354.949 7 126448524.770 7     -2320.328 7        45.494 7  24062355.305 5  98531323.046 5     -1808.350 5        33.683 5
G13  22766903.285 6 119640884.074 6     -2977.477 6        37.263 6  22766905.445 2  93226665.945 2     -2320.127 2        16.400 2
G15  20651910.523 5 108526904.551 5     -1596.834 5        32.144 5                                                                
> 2020 08 27 08 54 52.0000000  0  3       0.000000000000
G05  24062796.309 7 126450844.769 7     -2320.521 7        45.456 7  24062796.594 5  98533130.831 5     -1808.203 5        33.504 5
G13  22767470.422 6 119643860.697 6     -2975.932 6        37.346 6  22767471.996 2  93228985.384 2     -2318.869 2        16.400 2
G15  20652214.516 5 108528501.267 5     -1597.611 5        32.144 5                                                                
> 2020 08 27 08 54 53.0000000  0  3       0.000000000000
G05  24063237.543 7 126453164.724 7     -2320.188 7        45.506 7  24063237.918 5  98534938.591 5     -1807.877 5        33.504 5
G13  22768036.578 6 119646837.308 6     -2977.219 6        37.585 6  22768038.480 2  93231304.805 2     -2319.889 2        16.400 2
G15  20652517.813 5 108530098.029 5     -1596.496 5        32.144 5                                                                
> 2020 08 27 08 54 54.0000000  0  3       0.000000000000
G05  24063679.074 7 126455484.996 7     -2319.947 7        45.556 7  24063679.320 5  98536746.592 5     -1807.543 5        33.751 5
G13  22768602.742 6 119649814.094 6     -2976.178 6        37.507 6  22768604.844 2  93233624.383 2     -2319.223 2        17.069 2
G15  20652822.117 5 108531695.304 5     -1598.170 5        32.891 5                                                                
> 2020 08 27 08 54 55.0000000  0  3       0.000000000000
G05  24064120.816 7 126457805.450 7     -2320.945 7        45.797 7  24064120.988 5  98538554.747 5     -1808.689 5        33.656 5
G13  22769169.547 6 119652791.086 6     -2977.371 6        37.585 6  22769171.375 2  93235944.131 2     -2319.998 2        15.608 2
G15  20653126.203 5 108533292.843 5     -1596.336 5        32.891 5                                                                
> 2020 08 27 08 54 56.0000000  0  3       0.000000000000
G05  24064562.711 7 126460126.065 7     -2320.484 7        45.702 7  24064562.656 5  98540363.015 5     -1808.418 5        33.532 5
G13  22769735.500 6 119655768.190 6     -2977.340 6        37.346 6  22769737.832 2  93238263.947 2     -2320.020 2        14.639 2
G15  20653430.586 5 108534890.763 5     -1596.227 5        32.656 5                                                                
> 2020 08 27 08 54 57.0000000  0  3       0.000000000000
G05  24065004.172 7 126462446.635 7     -2320.424 7        45.878 7  24065004.230 5  98542171.261 5     -1808.447 5        33.476 5
G13  22770302.023 6 119658745.162 6     -2977.084 6        37.585 6  22770304.387 2  93240583.687 2     -2319.736 2        17.069 2
G15  20653734.824 5 108536488.759 5     -1598.334 5        33.325 5                                                                
> 2020 08 27 08 54 58.0000000  0  3       0.000000000000
G05  24065446.203 7 126464767.251 7     -2320.336 7        45.889 7  24065445.773 5  98543979.536 5     -1808.639 5        33.560 5
G13  22770868.688 6 119661722.169 6     -2976.859 6        37.427 6  22770870.836 2  93242903.433 2     -2319.576 2        17.069 2
G15  20654038.914 5 108538086.947 5     -1597.311 5        33.113 5                                                                
> 2020 08 27 08 54 59.0000000  0  3       0.000000000000
G05  24065887.688 7 126467088.145 7     -2320.508 7        46.002 7  24065887.301 5  98545788.020 5     -1808.248 5        33.560 5
G13  22771435.664 6 119664699.380 6     -2976.582 6        37.585 6  22771437.281 3  93245223.345 3     -2319.400 3        18.618 3
G15  20654343.172 5 108539685.576 5     -1598.145 5        33.720 5                                                                
> 2020 08 27 08 55  0.0000000  0  3       0.000000000000
G05  24066329.492 7 126469409.120 7     -2320.723 7        45.980 7  24066329.066 5  98547596.559 5     -1808.443 5        33.588 5
G13  22772002.391 6 119667676.640 6     -2976.582 6        37.427 6  22772003.691 2  93247543.257 2     -2319.439 2        17.069 2
G15  20654648.184 5 108541284.384 5     -1597.422 5        33.527 5                                                                
> 2020 08 27 08 55  1.0000000  0  3       0.000000000000
G05  24066770.551 7 126471730.440 7     -2321.520 7        46.091 7  24066770.750 5  98549405.376 5     -1809.004 5        33.643 5
G13  22772569.082 6 119670654.208 6     -2978.045 6        37.507 6  22772570.242 2  93249863.448 2     -2320.566 2        16.400 2
G15  20654952.156 5 108542883.796 5     -1599.840 5        33.905 5                                                                
> 2020 08 27 08 55  2.0000000  0  3       0.000000000000
G05  24067212.512 7 126474051.598 7     -2321.176 7        46.113 7  24067212.566 5  98551214.060 5     -1808.084 5        33.615 5
G13  22773135.387 6 119673631.536 6     -2976.605 6        37.585 6  22773136.961 2  93252183.438 2     -2319.432 2        16.400 2
G15  20655256.891 5 108544483.122 5     -1599.105 5        33.905 5                                                                
> 2020 08 27 08 55  3.0000000  0  3       0.000000000000
G05  24067655.063 7 126476373.007 7     -2321.791 7        46.080 7  24067654.289 5  98553022.937 5     -1808.623 5        33.670 5
G13  22773702.141 6 119676609.104 6     -2977.475 6        37.093 6  22773703.543 2  93254503.625 2     -2320.107 2        16.400 2
G15  20655561.359 5 108546082.884 5     -1600.854 5        34.874 5                                                                
> 2020 08 27 08 55  4.0000000  0  3       0.000000000000
G05  24068096.516 7 126478694.417 7     -2321.305 7        46.124 7  24068096.129 5  98554831.843 5     -1808.637 5        33.790 5
G13  22774267.801 6 119679586.619 6     -2977.496 6        36.915 6  22774270.105 2  93256823.757 2     -2320.141 2        16.400 2
G15  20655865.160 5 108547682.710 5     -1599.703 5        35.154 5                                                                
> 2020 08 27 08 55  5.0000000  0  3       0.000000000000
G05  24068538.082 7 126481015.677 7     -2321.248 7        46.199 7  24068537.965 5  98556640.603 5     -1808.566 5        33.532 5
G13  22774834.426 6 119682563.931 6     -2977.400 6        36.538 6  22774836.617 2  93259143.728 2     -2320.109 2        17.069 2
G15  20656169.211 5 108549282.611 5     -1600.252 5        35.288 5                                                                
> 2020 08 27 08 55  6.0000000  0  3       0.000000000000
G05  24068979.824 7 126483337.130 7     -2321.332 7        45.991 7  24068979.707 5  98558449.559 5     -1809.287 5        33.490 5
G13  22775401.090 6 119685541.390 6     -2978.090 6        36.438 6  22775403.320 2  93261463.797 2     -2320.479 2        17.069 2
G15  20656474.016 5 108550882.780 5     -1598.930 5        35.418 5                                                                
> 2020 08 27 08 55  7.0000000  0  3       0.000000000000
G05  24069422.141 7 126485658.980 7     -2322.045 7        46.014 7  24069421.539 5  98560258.771 5     -1809.348 5        33.360 5
G13  22775967.895 5 119688519.162 5     -2977.357 5        35.901 5  22775969.828 2  93263784.136 2     -2319.953 2        15.608 2
G15  20656778.676 5 108552483.597 5     -1601.791 5        35.901 5                                                                
> 2020 08 27 08 55  8.0000000  0  3       0.000000000000
G05  24069863.508 7 126487980.631 7     -2321.580 7        46.058 7  24069863.250 5  98562067.874 5     -1809.986 5        33.390 5
G13  22776534.473 5 119691496.745 5     -2977.850 5        35.901 5  22776536.430 2  93266104.338 2     -2320.455 2        14.639 2
G15  20657084.254 6 108554084.269 6     -1600.740 6        36.014 6                                                                
> 2020 08 27 08 55  9.0000000  0  3       0.000000000000
G05  24070305.215 7 126490302.441 7     -2321.697 7        46.025 7  24070305.117 5  98563877.063 5     -1809.051 5        33.375 5
G13  22777100.813 6 119694474.423 6     -2977.615 6        36.014 6  22777103.000 2  93268424.643 2     -2320.184 2        15.608 2
G15  20657389.023 6 108555685.282 6     -1602.283 6        36.014 6                                                                
> 2020 08 27 08 55 10.0000000  0  3       0.000000000000
G05  24070747.348 7 126492624.606 7     -2322.426 7        46.058 7  24070747.105 5  98565686.547 5     -1810.219 5        33.302 5
G13  22777667.574 5 119697452.396 5     -2978.793 5        35.901 5  22777669.809 2  93270745.155 2     -2321.117 2        14.639 2
G15  20657693.641 6 108557286.802 6     -1602.582 6        36.231 6                                                                
> 2020 08 27 08 55 11.0000000  0  3       0.000000000000
G05  24071188.672 7 126494946.592 7     -2321.914 7        46.047 7  24071188.961 5  98567495.873 5     -1808.748 5        33.227 5
G13  22778234.391 5 119700430.156 5     -2978.457 5        35.544 5                                                                
G15  20657999.172 6 108558888.269 6     -1601.328 6        36.438 6                                                                
> 2020 08 27 08 55 12.0000000  0  3       0.000000000000
G05  24071630.910 7 126497268.844 7     -2321.963 7        46.091 7  24071630.926 5  98569305.422 5     -1809.559 5        33.242 5
G13  22778800.832 5 119703408.074 5     -2977.432 5        35.288 5  22778803.195 2  93275391.963 2     -2320.047 2        13.390 2
G15  20658303.039 6 108560490.160 6     -1602.197 6        36.231 6                                                                
> 2020 08 27 08 55 13.0000000  0  3       0.000000000000
G05  24072072.582 7 126499591.312 7     -2322.275 7        46.069 7  24072072.723 5  98571115.152 5     -1810.129 5        33.257 5
G13  22779367.996 5 119706386.248 5     -2978.623 5        35.288 5  22779369.871 2  93277712.594 2     -2320.910 2        13.390 2
G15  20658608.629 6 108562092.444 6     -1602.959 6        36.538 6                                                                
> 2020 08 27 08 55 14.0000000  0  3       0.000000000000
G05  24072514.473 7 126501913.787 7     -2322.811 7        45.935 7  24072514.742 5  98572924.858 5     -1810.174 5        33.152 5
G13  22779934.520 5 119709364.296 5     -2978.162 5        35.017 5  22779936.551 1  93280033.135 1     -2320.604 1        11.629 1
G15  20658913.727 6 108563694.833 6     -1602.693 6        36.438 6                                                                
> 2020 08 27 08 55 15.0000000  0  3       0.000000000000
G05  24072956.980 7 126504236.390 7     -2322.260 7        45.958 7  24072956.766 5  98574734.689 5     -1810.148 5        33.152 5
G13  22780501.230 5 119712342.489 5     -2977.553 5        34.727 5  22780503.320 2  93282353.802 2     -2320.227 2        13.390 2
G15  20659218.578 6 108565297.539 6     -1602.768 6        37.005 6                                                                
> 2020 08 27 08 55 16.0000000  0  3       0.000000000000
G05  24073399.242 7 126506559.477 7     -2323.055 7        45.666 7  24073398.984 5  98576544.869 5     -1810.275 5        33.136 5
G13  22781067.840 5 119715321.048 5     -2979.461 5        34.575 5  22781069.973 1  93284674.766 1     -2321.643 1        11.629 1
G15  20659523.617 6 108566900.853 6     -1603.602 6        36.915 6  20659522.801 3  84597291.886 3     -1248.557 3        21.406 3
> 2020 08 27 08 55 17.0000000  0  3       0.000000000000
G05  24073841.023 7 126508882.668 7     -2323.307 7        45.761 7  24073841.168 5  98578355.134 5     -1809.963 5        33.105 5
G13  22781634.109 5 119718299.638 5     -2976.959 5        34.575 5  22781636.973 1  93286995.749 1     -2319.689 1        11.629 1
G15  20659828.602 6 108568504.409 6     -1603.678 6        36.731 6  20659827.941 3  84598541.439 3     -1251.076 3        21.629 3
> 2020 08 27 08 55 18.0000000  0  3       0.000000000000
G05  24074283.273 7 126511205.906 7     -2322.959 7        45.773 7  24074283.305 5  98580165.477 5     -1810.396 5        32.932 5
G13  22782200.852 5 119721278.294 5     -2976.670 5        34.417 5  22782203.801 1  93289316.795 1     -2319.479 1        11.629 1
G15  20660134.344 6 108570108.183 6     -1603.701 6        36.538 6  20660133.156 3  84599791.134 3     -1250.182 3        21.629 3
> 2020 08 27 08 55 19.0000000  0  3       0.000000000000
G05  24074725.691 7 126513529.328 7     -2323.016 7        45.654 7  24074725.563 5  98581975.926 5     -1810.506 5        32.851 5
G13  22782767.473 5 119724257.087 5     -2978.582 5        34.082 5  22782770.809 1  93291637.940 1     -2320.975 1        11.629 1
G15  20660439.820 6 108571712.247 6     -1603.113 6        36.335 6  20660438.375 3  84601041.044 3     -1250.137 3        21.406 3
> 2020 08 27 08 55 20.0000000  0  3       0.000000000000
G05  24075167.547 7 126515853.337 7     -2324.164 7        45.568 7  24075167.789 5  98583786.836 5     -1811.561 5        32.751 5
G13  22783333.820 5 119727236.396 5     -2980.180 5        34.082 5  22783337.711 1  93293959.481 1     -2322.205 1        11.629 1
G15  20660745.453 6 108573317.089 6     -1605.063 6        36.438 6  20660743.723 3  84602291.553 3     -1250.135 3        22.598 3
> 2020 08 27 08 55 21.0000000  0  3       0.000000000000
G05  24075610.145 7 126518177.341 7     -2323.967 7        45.456 7  24075609.930 5  98585597.772 5     -1811.313 5        32.632 5
G13  22783901.195 5 119730215.666 5     -2979.826 5        33.720 5  22783904.672 1  93296280.996 1     -2321.996 1        11.629 1
G15  20661050.969 6 108574922.058 6     -1604.377 6        36.438 6  20661049.137 3  84603542.206 3     -1251.020 3        22.768 3
> 2020 08 27 08 55 22.0000000  0  3       0.000000000000
G05  24076051.891 7 126520501.595 7     -2323.980 7        45.235 7  24076052.148 5  98587408.869 5     -1811.086 5        32.735 5
G13  22784468.289 5 119733195.128 5     -2979.449 5        33.325 5                                                                
G15  20661356.492 6 108576527.442 6     -1605.797 6        36.438 6  20661354.617 3  84604793.018 3     -1249.211 3        23.242 3
> 2020 08 27 08 55 23.0000000  0  3       0.000000000000
G05  24076494.320 7 126522825.840 7     -2324.221 7        45.235 7  24076494.465 5  98589219.941 5     -1811.027 5        32.801 5
G13  22785034.777 5 119736174.489 5     -2979.164 5        32.407 5  22785038.598 1  93300923.235 1     -2321.359 1         8.618 1
G15  20661662.410 6 108578132.914 6     -1605.529 6        36.231 6  20661660.277 3  84606044.149 3     -1250.520 3        23.090 3
> 2020 08 27 08 55 24.0000000  0  3       0.000000000000
G05  24076936.648 7 126525150.332 7     -2324.781 7        45.141 7  24076936.832 5  98591031.242 5     -1811.564 5        32.735 5
G13  22785602.168 5 119739154.123 5     -2980.057 5        31.864 5  22785605.613 1  93303245.048 1     -2322.111 1        11.629 1
G15  20661967.656 6 108579738.790 6     -1605.543 6        36.538 6  20661965.867 3  84607295.503 3     -1252.912 3        23.390 3
> 2020 08 27 08 55 25.0000000  0  3       0.000000000000
G05  24077379.391 7 126527474.697 7     -2324.006 7        44.903 7  24077379.090 5  98592842.421 5     -1810.902 5        32.439 5
G13  22786168.828 5 119742133.542 5     -2979.201 5        31.564 5  22786172.723 1  93305566.677 1     -2321.488 1        11.629 1
G15  20662272.602 6 108581344.705 6     -1605.744 6        36.635 6  20662271.543 3  84608546.828 3     -1250.609 3        23.532 3
> 2020 08 27 08 55 26.0000000  0  3       0.000000000000
G05  24077821.582 7 126529799.552 7     -2325.041 7        44.667 7  24077821.496 5  98594654.027 5     -1811.855 5        32.140 5
G13  22786736.223 5 119745113.408 5     -2979.691 5        31.864 5  22786739.859 1  93307888.646 1     -2321.797 1        11.629 1
G15  20662578.566 6 108582951.250 6     -1605.529 6        36.014 6  20662577.309 3  84609798.731 3     -1253.379 3        23.242 3
> 2020 08 27 08 55 27.0000000  0  3       0.000000000000
G05  24078264.082 7 126532124.413 7     -2325.145 7        44.757 7  24078263.953 5  98596465.588 5     -1811.934 5        32.121 5
G13  22787303.500 5 119748093.255 5     -2979.930 5        31.242 5  22787306.852 1  93310210.608 1     -2322.070 1        11.629 1
G15  20662884.563 6 108584557.961 6     -1606.707 6        36.538 6  20662882.844 3  84611050.682 3     -1252.129 3        23.090 3
> 2020 08 27 08 55 28.0000000  0  3       0.000000000000
G05  24078706.207 7 126534449.163 7     -2324.662 7        44.636 7  24078706.352 5  98598277.061 5     -1811.211 5        31.922 5
G13  22787870.402 5 119751072.887 5     -2978.725 5        30.895 5  22787873.734 1  93312532.413 1     -2321.055 1         8.618 1
G15  20663190.605 6 108586164.697 6     -1606.732 6        36.231 6  20663188.688 3  84612302.687 3     -1251.992 3        23.390 3
> 2020 08 27 08 55 29.0000000  0  3       0.000000000000
G05  24079148.430 7 126536773.894 7     -2324.898 7        44.481 7  24079148.758 5  98600088.537 5     -1810.781 5        31.757 5
G13  22788437.828 5 119754052.477 5     -2978.785 5        31.242 5  22788440.578 1  93314854.155 1     -2321.055 1         8.618 1
G15  20663496.031 6 108587771.534 6     -1606.520 6        36.231 6  20663494.473 3  84613554.789 3     -1251.152 3        23.390 3
> 2020 08 27 08 55 30.0000000  0  3       0.000000000000
G05  24079590.906 7 126539098.343 7     -2324.313 7        44.401 7  24079591.109 5  98601899.813 5     -1811.539 5        31.715 5
G13  22789004.941 5 119757031.736 5     -2978.902 5        31.242 5  22789007.586 1  93317175.643 1     -2321.148 1        11.629 1
G15  20663801.715 5 108589378.296 5     -1606.363 5        35.901 5  20663800.281 3  84614806.835 3     -1252.770 3        23.803 3
> 2020 08 27 08 55 31.0000000  0  3       0.000000000000
G05  24080032.555 7 126541423.043 7     -2324.611 7        44.168 7  24080033.441 5  98603711.268 5     -1811.996 5        31.672 5
G13  22789572.223 5 119760011.165 5     -2979.201 5        31.564 5  22789574.727 1  93319497.282 1     -2321.469 1         8.618 1
G15  20664107.563 5 108590985.428 5     -1606.877 5        35.901 5  20664106.234 3  84616059.121 3     -1252.250 3        23.090 3
> 2020 08 27 08 55 32.0000000  0  3       0.000000000000
G05  24080474.852 7 126543747.531 7     -2324.566 7        43.995 7  24080475.797 5  98605522.550 5     -1811.775 5        31.541 5
G13  22790139.297 5 119762990.387 5     -2980.348 5        31.564 5  22790141.613 1  93321818.736 1     -2322.303 1        11.629 1
G15  20664412.922 5 108592592.536 5     -1608.529 5        35.901 5  20664412.109 3  84617311.339 3     -1253.025 3        22.932 3
> 2020 08 27 08 55 33.0000000  0  3       0.000000000000
G05  24080917.430 7 126546072.225 7     -2324.941 7        43.814 7  24080918.344 5  98607333.999 5     -1811.334 5        31.337 5
G13  22790705.504 5 119765969.784 5     -2981.094 5        31.864 5  22790708.465 1  93324140.350 1     -2322.877 1        11.629 1
G15  20664718.992 6 108594199.900 6     -1607.637 6        36.124 6  20664718.074 3  84618563.804 3     -1250.572 3        22.932 3
> 2020 08 27 08 55 34.0000000  0  3       0.000000000000
G05  24081359.441 7 126548397.447 7     -2325.197 7        43.567 7  24081360.801 5  98609145.850 5     -1812.104 5        31.219 5
G13  22791272.438 5 119768949.574 5     -2979.455 5        31.564 5                                                                
G15  20665025.211 6 108595808.017 6     -1608.811 6        36.124 6  20665024.023 3  84619816.968 3     -1253.607 3        23.532 3
> 2020 08 27 08 55 35.0000000  0  3       0.000000000000
G05  24081802.230 7 126550722.827 7     -2325.166 7        43.284 7  24081803.344 5  98610957.830 5     -1811.740 5        30.871 5
G13  22791839.285 5 119771929.499 5     -2980.479 5        30.895 5                                                                
G15  20665331.633 6 108597416.396 6     -1609.074 6        36.335 6  20665330.230 3  84621070.251 3     -1253.811 3        23.933 3
> 2020 08 27 08 55 36.0000000  0  3       0.000000000000
G05  24082244.203 7 126553048.793 7     -2325.912 7        43.113 7  24082246.020 5  98612770.268 5     -1812.090 5        30.577 5
G13  22792405.891 5 119774909.975 5     -2981.010 5        30.895 5  22792410.070 1  93331109.729 1     -2322.891 1        11.629 1
G15  20665638.527 6 108599025.467 6     -1609.838 6        36.731 6  20665636.309 4  84622324.089 4     -1254.529 4        24.300 4
> 2020 08 27 08 55 37.0000000  0  3       0.000000000000
G05  24082687.344 7 126555374.765 7     -2325.572 7        43.135 7  24082688.660 5  98614582.722 5     -1812.355 5        30.202 5
G13  22792972.809 5 119777890.310 5     -2978.619 5        30.517 5  22792977.145 1  93333432.063 1     -2321.105 1        11.629 1
G15  20665944.301 6 108600634.699 6     -1608.346 6        36.824 6  20665942.555 4  84623578.028 4     -1253.217 4        24.300 4
> 2020 08 27 08 55 38.0000000  0  2       0.000000000000
G05  24083130.664 7 126557701.121 7     -2327.410 7        42.913 7  24083131.320 5  98616395.443 5     -1813.164 5        30.202 5
G15  20666250.965 6 108602244.505 6     -1610.809 6        37.263 6  20666248.891 4  84624832.424 4     -1255.137 4        24.529 4
> 2020 08 27 08 55 39.0000000  0  2       0.000000000000
G05  24083572.762 7 126560027.552 7     -2326.609 7        42.891 7  24083574.137 5  98618208.264 5     -1813.311 5        30.202 5
G15  20666557.699 6 108603854.536 6     -1610.672 6        36.731 6  20666555.211 4  84626087.004 4     -1255.049 4        24.639 4
> 2020 08 27 08 55 40.0000000  0  2       0.000000000000
G05  24084015.293 7 126562354.051 7     -2325.977 7        42.751 7  24084016.895 5  98620021.121 5     -1812.557 5        30.080 5
G15  20666864.293 6 108605464.741 6     -1610.879 6        36.915 6  20666861.531 4  84627341.721 4     -1255.311 4        24.529 4
> 2020 08 27 08 55 41.0000000  0  2       0.000000000000
G05  24084457.840 7 126564680.756 7     -2326.930 7        42.583 7  24084459.754 4  98621834.113 4     -1812.643 4        29.954 4
G15  20667170.902 6 108607075.320 6     -1611.539 6        37.093 6  20667167.996 4  84628596.707 4     -1255.709 4        24.300 4
> 2020 08 27 08 55 42.0000000  0  2       0.000000000000
G05  24084900.520 7 126567007.631 7     -2326.809 7        42.278 7  24084902.465 4  98623647.283 4     -1813.586 4        29.656 4
G15  20667477.500 6 108608686.224 6     -1612.395 6        37.005 6  20667474.496 4  84629851.947 4     -1256.398 4        24.059 4
> 2020 08 27 08 55 43.0000000  0  2       0.000000000000
G05  24085343.684 7 126569334.726 7     -2327.689 7        42.034 7  24085345.418 4  98625460.611 4     -1814.359 4        29.724 4
G15  20667784.586 6 108610297.406 6     -1610.775 6        37.427 6  20667781.023 4  84631107.420 4     -1255.238 4        24.181 4
> 2020 08 27 08 55 44.0000000  0  2       0.000000000000
G05  24085786.359 6 126571661.932 6     -2327.717 6        41.950 6  24085788.148 4  98627273.991 4     -1813.607 4        29.553 4
G15  20668091.039 6 108611908.923 6     -1612.404 6        37.427 6  20668087.891 4  84632363.151 4     -1256.422 4        24.181 4
> 2020 08 27 08 55 45.0000000  0  2       0.000000000000
G05  24086228.676 6 126573988.976 6     -2327.699 6        41.656 6  24086230.863 4  98629087.267 4     -1813.467 4        29.300 4
G15  20668397.844 6 108613520.414 6     -1612.211 6        37.346 6  20668394.668 4  84633618.864 4     -1256.260 4        24.746 4
> 2020 08 27 08 55 46.0000000  0  2       0.000000000000
G05  24086672.117 6 126576316.354 6     -2325.951 6        41.309 6  24086673.762 4  98630900.849 4     -1813.537 4        28.789 4
G15  20668704.488 6 108615132.415 6     -1611.479 6        37.179 6  20668701.313 4  84634874.963 4     -1255.705 4        24.529 4
> 2020 08 27 08 55 47.0000000  0  2       0.000000000000
G05  24087114.723 6 126578643.937 6     -2326.908 6        41.502 6  24087116.711 4  98632714.516 4     -1813.250 4        29.187 4
G15  20669010.875 6 108616744.704 6     -1612.025 6        37.427 6  20669008.039 4  84636131.300 4     -1256.121 4        24.953 4
> 2020 08 27 08 55 48.0000000  0  2       0.000000000000
G05  24087557.402 6 126580971.386 6     -2327.631 6        41.309 6  24087559.762 4  98634528.083 4     -1813.293 4        29.446 4
G15  20669317.902 6 108618357.035 6     -1613.705 6        37.346 6  20669314.727 4  84637387.661 4     -1257.492 4        25.150 4
> 2020 08 27 08 55 49.0000000  0  2       0.000000000000
G05  24088000.906 6 126583299.425 6     -2327.842 6        41.072 6  24088002.824 4  98636342.171 4     -1814.242 4        29.300 4
G15  20669624.898 6 108619970.067 6     -1612.900 6        37.005 6  20669621.535 4  84638644.561 4     -1256.742 4        24.851 4
> 2020 08 27 08 55 50.0000000  0  2       0.000000000000
G05  24088443.902 6 126585626.927 6     -2327.594 6        41.242 6  24088445.879 4  98638155.819 4     -1814.717 4        28.912 4
G15  20669931.813 6 108621582.748 6     -1613.453 6        37.427 6  20669928.336 4  84639901.189 4     -1257.236 4        24.529 4
> 2020 08 27 08 55 51.0000000  0  2       0.000000000000
G05  24088886.945 6 126587954.597 6     -2327.443 6        40.822 6  24088888.832 4  98639969.559 4     -1813.818 4        29.187 4
G15  20670238.918 6 108623195.746 6     -1613.479 6        37.585 6  20670235.297 4  84641158.048 4     -1257.236 4        25.053 4
> 2020 08 27 08 55 52.0000000  0  2       0.000000000000
G05  24089329.992 6 126590282.187 6     -2327.102 6        40.895 6  24089332.027 4  98641783.254 4     -1813.365 4        28.789 4
G15  20670545.887 6 108624808.784 6     -1612.590 6        37.885 6  20670542.324 4  84642414.964 4     -1256.646 4        24.300 4
> 2020 08 27 08 55 53.0000000  0  2       0.000000000000
G05  24089772.340 6 126592609.722 6     -2327.521 6        40.672 6  24089775.070 4  98643596.917 4     -1813.922 4        28.789 4
G15  20670853.438 6 108626421.913 6     -1613.322 6        38.232 6  20670849.215 4  84643671.955 4     -1257.203 4        24.851 4
> 2020 08 27 08 55 54.0000000  0  2       0.000000000000
G05  24090215.559 6 126594937.725 6     -2327.967 6        40.748 6  24090218.164 4  98645410.938 4     -1814.125 4        28.830 4
G15  20671160.148 6 108628035.665 6     -1614.061 6        37.956 6  20671156.457 4  84644929.427 4     -1257.719 4        25.520 4
> 2020 08 27 08 55 55.0000000  0  2       0.000000000000
G05  24090658.504 6 126597266.056 6     -2328.680 6        40.437 6  24090661.195 4  98647225.190 4     -1814.010 4        28.618 4
G15  20671467.441 6 108629649.834 6     -1613.465 6        37.662 6  20671463.578 4  84646187.209 4     -1257.291 4        25.150 4
> 2020 08 27 08 55 56.0000000  0  2       0.000000000000
G05  24091101.066 6 126599594.592 6     -2328.689 6        40.397 6  24091104.188 4  98649039.645 4     -1814.449 4        28.256 4
G15  20671774.641 6 108631264.403 6     -1614.881 6        37.662 6  20671770.605 4  84647445.325 4     -1258.375 4        25.339 4
> 2020 08 27 08 55 57.0000000  0  2       0.000000000000
G05  24091544.145 6 126601923.247 6     -2329.063 6        40.477 6  24091547.219 4  98650854.176 4     -1814.828 4        28.063 4
G15  20672082.637 6 108632879.242 6     -1615.059 6        37.346 6  20672077.887 4  84648703.636 4     -1258.520 4        25.942 4
> 2020 08 27 08 55 58.0000000  0  2       0.000000000000
G05  24091987.148 6 126604252.055 6     -2329.691 6        40.595 6  24091990.512 4  98652668.814 4     -1814.596 4        28.161 4
G15  20672389.703 6 108634494.324 6     -1614.945 6        37.427 6  20672385.242 4  84649962.148 4     -1258.365 4        25.778 4
> 2020 08 27 08 55 59.0000000  0  2       0.000000000000
G05  24092431.172 6 126606581.215 6     -2329.027 6        40.556 6  24092433.676 4  98654483.778 4     -1814.984 4        28.112 4
G15  20672697.363 6 108636109.979 6     -1614.984 6        37.737 6  20672692.754 4  84651221.099 4     -1258.441 4        25.861 4
> 2020 08 27 08 56  0.0000000  0  2       0.000000000000
G05  24092874.734 6 126608910.537 6     -2329.188 6        40.595 6  24092877.070 4  98656298.810 4     -1814.475 4        27.809 4
G15  20673004.418 6 108637725.940 6     -1617.139 6        37.662 6  20673000.281 4  84652480.277 4     -1260.100 4        25.861 4
> 2020 08 27 08 56  1.0000000  0  2       0.000000000000
G05  24093318.094 6 126611239.908 6     -2329.656 6        40.672 6  24093320.398 4  98658113.894 4     -1814.807 4        27.756 4
G15  20673312.266 6 108639342.089 6     -1617.703 6        38.027 6  20673307.789 4  84653739.625 4     -1260.549 4        26.177 4
> 2020 08 27 08 56  2.0000000  0  2       0.000000000000
G05  24093760.766 6 126613569.364 6     -2329.510 6        40.785 6  24093763.641 4  98659929.038 4     -1814.570 4        27.539 4
G15  20673619.859 6 108640958.388 6     -1616.463 6        37.956 6  20673615.383 4  84654999.094 4     -1259.609 4        26.253 4
> 2020 08 27 08 56  3.0000000  0  2       0.000000000000
G05  24094204.309 6 126615899.059 6     -2329.500 6        40.822 6  24094206.926 4  98661744.420 4     -1815.656 4        27.426 4
G15  20673927.895 6 108642575.108 6     -1615.906 6        38.027 6  20673922.871 4  84656258.865 4     -1259.113 4        25.608 4
> 2020 08 27 08 56  4.0000000  0  2       0.000000000000
G05  24094647.789 6 126618228.848 6     -2330.543 6        40.822 6  24094650.367 4  98663559.803 4     -1815.389 4        27.426 4
G15  20674235.012 6 108644192.109 6     -1617.652 6        37.662 6  20674230.746 4  84657518.857 4     -1260.525 4        26.177 4
> 2020 08 27 08 56  5.0000000  0  2       0.000000000000
G05  24095090.598 6 126620558.617 6     -2330.117 6        40.895 6  24095093.688 4  98665375.239 4     -1815.859 4        27.649 4
G15  20674542.309 6 108645809.193 6     -1617.617 6        37.585 6  20674538.414 4  84658778.923 4     -1260.527 4        26.100 4
> 2020 08 27 08 56  6.0000000  0  2       0.000000000000
G05  24095534.609 6 126622888.693 6     -2330.498 6        41.002 6  24095537.082 4  98667190.883 4     -1816.047 4        27.252 4
G15  20674850.238 6 108647426.767 6     -1618.467 6        37.812 6  20674846.359 4  84660039.369 4     -1261.184 4        26.472 4
> 2020 08 27 08 56  7.0000000  0  2       0.000000000000
G05  24095978.117 6 126625218.891 6     -2330.361 6        41.002 6  24095980.566 4  98669006.599 4     -1816.039 4        27.069 4
G15  20675158.098 6 108649044.501 6     -1617.568 6        37.346 6  20675154.234 4  84661299.945 4     -1260.434 4        26.327 4
> 2020 08 27 08 56  8.0000000  0  2       0.000000000000
G05  24096421.391 6 126627549.084 6     -2330.396 6        41.141 6  24096423.996 4  98670822.320 4     -1815.805 4        27.311 4
G15  20675465.863 6 108650662.443 6     -1617.994 6        37.737 6  20675461.957 4  84662560.691 4     -1260.688 4        26.327 4
> 2020 08 27 08 56  9.0000000  0  2       0.000000000000
G05  24096864.680 6 126629879.692 6     -2330.840 6        41.141 6  24096867.473 4  98672638.374 4     -1816.324 4        27.252 4
G15  20675773.789 6 108652280.948 6     -1619.316 6        37.737 6  20675769.969 4  84663821.849 4     -1261.813 4        26.472 4
> 2020 08 27 08 56 10.0000000  0  2       0.000000000000
G05  24097308.520 6 126632210.212 6     -2331.502 6        41.276 6  24097310.953 4  98674454.334 4     -1815.834 4        27.069 4
G15  20676082.262 6 108653899.533 6     -1620.740 6        37.812 6  20676078.055 4  84665083.096 4     -1263.002 4        26.253 4
> 2020 08 27 08 56 11.0000000  0  2       0.000000000000
G05  24097752.273 6 126634541.036 6     -2331.002 6        41.242 6  24097754.477 4  98676270.594 4     -1816.686 4        27.539 4
G15  20676390.793 6 108655518.516 6     -1619.439 6        37.812 6  20676386.086 4  84666344.650 4     -1261.998 4        26.100 4
> 2020 08 27 08 56 12.0000000  0  2       0.000000000000
G05  24098196.273 6 126636871.848 6     -2330.123 6        41.309 6  24098198.047 4  98678086.802 4     -1815.896 4        27.131 4
G15  20676698.426 6 108657137.663 6     -1619.225 6        37.585 6  20676694.277 4  84667606.334 4     -1261.717 4        26.400 4
> 2020 08 27 08 56 13.0000000  0  2       0.000000000000
G05  24098639.738 6 126639202.896 6     -2330.629 6        41.276 6  24098641.684 4  98679903.222 4     -1816.439 4        27.252 4
G15  20677006.668 6 108658757.147 6     -1620.082 6        37.346 6  20677002.434 4  84668868.276 4     -1262.436 4        26.400 4
> 2020 08 27 08 56 14.0000000  0  2       0.000000000000
G05  24099083.414 6 126641534.209 6     -2331.311 6        41.309 6  24099085.203 4  98681719.808 4     -1815.975 4        27.131 4
G15  20677314.840 6 108660377.075 6     -1620.529 6        37.179 6  20677310.730 4  84670130.565 4     -1262.752 4        26.542 4
> 2020 08 27 08 56 15.0000000  0  2       0.000000000000
G05  24099526.676 6 126643865.707 6     -2331.811 6        41.533 6  24099528.867 4  98683536.569 4     -1817.111 4        27.252 4
G15  20677622.020 6 108661997.294 6     -1621.127 6        36.915 6  20677619.074 4  84671393.056 4     -1263.129 4        25.694 4
> 2020 08 27 08 56 16.0000000  0  2       0.000000000000
G05  24099971.000 6 126646197.193 6     -2332.021 6        41.502 6  24099972.574 4  98685353.282 4     -1816.699 4        27.069 4
G15  20677930.406 6 108663617.643 6     -1621.357 6        36.538 6  20677927.516 4  84672655.671 4     -1263.318 4        25.861 4
> 2020 08 27 08 56 17.0000000  0  2       0.000000000000
G05  24100415.199 6 126648528.710 6     -2331.592 6        41.533 6  24100416.258 4  98687170.028 4     -1815.898 4        27.311 4
G15  20678238.523 6 108665238.148 6     -1620.984 6        36.438 6  20678235.816 4  84673918.403 4     -1263.145 4        25.608 4
> 2020 08 27 08 56 18.0000000  0  2       0.000000000000
G05  24100858.887 6 126650860.593 6     -2332.119 6        41.533 6  24100859.859 4  98688987.089 4     -1816.938 4        27.483 4
G15  20678547.707 6 108666859.160 6     -1621.338 6        36.438 6  20678544.242 4  84675181.526 4     -1263.383 4        26.022 4
> 2020 08 27 08 56 19.0000000  0  2       0.000000000000
G05  24101302.063 6 126653192.488 6     -2331.727 6        41.626 6  24101303.680 4  98690804.170 4     -1816.643 4        27.131 4
G15  20678856.520 6 108668480.294 6     -1619.793 6        36.335 6  20678852.898 4  84676444.748 4     -1262.150 4        26.253 4
> 2020 08 27 08 56 20.0000000  0  3       0.000000000000
G05  24101745.859 6 126655524.577 6     -2331.650 6        41.656 6  24101747.348 4  98692621.388 4     -1817.391 4        27.007 4
G13  22817386.824 5 119906190.271 5     -2984.678 5        31.564 5                                                                
G15  20679164.379 6 108670101.858 6     -1622.178 6        36.014 6  20679161.473 4  84677708.313 4     -1264.109 4        26.022 4
> 2020 08 27 08 56 21.0000000  0  3       0.000000000000
G05  24102189.621 6 126657856.721 6     -2332.842 6        41.806 6  24102191.195 4  98694438.605 4     -1817.172 4        27.131 4
G13  22817952.500 5 119909174.473 5     -2984.404 5        32.144 5                                                                
G15  20679472.918 6 108671723.521 6     -1622.314 6        36.335 6  20679470.055 4  84678971.947 4     -1264.145 4        25.694 4
> 2020 08 27 08 56 22.0000000  0  3       0.000000000000
G05  24102633.047 6 126660189.097 6     -2332.982 6        41.776 6  24102634.965 4  98696256.032 4     -1817.061 4        26.472 4
G13  22818517.980 5 119912158.903 5     -2985.268 5        32.656 5                                                                
G15  20679781.551 6 108673345.605 6     -1622.631 6        36.335 6  20679778.645 4  84680235.822 4     -1263.018 4        26.022 4
> 2020 08 27 08 56 23.0000000  0  3       0.000000000000
G05  24103077.805 6 126662521.482 6     -2332.836 6        41.978 6  24103078.852 4  98698073.469 4     -1816.857 4        26.472 4
G13  22819084.512 5 119915143.256 5     -2984.184 5        32.656 5                                                                
G15  20680089.801 6 108674967.836 6     -1622.092 6        36.635 6  20680087.582 4  84681499.968 4     -1263.850 4        25.431 4
> 2020 08 27 08 56 24.0000000  0  3       0.000000000000
G05  24103521.004 6 126664854.098 6     -2332.760 6        41.921 6  24103522.793 4  98699891.104 4     -1817.357 4        26.814 4
G13  22819651.199 5 119918127.826 5     -2985.143 5        32.891 5                                                                
G15  20680398.777 6 108676590.464 6     -1623.404 6        36.438 6  20680396.543 4  84682764.347 4     -1266.225 4        25.431 4
> 2020 08 27 08 56 25.0000000  0  3       0.000000000000
G05  24103965.309 6 126667186.691 6     -2332.543 6        41.835 6  24103966.668 4  98701708.717 4     -1817.354 4        27.131 4
G13  22820217.703 5 119921112.267 5     -2984.262 5        33.113 5                                                                
G15  20680707.719 6 108678213.172 6     -1622.230 6        36.335 6  20680705.285 4  84684028.821 4     -1265.068 4        25.778 4
> 2020 08 27 08 56 26.0000000  0  3       0.000000000000
G05  24104409.273 6 126669519.694 6     -2332.592 6        41.864 6  24104410.504 4  98703526.662 4     -1818.111 4        26.943 4
G13  22820785.445 5 119924097.105 5     -2984.623 5        33.527 5                                                                
G15  20681016.746 6 108679836.460 6     -1624.604 6        36.231 6  20681014.230 4  84685293.719 4     -1265.963 4        25.942 4
> 2020 08 27 08 56 27.0000000  0  3       0.000000000000
G05  24104853.195 7 126671852.718 7     -2333.219 7        42.117 7  24104854.414 4  98705344.582 4     -1819.004 4        26.680 4
G13  22821353.141 5 119927081.891 5     -2984.977 5        33.527 5                                                                
G15  20681326.305 6 108681459.904 6     -1624.098 6        36.231 6  20681323.285 4  84686558.700 4     -1264.922 4        26.022 4
> 2020 08 27 08 56 28.0000000  0  3       0.000000000000
G05  24105296.953 6 126674185.962 6     -2332.809 6        41.806 6  24105298.410 4  98707162.666 4     -1817.551 4        26.879 4
G13  22821920.957 5 119930066.847 5     -2983.980 5        34.082 5                                                                
G15  20681635.270 6 108683083.682 6     -1623.492 6        36.231 6  20681632.320 4  84687823.963 4     -1263.449 4        25.778 4
> 2020 08 27 08 56 29.0000000  0  3       0.000000000000
G05  24105741.141 6 126676519.129 6     -2333.203 6        41.835 6  24105742.512 4  98708980.750 4     -1818.615 4        27.007 4
G13  22822488.633 5 119933051.682 5     -2985.332 5        33.527 5                                                                
G15  20681943.520 6 108684707.511 6     -1623.281 6        36.124 6  20681941.574 4  84689089.377 4     -1266.682 4        26.472 4
> 2020 08 27 08 56 30.0000000  0  3       0.000000000000
G05  24106185.234 6 126678852.657 6     -2333.584 6        41.921 6  24106186.523 4  98710799.044 4     -1818.049 4        27.069 4
G13  22823056.504 5 119936036.816 5     -2985.205 5        34.082 5                                                                
G15  20682251.965 6 108686331.954 6     -1625.068 6        36.824 6  20682250.734 4  84690355.124 4     -1265.959 4        26.177 4
> 2020 08 27 08 56 31.0000000  0  3       0.000000000000
G05  24106629.711 7 126681186.865 7     -2333.627 7        42.034 7  24106630.824 4  98712617.911 4     -1818.295 4        27.192 4
G13  22823624.180 5 119939022.533 5     -2985.814 5        33.720 5                                                                
G15  20682561.074 6 108687957.144 6     -1624.973 6        36.335 6  20682560.156 4  84691621.469 4     -1266.127 4        25.861 4
> 2020 08 27 08 56 32.0000000  0  3       0.000000000000
G05  24107073.820 7 126683520.677 7     -2333.395 7        42.006 7  24107075.094 4  98714436.493 4     -1819.758 4        27.007 4
G13  22824192.496 5 119942007.849 5     -2985.211 5        33.113 5                                                                
G15  20682870.535 6 108689582.084 6     -1625.074 6        36.438 6  20682869.676 4  84692887.613 4     -1265.402 4        26.022 4
> 2020 08 27 08 56 33.0000000  0  3       0.000000000000
G05  24107518.473 7 126685854.649 7     -2334.377 7        42.034 7  24107519.230 4  98716255.104 4     -1817.703 4        27.311 4
G13  22824760.637 5 119944993.199 5     -2985.451 5        34.417 5                                                                
G15  20683179.539 6 108691207.313 6     -1625.842 6        36.231 6  20683179.035 4  84694154.116 4     -1267.939 4        26.472 4
> 2020 08 27 08 56 34.0000000  0  3       0.000000000000
G05  24107962.777 7 126688188.725 7     -2334.352 7        42.198 7  24107963.465 4  98718073.921 4     -1819.236 4        27.311 4
G13  22825329.285 5 119947978.665 5     -2984.020 5        34.575 5                                                                
G15  20683488.762 5 108692832.786 5     -1625.719 5        35.785 5  20683488.531 4  84695420.695 4     -1267.576 4        25.942 4
> 2020 08 27 08 56 35.0000000  0  3       0.000000000000
G05  24108406.707 7 126690523.000 7     -2334.832 7        42.117 7  24108407.723 4  98719892.836 4     -1819.287 4        26.879 4
G13  22825896.988 5 119950964.292 5     -2986.082 5        33.905 5                                                                
G15  20683798.898 6 108694458.600 6     -1626.334 6        36.915 6  20683798.039 4  84696687.549 4     -1266.611 4        25.861 4
> 2020 08 27 08 56 36.0000000  0  3       0.000000000000
G05  24108851.063 6 126692857.443 6     -2334.783 6        41.950 6  24108851.836 4  98721711.864 4     -1819.143 4        26.879 4
G13  22826465.266 5 119953950.004 5     -2986.600 5        33.720 5  22826477.730 1  93470609.551 1     -2327.168 1        11.629 1
G15  20684108.035 6 108696084.764 6     -1626.541 6        36.915 6  20684107.621 4  84697954.689 4     -1267.561 4        25.778 4
> 2020 08 27 08 56 37.0000000  0  3       0.000000000000
G05  24109294.938 7 126695191.902 7     -2334.516 7        42.006 7  24109296.082 4  98723530.949 4     -1819.807 4        26.747 4
G13  22827033.770 5 119956935.688 5     -2985.982 5        33.905 5  22827045.789 2  93472936.048 2     -2326.740 2        13.390 2
G15  20684417.402 6 108697711.063 6     -1626.625 6        37.263 6  20684417.316 4  84699221.925 4     -1267.482 4        26.022 4
> 2020 08 27 08 56 38.0000000  0  3       0.000000000000
G05  24109739.719 7 126697526.614 7     -2335.486 7        42.171 7  24109740.293 4  98725350.204 4     -1820.539 4        26.612 4
G13  22827601.758 5 119959921.580 5     -2986.072 5        34.417 5  22827613.906 2  93475262.721 2     -2326.809 2        13.390 2
G15  20684727.820 6 108699337.746 6     -1627.967 6        37.507 6  20684726.992 4  84700489.452 4     -1267.629 4        26.253 4
> 2020 08 27 08 56 39.0000000  0  3       0.000000000000
G05  24110184.047 7 126699861.487 7     -2334.730 7        42.090 7  24110184.594 4  98727169.571 4     -1819.953 4        26.472 4
G13  22828169.430 5 119962907.563 5     -2985.473 5        34.417 5  22828182.152 2  93477589.457 2     -2326.301 2        13.390 2
G15  20685037.645 6 108700964.763 6     -1628.324 6        37.812 6  20685036.871 4  84701757.299 4     -1269.426 4        26.177 4
> 2020 08 27 08 56 40.0000000  0  3       0.000000000000
G05  24110628.051 7 126702196.363 7     -2334.617 7        42.062 7  24110628.980 4  98728988.958 4     -1819.143 4        26.400 4
G13  22828737.781 5 119965893.505 5     -2985.223 5        34.253 5  22828750.344 2  93479916.137 2     -2326.115 2        13.390 2
G15  20685346.852 6 108702591.873 6     -1626.258 6        37.662 6  20685346.727 4  84703025.146 4     -1267.248 4        26.327 4
> 2020 08 27 08 56 41.0000000  0  3       0.000000000000
G05  24111071.867 7 126704531.658 7     -2335.244 7        42.304 7  24111073.328 4  98730808.682 4     -1819.891 4        26.100 4
G13  22829306.520 5 119968879.824 5     -2986.221 5        34.417 5                                                                
G15  20685656.738 6 108704219.586 6     -1628.057 6        37.885 6  20685656.410 4  84704293.528 4     -1268.563 4        25.778 4
> 2020 08 27 08 56 42.0000000  0  3       0.000000000000
G05  24111516.930 7 126706867.037 7     -2335.074 7        42.171 7  24111517.719 4  98732628.463 4     -1820.199 4        25.520 4
G13  22829875.355 5 119971866.191 5     -2987.105 5        34.575 5                                                                
G15  20685966.578 6 108705847.489 6     -1627.203 6        37.585 6  20685966.250 4  84705562.034 4     -1268.676 4        26.400 4
> 2020 08 27 08 56 43.0000000  0  3       0.000000000000
G05  24111960.855 7 126709202.488 7     -2335.670 7        42.225 7  24111962.188 4  98734448.263 4     -1820.281 4        25.520 4
G13  22830443.340 5 119974852.503 5     -2986.100 5        35.288 5                                                                
G15  20686276.285 6 108707475.662 6     -1628.795 6        37.427 6  20686276.199 4  84706830.681 4     -1268.992 4        26.814 4
> 2020 08 27 08 56 44.0000000  0  3       0.000000000000
G05  24112405.531 7 126711538.240 7     -2335.627 7        42.144 7  24112406.605 4  98736268.331 4     -1820.781 4        25.861 4
G13  22831011.363 5 119977839.079 5     -2986.779 5        35.544 5                                                                
G15  20686585.879 6 108709104.196 6     -1628.420 6        37.346 6  20686586.340 4  84708099.703 4     -1269.258 4        26.814 4
> 2020 08 27 08 56 45.0000000  0  3       0.000000000000
G05  24112850.180 7 126713873.993 7     -2336.072 7        42.225 7  24112851.082 4  98738088.412 4     -1820.281 4        25.861 4
G13  22831580.355 5 119980825.656 5     -2987.771 5        35.418 5                                                                
G15  20686895.879 6 108710732.915 6     -1628.143 6        37.427 6  20686896.309 4  84709368.821 4     -1269.559 4        27.069 4
> 2020 08 27 08 56 46.0000000  0  3       0.000000000000
G05  24113294.891 7 126716209.955 7     -2336.732 7        42.198 7  24113295.777 4  98739908.622 4     -1820.627 4        25.520 4
G13  22832148.699 5 119983812.354 5     -2987.846 5        35.785 5  22832159.773 1  93493876.876 1     -2328.166 1         8.618 1
G15  20687205.656 6 108712362.011 6     -1630.305 6        37.585 6  20687206.555 4  84710638.212 4     -1268.811 4        27.069 4
> 2020 08 27 08 56 47.0000000  0  3       0.000000000000
G05  24113738.895 7 126718545.793 7     -2336.008 7        42.356 7  24113740.270 4  98741728.766 4     -1820.031 4        25.520 4
G13  22832716.191 6 119986798.896 6     -2986.615 6        36.231 6                                                                
G15  20687515.867 6 108713991.104 6     -1629.797 6        37.737 6  20687516.727 4  84711907.670 4     -1270.109 4        26.943 4
> 2020 08 27 08 56 48.0000000  0  3       0.000000000000
G05  24114183.930 7 126720881.980 7     -2336.574 7        42.533 7  24114184.891 4  98743549.171 4     -1820.846 4        25.861 4
G13  22833285.000 6 119989785.689 6     -2986.203 6        36.335 6                                                                
G15  20687825.680 6 108715620.665 6     -1629.836 6        37.737 6  20687826.984 4  84713177.436 4     -1269.869 4        26.747 4
> 2020 08 27 08 56 49.0000000  0  3       0.000000000000
G05  24114628.320 7 126723218.241 7     -2336.996 7        42.483 7  24114629.434 4  98745369.622 4     -1820.549 4        25.246 4
G13  22833853.164 6 119992772.532 6     -2987.367 6        36.335 6                                                                
G15  20688135.707 6 108717250.470 6     -1631.643 6        38.096 6  20688137.207 4  84714447.461 4     -1271.076 4        26.612 4
> 2020 08 27 08 56 50.0000000  0  3       0.000000000000
G05  24115072.863 7 126725554.415 7     -2335.887 7        42.330 7  24115073.992 4  98747190.003 4     -1819.934 4        25.339 4
G13  22834422.055 6 119995759.247 6     -2987.039 6        37.005 6  22834433.215 1  93503187.175 1     -2327.512 1        11.629 1
G15  20688446.461 6 108718880.325 6     -1630.672 6        37.885 6  20688447.445 4  84715717.447 4     -1269.191 4        27.252 4
> 2020 08 27 08 56 51.0000000  0  3       0.000000000000
G05  24115517.461 7 126727890.947 7     -2336.422 7        42.171 7  24115518.707 4  98749010.672 4     -1820.107 4        25.520 4
G13  22834990.715 6 119998746.235 6     -2986.480 6        36.824 6  22835001.574 2  93505514.704 2     -2327.119 2        13.390 2
G15  20688756.406 6 108720510.661 6     -1630.953 6        37.956 6  20688757.781 4  84716987.821 4     -1269.482 4        27.369 4
> 2020 08 27 08 56 52.0000000  0  3       0.000000000000
G05  24115962.336 7 126730227.721 7     -2336.289 7        42.251 7  24115963.352 4  98750831.540 4     -1820.730 4        25.520 4
G13  22835558.648 6 120001733.430 6     -2986.777 6        37.093 6  22835569.996 2  93507842.395 2     -2327.352 2        13.390 2
G15  20689066.492 6 108722141.363 6     -1630.430 6        38.027 6  20689068.234 4  84718258.569 4     -1271.668 4        27.539 4
> 2020 08 27 08 56 53.0000000  0  3       0.000000000000
G05  24116406.945 7 126732564.756 7     -2337.498 7        42.304 7  24116407.949 4  98752652.626 4     -1821.965 4        24.639 4
G13  22836127.750 6 120004720.794 6     -2987.225 6        37.263 6  22836138.410 2  93510170.241 2     -2327.824 2        15.608 2
G15  20689377.453 6 108723772.519 6     -1631.932 6        38.298 6  20689378.742 4  84719529.540 4     -1270.871 4        27.539 4
> 2020 08 27 08 56 54.0000000  0  3       0.000000000000
G05  24116851.090 7 126734901.697 7     -2336.836 7        42.330 7  24116852.680 4  98754473.593 4     -1820.770 4        24.953 4
G13  22836696.668 6 120007708.021 6     -2986.504 6        37.263 6  22836706.797 2  93512497.946 2     -2327.000 2        14.639 2
G15  20689688.090 6 108725403.703 6     -1631.387 6        38.428 6  20689689.266 4  84720800.613 4     -1271.180 4        27.539 4
> 2020 08 27 08 56 55.0000000  0  3       0.000000000000
G05  24117296.688 7 126737238.967 7     -2336.842 7        42.251 7  24117297.547 4  98756294.866 4     -1821.395 4        25.431 4
G13  22837265.180 6 120010695.574 6     -2987.408 6        37.507 6  22837275.152 2  93514825.914 2     -2327.764 2        15.608 2
G15  20689998.895 6 108727035.348 6     -1631.490 6        38.232 6  20689999.953 4  84722072.010 4     -1270.848 4        27.426 4
> 2020 08 27 08 56 56.0000000  0  3       0.000000000000
G05  24117740.785 6 126739576.481 6     -2337.082 6        41.978 6  24117742.516 4  98758116.307 4     -1821.639 4        25.431 4
G13  22837833.484 6 120013683.311 6     -2989.348 6        37.507 6  22837843.543 2  93517154.031 2     -2329.414 2        14.639 2
G15  20690309.777 6 108728667.357 6     -1631.438 6        38.298 6  20690310.621 4  84723343.691 4     -1270.291 4        27.595 4
> 2020 08 27 08 56 57.0000000  0  3       0.000000000000
G05  24118186.242 7 126741914.044 7     -2337.721 7        42.117 7  24118187.215 4  98759937.774 4     -1822.406 4        25.339 4
G13  22838402.285 6 120016670.922 6     -2988.111 6        37.263 6  22838411.875 2  93519482.044 2     -2328.441 2        14.639 2
G15  20690619.867 6 108730299.566 6     -1632.252 6        38.428 6  20690621.285 4  84724615.559 4     -1272.387 4        27.649 4
> 2020 08 27 08 56 58.0000000  0  3       0.000000000000
G05  24118630.750 7 126744251.732 7     -2337.652 7        42.090 7  24118632.168 4  98761759.343 4     -1821.725 4        25.246 4
G13  22838970.570 6 120019658.688 6     -2987.320 6        37.263 6  22838980.398 2  93521810.178 2     -2327.779 2        14.639 2
G15  20690930.871 6 108731932.036 6     -1632.418 6        38.428 6  20690932.016 4  84725887.601 4     -1271.568 4        27.252 4
> 2020 08 27 08 56 59.0000000  0  3       0.000000000000
G05  24119075.742 7 126746589.371 7     -2337.699 7        42.198 7  24119077.031 4  98763580.893 4     -1822.307 4        25.246 4
G13  22839538.906 6 120022646.341 6     -2987.875 6        37.427 6  22839548.852 2  93524138.208 2     -2328.166 2        16.400 2
G15  20691241.930 6 108733564.649 6     -1633.129 6        38.676 6  20691242.715 4  84727159.752 4     -1271.955 4        27.192 4
> 2020 08 27 08 57  0.0000000  0  3       0.000000000000
G05  24119520.332 7 126748927.221 7     -2337.256 7        42.171 7  24119521.820 4  98765402.591 4     -1821.744 4        25.150 4
G13  22840107.555 6 120025634.141 6     -2988.174 6        37.263 6  22840117.301 2  93526466.353 2     -2328.402 2        14.639 2
G15  20691552.586 6 108735197.553 6     -1633.154 6        38.554 6  20691553.602 4  84728432.141 4     -1271.354 4        27.131 4
> 2020 08 27 08 57  1.0000000  0  3       0.000000000000
G05  24119965.004 7 126751265.402 7     -2338.451 7        42.198 7  24119966.707 4  98767224.520 4     -1821.957 4        25.778 4
G13  22840675.859 6 120028622.204 6     -2988.197 6        37.093 6  22840685.777 2  93528794.699 2     -2328.383 2        14.639 2
G15  20691862.465 6 108736830.922 6     -1632.416 6        38.676 6  20691864.527 4  84729704.931 4     -1272.270 4        27.369 4
> 2020 08 27 08 57  2.0000000  0  3       0.000000000000
G05  24120410.328 7 126753603.532 7     -2338.578 7        42.251 7  24120411.645 4  98769046.439 4     -1821.943 4        25.694 4
G13  22841244.527 6 120031610.155 6     -2988.266 6        37.263 6  22841254.270 2  93531122.968 2     -2328.545 2        14.639 2
G15  20692172.992 6 108738464.391 6     -1633.871 6        38.428 6  20692175.410 4  84730977.728 4     -1272.549 4        27.649 4
> 2020 08 27 08 57  3.0000000  0  3       0.000000000000
G05  24120855.859 7 126755941.926 7     -2338.367 7        42.144 7  24120856.602 4  98770868.586 4     -1822.201 4        25.053 4
G13  22841812.688 6 120034598.347 6     -2987.918 6        37.507 6  22841822.848 2  93533451.416 2     -2328.254 2        13.390 2
G15  20692483.875 6 108740098.291 6     -1633.777 6        38.736 6  20692486.453 4  84732250.947 4     -1273.705 4        27.913 4
> 2020 08 27 08 57  4.0000000  0  3       0.000000000000
G05  24121300.184 7 126758280.586 7     -2338.857 7        42.251 7  24121301.602 4  98772690.930 4     -1823.023 4        25.150 4
G13  22842381.359 6 120037586.724 6     -2988.682 6        37.507 6  22842391.477 2  93535780.038 2     -2328.807 2        13.390 2
G15  20692794.984 6 108741732.599 6     -1635.186 6        39.188 6  20692797.547 4  84733524.395 4     -1272.770 4        28.014 4
> 2020 08 27 08 57  5.0000000  0  3       0.000000000000
G05  24121745.383 7 126760619.251 7     -2339.420 7        42.225 7  24121746.484 4  98774513.227 4     -1821.980 4        25.053 4
G13  22842950.191 6 120040575.050 6     -2988.385 6        37.812 6  22842959.977 2  93538108.602 2     -2328.563 2        14.639 2
G15  20693106.391 6 108743366.972 6     -1633.795 6        39.294 6  20693108.566 4  84734797.980 4     -1273.621 4        27.963 4
> 2020 08 27 08 57  6.0000000  0  3       0.000000000000
G05  24122190.586 7 126762958.169 7     -2339.223 7        42.117 7  24122191.387 4  98776335.781 4     -1823.031 4        25.150 4
G13  22843519.738 6 120043563.562 6     -2987.973 6        37.885 6  22843528.469 2  93540437.313 2     -2328.266 2        14.639 2
G15  20693417.516 6 108745001.838 6     -1634.984 6        39.024 6  20693419.605 4  84736071.913 4     -1275.160 4        28.161 4
> 2020 08 27 08 57  7.0000000  0  3       0.000000000000
G05  24122635.734 7 126765297.105 7     -2339.188 7        42.062 7  24122636.578 4  98778158.327 4     -1823.299 4        24.746 4
G13  22844088.664 6 120046552.066 6     -2988.172 6        38.428 6  22844097.035 2  93542766.014 2     -2328.475 2        17.069 2
G15  20693728.301 6 108746636.807 6     -1635.008 6        39.188 6  20693730.563 4  84737345.874 4     -1273.260 4        27.809 4
> 2020 08 27 08 57  8.0000000  0  3       0.000000000000
G05  24123080.715 7 126767636.271 7     -2338.721 7        42.062 7  24123081.660 4  98779981.057 4     -1822.080 4        24.746 4
G13  22844657.133 6 120049540.751 6     -2988.682 6        38.554 6  22844665.605 3  93545094.871 3     -2328.838 3        18.161 3
G15  20694038.777 6 108748272.148 6     -1634.775 6        39.241 6  20694041.766 4  84738620.158 4     -1273.369 4        27.809 4
> 2020 08 27 08 57  9.0000000  0  3       0.000000000000
G05  24123526.461 7 126769975.856 7     -2339.002 7        42.117 7  24123526.688 4  98781804.119 4     -1823.268 4        24.746 4
G13  22845225.363 6 120052529.798 6     -2989.783 6        38.676 6  22845234.180 3  93547423.994 3     -2329.752 3        18.618 3
G15  20694350.301 6 108749908.069 6     -1635.564 6        39.346 6  20694352.961 4  84739894.950 4     -1274.459 4        28.014 4
> 2020 08 27 08 57 10.0000000  0  3       0.000000000000
G05  24123971.117 7 126772315.520 7     -2339.684 7        42.062 7  24123971.945 4  98783627.231 4     -1824.395 4        24.416 4
G13  22845795.082 6 120055518.810 6     -2989.215 6        38.676 6  22845802.867 2  93549753.093 2     -2329.238 2        17.649 2
G15  20694661.738 6 108751544.188 6     -1636.441 6        39.241 6  20694664.215 4  84741169.864 4     -1275.449 4        27.703 4
> 2020 08 27 08 57 11.0000000  0  3       0.000000000000
G05  24124416.340 7 126774655.483 7     -2340.656 7        42.034 7  24124417.113 4  98785450.548 4     -1823.816 4        24.529 4
G13  22846364.656 6 120058508.093 6     -2991.047 6        39.024 6  22846371.539 2  93552082.396 2     -2330.730 2        17.649 2
G15  20694973.457 6 108753180.743 6     -1637.139 6        39.241 6  20694975.633 4  84742445.082 4     -1276.666 4        27.703 4
> 2020 08 27 08 57 12.0000000  0  3       0.000000000000
G05  24124861.566 6 126776995.494 6     -2340.924 6        41.978 6  24124862.469 4  98787273.911 4     -1823.656 4        25.431 4
G13  22846932.652 6 120061497.309 6     -2989.439 6        39.188 6  22846940.223 3  93554411.643 3     -2329.438 3        18.618 3
G15  20695285.035 6 108754817.454 6     -1637.135 6        39.294 6  20695286.895 4  84743720.402 4     -1275.201 4        27.595 4
> 2020 08 27 08 57 13.0000000  0  3       0.000000000000
G05  24125307.074 7 126779335.774 7     -2339.801 7        42.062 7  24125307.789 4  98789097.539 4     -1824.123 4        24.181 4
G13  22847501.219 6 120064486.828 6     -2989.664 6        38.911 6  22847509.121 3  93556741.125 3     -2329.553 3        19.032 3
G15  20695596.469 6 108756454.616 6     -1637.203 6        39.188 6  20695598.285 4  84744996.108 4     -1274.006 4        27.756 4
> 2020 08 27 08 57 14.0000000  0  3       0.000000000000
G05  24125752.066 6 126781676.140 6     -2340.439 6        41.950 6  24125753.098 3  98790921.170 3     -1823.496 3        23.803 3
G13  22848070.129 6 120067476.311 6     -2990.283 6        39.188 6  22848077.715 3  93559070.608 3     -2330.176 3        19.758 3
G15  20695907.668 6 108758091.995 6     -1637.881 6        39.294 6  20695909.801 4  84746272.024 4     -1276.367 4        27.809 4
> 2020 08 27 08 57 15.0000000  0  3       0.000000000000
G05  24126198.195 6 126784016.620 6     -2340.166 6        41.776 6  24126198.609 4  98792744.945 4     -1823.744 4        24.059 4
G13  22848639.320 6 120070465.859 6     -2989.092 6        39.188 6  22848646.387 3  93561400.120 3     -2329.113 3        20.379 3
G15  20696218.863 6 108759729.643 6     -1637.295 6        39.188 6  20696221.594 4  84747548.111 4     -1276.225 4        27.539 4
> 2020 08 27 08 57 16.0000000  0  3       0.000000000000
G05  24126642.609 6 126786357.367 6     -2340.678 6        41.747 6  24126644.012 3  98794568.919 3     -1825.578 3        23.670 3
G13  22849208.652 6 120073455.612 6     -2989.799 6        39.188 6  22849215.320 3  93563729.801 3     -2329.660 3        18.618 3
G15  20696530.629 6 108761367.647 6     -1637.357 6        39.079 6  20696533.219 4  84748824.417 4     -1275.051 4        27.426 4
> 2020 08 27 08 57 17.0000000  0  3       0.000000000000
G05  24127088.180 6 126788698.289 6     -2341.199 6        41.921 6  24127089.539 3  98796392.973 3     -1823.883 3        23.933 3
G13  22849777.281 6 120076445.463 6     -2990.047 6        39.448 6  22849784.176 3  93566059.557 3     -2329.938 3        18.161 3
G15  20696841.980 6 108763005.972 6     -1637.938 6        39.397 6  20696844.797 4  84750101.134 4     -1277.301 4        27.756 4
> 2020 08 27 08 57 18.0000000  0  3       0.000000000000
G05  24127533.898 6 126791039.118 6     -2341.305 6        41.893 6  24127534.918 3  98798217.053 3     -1825.676 3        23.670 3
G13  22850346.348 6 120079435.184 6     -2990.035 6        39.397 6  22850353.016 3  93568389.189 3     -2329.914 3        18.161 3
G15  20697154.340 6 108764644.379 6     -1638.453 6        39.346 6  20697156.441 4  84751377.740 4     -1275.754 4        27.963 4
> 2020 08 27 08 57 19.0000000  0  3       0.000000000000
G05  24127979.531 6 126793380.447 6     -2341.855 6        41.626 6  24127980.316 3  98800041.409 3     -1824.355 3        23.933 3
G13  22850915.320 6 120082425.290 6     -2990.273 6        39.134 6  22850921.945 3  93570719.117 3     -2330.117 3        19.410 3
G15  20697466.320 6 108766283.372 6     -1638.906 6        39.548 6  20697468.066 4  84752654.941 4     -1278.223 4        27.539 4
> 2020 08 27 08 57 20.0000000  0  3       0.000000000000
G05  24128425.656 6 126795721.463 6     -2341.855 6        41.717 6  24128425.855 3  98801865.544 3     -1823.135 3        23.670 3
G13  22851484.078 6 120085415.090 6     -2990.801 6        39.346 6  22851490.746 3  93573048.837 3     -2330.479 3        19.758 3
G15  20697778.227 6 108767922.220 6     -1639.512 6        39.498 6  20697779.715 4  84753931.919 4     -1277.158 4        27.756 4
> 2020 08 27 08 57 21.0000000  0  3       0.000000000000
G05  24128870.957 6 126798062.587 6     -2341.203 6        41.626 6  24128871.418 3  98803689.819 3     -1823.641 3        23.532 3
G13  22852053.012 6 120088404.895 6     -2990.166 6        39.134 6  22852059.605 3  93575378.553 3     -2329.969 3        19.032 3
G15  20698090.309 6 108769561.286 6     -1638.957 6        39.597 6  20698091.527 4  84755209.136 4     -1277.508 4        27.426 4
> 2020 08 27 08 57 22.0000000  0  3       0.000000000000
G05  24129316.719 6 126800404.001 6     -2341.092 6        41.374 6  24129316.891 3  98805514.318 3     -1824.668 3        23.532 3
G13  22852621.828 6 120091394.965 6     -2989.744 6        39.024 6  22852628.598 3  93577708.464 3     -2329.629 3        18.161 3
G15  20698402.566 6 108771200.841 6     -1640.193 6        39.498 6  20698403.566 4  84756486.726 4     -1278.691 4        27.131 4
> 2020 08 27 08 57 23.0000000  0  3       0.000000000000
G05  24129761.531 6 126802745.561 6     -2342.010 6        41.342 6  24129762.477 3  98807338.859 3     -1823.783 3        23.532 3
G13  22853190.848 6 120094385.089 6     -2990.057 6        39.134 6  22853197.285 3  93580038.419 3     -2329.896 3        19.410 3
G15  20698714.016 6 108772840.595 6     -1639.822 6        39.346 6  20698715.535 4  84757764.491 4     -1278.881 4        27.252 4
> 2020 08 27 08 57 24.0000000  0  3       0.000000000000
G05  24130207.344 6 126805087.332 6     -2341.934 6        41.175 6  24130208.070 3  98809163.660 3     -1825.182 3        23.390 3
G13  22853759.430 6 120097375.429 6     -2990.840 6        39.079 6  22853766.070 3  93582368.550 3     -2330.592 3        19.410 3
G15  20699026.465 6 108774480.791 6     -1640.977 6        39.188 6  20699027.609 4  84759042.503 4     -1278.404 4        27.426 4
> 2020 08 27 08 57 25.0000000  0  3       0.000000000000
G05  24130652.492 6 126807429.229 6     -2341.916 6        41.002 6  24130653.824 3  98810988.495 3     -1824.785 3        22.598 3
G13  22854328.641 6 120100365.758 6     -2989.709 6        39.548 6  22854334.965 3  93584698.670 3     -2329.688 3        19.410 3
G15  20699338.828 6 108776121.183 6     -1640.959 6        38.911 6  20699339.602 4  84760320.721 4     -1278.516 4        27.369 4
> 2020 08 27 08 57 26.0000000  0  3       0.000000000000
G05  24131098.504 6 126809771.338 6     -2341.430 6        41.037 6  24131099.434 3  98812813.482 3     -1823.732 3        23.090 3
G13  22854898.285 6 120103356.293 6     -2990.492 6        39.645 6  22854903.848 3  93587028.969 3     -2330.295 3        19.758 3
G15  20699650.332 6 108777761.906 6     -1640.141 6        38.795 6  20699651.832 4  84761599.246 4     -1278.088 4        27.426 4
> 2020 08 27 08 57 27.0000000  0  3       0.000000000000
G05  24131544.516 6 126812113.515 6     -2341.973 6        40.748 6  24131545.219 3  98814638.617 3     -1825.727 3        22.932 3
G13  22855466.926 6 120106346.824 6     -2991.094 6        39.645 6  22855472.824 3  93589359.259 3     -2330.707 3        19.410 3
G15  20699962.695 6 108779402.908 6     -1641.836 6        38.736 6  20699964.012 4  84762877.924 4     -1279.301 4        27.595 4
> 2020 08 27 08 57 28.0000000  0  3       0.000000000000
G05  24131990.656 6 126814455.879 6     -2342.799 6        40.748 6  24131990.957 3  98816463.760 3     -1824.695 3        22.043 3
G13  22856036.840 6 120109337.431 6     -2990.826 6        40.059 6  22856041.918 3  93591689.604 3     -2330.633 3        19.758 3
G15  20700274.758 6 108781044.145 6     -1641.295 6        38.616 6  20700276.203 4  84764156.832 4     -1278.953 4        27.649 4
> 2020 08 27 08 57 29.0000000  0  3       0.000000000000
G05  24132436.430 6 126816798.432 6     -2342.807 6        40.748 6  24132436.773 3  98818289.196 3     -1825.934 3        22.768 3
G13  22856606.246 6 120112328.226 6     -2991.225 6        40.356 6  22856610.969 3  93594020.098 3     -2330.719 3        19.758 3
G15  20700587.027 6 108782685.781 6     -1641.869 6        38.428 6  20700588.703 4  84765436.041 4     -1279.938 4        27.649 4
> 2020 08 27 08 57 30.0000000  0  3       0.000000000000
G05  24132882.027 6 126819141.258 6     -2342.902 6        40.477 6  24132882.672 3  98820114.765 3     -1826.020 3        22.236 3
G13  22857174.902 6 120115319.225 6     -2991.457 6        40.595 6  22857179.781 3  93596350.743 3     -2330.961 3        20.660 3
G15  20700899.121 6 108784327.780 6     -1641.164 6        38.736 6  20700901.008 4  84766715.518 4     -1279.479 4        27.369 4
> 2020 08 27 08 57 31.0000000  0  3       0.000000000000
G05  24133326.730 6 126821484.065 6     -2341.955 6        40.356 6  24133328.520 3  98821940.342 3     -1825.898 3        21.406 3
G13  22857744.809 6 120118310.139 6     -2990.783 6        40.556 6  22857748.859 3  93598681.320 3     -2330.469 3        20.923 3
G15  20701211.605 6 108785969.979 6     -1642.365 6        38.676 6  20701213.367 4  84767995.152 4     -1279.004 4        27.861 4
> 2020 08 27 08 57 32.0000000  0  3       0.000000000000
G05  24133772.367 6 126823827.059 6     -2342.313 6        40.146 6  24133774.270 3  98823766.005 3     -1825.041 3        22.043 3
G13  22858313.219 6 120121301.145 6     -2990.359 6        40.822 6  22858317.754 3  93601011.992 3     -2330.217 3        20.923 3
G15  20701524.023 6 108787612.419 6     -1641.766 6        38.795 6  20701525.883 4  84769274.950 4     -1279.162 4        28.161 4
> 2020 08 27 08 57 33.0000000  0  3       0.000000000000
G05  24134218.777 6 126826170.254 6     -2342.893 6        40.015 6  24134220.234 3  98825591.890 3     -1825.510 3        22.043 3
G13  22858882.547 6 120124292.328 6     -2990.705 6        41.002 6  22858886.883 3  93603342.782 3     -2330.373 3        20.660 3
G15  20701836.645 6 108789255.222 6     -1642.268 6        38.854 6  20701838.477 4  84770555.128 4     -1280.490 4        27.861 4
> 2020 08 27 08 57 34.0000000  0  4       0.000000000000
G05  24134664.375 6 126828513.721 6     -2343.514 6        39.971 6  24134666.234 3  98827418.016 3     -1826.902 3        22.043 3
G13  22859451.633 6 120127283.717 6     -2991.521 6        41.342 6  22859455.969 3  93605673.723 3     -2331.043 3        19.410 3
G15  20702149.164 6 108790898.447 6     -1643.357 6        38.554 6  20702151.227 4  84771835.534 4     -1281.199 4        27.861 4
G18  20477258.176 5 107608717.920 5       906.076 5        34.575 5                                                                
> 2020 08 27 08 57 35.0000000  0  4       0.000000000000
G05  24135110.414 6 126830856.940 6     -2343.092 6        39.880 6  24135112.203 3  98829243.795 3     -1824.039 3        21.841 3
G13  22860021.730 6 120130274.784 6     -2991.314 6        41.141 6  22860024.895 3  93608004.427 3     -2330.875 3        19.410 3
G15  20702462.129 6 108792541.536 6     -1643.541 6        38.428 6  20702463.848 4  84773115.798 4     -1279.332 4        28.396 4
G18  20477085.625 5 107607811.769 5       904.994 5        34.874 5                                                                
> 2020 08 27 08 57 36.0000000  0  4       0.000000000000
G05  24135556.805 6 126833200.482 6     -2343.746 6        39.645 6  24135558.250 3  98831069.990 3     -1826.744 3        22.420 3
G13  22860590.754 6 120133266.136 6     -2992.084 6        40.895 6  22860593.918 3  93610335.351 3     -2331.529 3        20.080 3
G15  20702775.305 6 108794185.106 6     -1644.039 6        38.232 6  20702776.434 4  84774396.582 4     -1282.408 4        27.861 4
G18  20476913.148 5 107606906.367 5       904.203 5        34.417 5                                                                
> 2020 08 27 08 57 37.0000000  0  4       0.000000000000
G05  24136003.113 6 126835544.110 6     -2342.824 6        39.880 6  24136004.258 3  98832896.210 3     -1825.281 3        22.236 3
G13  22861160.121 6 120136257.496 6     -2990.734 6        40.785 6  22861163.027 3  93612666.271 3     -2330.379 3        19.758 3
G15  20703087.676 6 108795828.895 6     -1643.117 6        37.812 6  20703089.293 4  84775677.466 4     -1282.176 4        27.913 4
G18  20476740.582 5 107606001.598 5       904.695 5        34.417 5                                                                
> 2020 08 27 08 57 38.0000000  0  4       0.000000000000
G05  24136448.848 6 126837887.633 6     -2343.189 6        39.788 6  24136450.234 3  98834722.340 3     -1825.932 3        21.629 3
G13  22861729.055 6 120139248.672 6     -2990.611 6        40.822 6  22861732.031 3  93614997.055 3     -2330.307 3        19.410 3
G15  20703400.906 6 108797472.681 6     -1642.955 6        37.507 6  20703402.121 4  84776958.358 4     -1282.631 4        27.756 4
G18  20476568.730 5 107605097.112 5       903.375 5        34.417 5                                                                
> 2020 08 27 08 57 39.0000000  0  4       0.000000000000
G05  24136895.199 6 126840231.489 6     -2344.078 6        39.645 6  24136896.215 3  98836548.659 3     -1825.143 3        21.629 3
G13  22862298.035 6 120142240.142 6     -2991.324 6        40.595 6  22862301.383 3  93617328.075 3     -2330.885 3        20.660 3
G15  20703713.609 6 108799116.982 6     -1643.727 6        37.346 6  20703714.840 4  84778239.577 4     -1281.705 4        28.112 4
G18  20476396.781 5 107604193.465 5       902.836 5        34.417 5                                                                
> 2020 08 27 08 57 40.0000000  0  4       0.000000000000
G05  24137340.758 6 126842575.376 6     -2343.799 6        39.645 6  24137342.414 3  98838375.116 3     -1826.408 3        21.629 3
G13  22862867.512 6 120145231.615 6     -2991.592 6        40.477 6  22862870.488 3  93619659.128 3     -2331.174 3        20.080 3
G15  20704026.664 6 108800761.451 6     -1644.854 6        37.427 6  20704027.738 4  84779521.006 4     -1282.268 4        28.396 4
G18  20476224.898 5 107603290.271 5       903.252 5        34.417 5                                                                
> 2020 08 27 08 57 41.0000000  0  4       0.000000000000
G05  24137787.230 6 126844919.536 6     -2344.293 6        39.498 6  24137788.531 3  98840201.721 3     -1826.217 3        21.171 3
G13  22863436.184 6 120148223.246 6     -2991.012 6        40.315 6  22863439.633 3  93621990.251 3     -2330.650 3        20.379 3
G15  20704339.348 6 108802406.318 6     -1645.074 6        37.179 6  20704340.664 4  84780802.677 4     -1281.900 4        28.350 4
G18  20476052.785 5 107602387.886 5       901.801 5        34.575 5                                                                
> 2020 08 27 08 57 42.0000000  0  4       0.000000000000
G05  24138232.992 6 126847263.775 6     -2343.789 6        39.346 6  24138234.723 3  98842028.371 3     -1825.350 3        21.406 3
G13  22864005.438 6 120151214.950 6     -2991.523 6        40.015 6  22864008.570 3  93624321.448 3     -2331.072 3        20.660 3
G15  20704651.746 6 108804051.391 6     -1644.844 6        37.427 6  20704653.637 4  84782084.554 4     -1281.619 4        28.063 4
G18  20475881.105 5 107601486.010 5       901.621 5        34.575 5                                                                
> 2020 08 27 08 57 43.0000000  0  4       0.000000000000
G05  24138679.297 6 126849608.277 6     -2344.350 6        39.241 6  24138680.926 3  98843855.304 3     -1827.643 3        21.171 3
G13  22864574.801 6 120154206.796 6     -2991.264 6        40.103 6  22864577.648 3  93626652.731 3     -2330.885 3        20.923 3
G15  20704965.121 6 108805696.859 6     -1645.385 6        37.812 6  20704966.637 4  84783366.753 4     -1283.346 4        28.209 4
G18  20475709.539 5 107600584.850 5       901.393 5        34.727 5                                                                
> 2020 08 27 08 57 44.0000000  0  4       0.000000000000
G05  24139125.484 6 126851952.884 6     -2344.307 6        39.241 6  24139127.031 3  98845682.277 3     -1827.078 3        20.923 3
G13  22865144.047 6 120157198.767 6     -2992.471 6        40.103 6  22865146.883 3  93628984.143 3     -2331.766 3        19.410 3
G15  20705278.520 6 108807342.603 6     -1646.318 6        37.956 6  20705279.836 4  84784649.134 4     -1283.270 4        28.161 4
G18  20475538.715 5 107599684.328 5       900.109 5        34.874 5                                                                
> 2020 08 27 08 57 45.0000000  0  4       0.000000000000
G05  24139571.676 6 126854297.670 6     -2344.811 6        39.241 6  24139573.191 3  98847509.354 3     -1826.350 3        20.660 3
G13  22865713.727 6 120160190.788 6     -2992.193 6        40.103 6  22865716.160 3  93631315.578 3     -2331.506 3        20.660 3
G15  20705591.203 6 108808988.606 6     -1646.217 6        37.885 6  20705593.051 4  84785931.699 4     -1283.654 4        28.575 4
G18  20475367.605 5 107598784.398 5       898.412 5        35.154 5                                                                
> 2020 08 27 08 57 46.0000000  0  4       0.000000000000
G05  24140018.094 6 126856642.462 6     -2344.293 6        38.968 6  24140019.465 3  98849336.491 3     -1827.432 3        20.080 3
G13  22866283.059 6 120163182.735 6     -2991.617 6        40.146 6  22866285.508 3  93633646.939 3     -2331.064 3        19.758 3
G15  20705904.547 6 108810634.729 6     -1645.309 6        38.428 6  20705906.320 4  84787214.468 4     -1283.369 4        28.575 4
G18  20475196.727 5 107597884.923 5       899.479 5        35.154 5                                                                
> 2020 08 27 08 57 47.0000000  0  4       0.000000000000
G05  24140464.285 6 126858987.355 6     -2344.568 6        38.911 6  24140465.586 3  98851163.649 3     -1826.094 3        19.410 3
G13  22866852.598 6 120166174.801 6     -2991.639 6        40.437 6  22866854.645 3  93635978.410 3     -2331.191 3        20.660 3
G15  20706218.379 6 108812281.163 6     -1645.643 6        38.428 6  20706219.551 4  84788497.319 4     -1282.559 4        28.789 4
G18  20475025.191 5 107596986.083 5       898.225 5        35.288 5                                                                
> 2020 08 27 08 57 48.0000000  0  4       0.000000000000
G05  24140910.699 6 126861332.779 6     -2346.201 6        38.616 6  24140911.758 3  98852991.211 3     -1827.084 3        20.080 3
G13  22867422.215 6 120169167.257 6     -2992.236 6        40.437 6  22867423.887 3  93638310.205 3     -2331.596 3        20.660 3
G15  20706532.289 6 108813928.186 6     -1646.379 6        38.165 6  20706533.148 4  84789780.728 4     -1283.529 4        28.993 4
G18  20474854.305 5 107596088.180 5       896.531 5        35.288 5                                                                
> 2020 08 27 08 57 49.0000000  0  4       0.000000000000
G05  24141356.949 6 126863678.575 6     -2345.723 6        38.554 6  24141358.191 3  98854819.178 3     -1829.137 3        19.032 3
G13  22867992.094 6 120172160.065 6     -2992.715 6        40.437 6  22867993.324 3  93640642.275 3     -2331.969 3        20.923 3
G15  20706845.895 6 108815575.786 6     -1647.227 6        38.298 6  20706846.652 4  84791064.567 4     -1282.398 4        29.225 4
G18  20474683.543 5 107595191.122 5       896.016 5        35.418 5                                                                
> 2020 08 27 08 57 50.0000000  0  4       0.000000000000
G05  24141803.262 6 126866024.169 6     -2346.301 6        38.491 6  24141804.621 3  98856646.838 3     -1827.535 3        20.080 3
G13  22868561.320 6 120175152.579 6     -2992.668 6        40.477 6  22868562.723 3  93642974.097 3     -2331.990 3        20.080 3
G15  20707158.984 6 108817223.308 6     -1647.824 6        38.364 6  20707160.203 4  84792348.337 4     -1284.098 4        29.337 4
G18  20474512.984 5 107594294.313 5       897.332 5        35.017 5                                                                
> 2020 08 27 08 57 51.0000000  0  4       0.000000000000
G05  24142249.992 6 126868369.736 6     -2346.027 6        38.232 6  24142250.992 3  98858474.555 3     -1827.891 3        19.410 3
G13  22869130.395 6 120178145.035 6     -2993.117 6        40.710 6  22869132.098 3  93645305.880 3     -2332.285 3        20.080 3
G15  20707472.785 6 108818870.930 6     -1648.898 6        38.554 6  20707473.730 4  84793632.179 4     -1284.121 4        29.553 4
G18  20474342.273 5 107593397.989 5       896.277 5        35.154 5                                                                
> 2020 08 27 08 57 52.0000000  0  4       0.000000000000
G05  24142695.980 6 126870715.492 6     -2345.693 6        38.298 6  24142697.285 3  98860302.414 3     -1827.662 3        18.161 3
G13  22869699.445 6 120181137.588 6     -2991.904 6        40.672 6  22869701.465 3  93647637.755 3     -2331.314 3        19.758 3
G15  20707786.129 6 108820518.849 6     -1647.861 6        38.676 6  20707787.387 4  84794916.360 4     -1285.182 4        29.553 4
G18  20474172.254 5 107592502.338 5       894.211 5        35.154 5                                                                
> 2020 08 27 08 57 53.0000000  0  4       0.000000000000
G05  24143142.027 6 126873061.398 6     -2345.482 6        38.165 6  24143143.828 3  98862130.390 3     -1828.090 3        18.161 3
G13  22870269.836 6 120184130.283 6     -2991.986 6        40.748 6  22870270.840 3  93649969.749 3     -2331.469 3        19.758 3
G15  20708099.957 6 108822167.096 6     -1648.139 6        39.024 6  20708101.129 4  84796200.680 4     -1284.887 4        29.954 4
G18  20474002.430 5 107591607.246 5       894.949 5        35.017 5                                                                
> 2020 08 27 08 57 54.0000000  0  4       0.000000000000
G05  24143588.816 6 126875407.349 6     -2345.215 6        38.027 6  24143590.289 2  98863958.470 2     -1828.105 2        17.069 2
G13  22870838.973 6 120187122.983 6     -2992.754 6        40.858 6  22870840.215 3  93652301.736 3     -2331.973 3        19.410 3
G15  20708413.527 6 108823815.516 6     -1647.930 6        38.968 6  20708414.887 4  84797485.200 4     -1285.293 4        29.954 4
G18  20473831.777 5 107590712.712 5       894.922 5        35.017 5                                                                
> 2020 08 27 08 57 55.0000000  0  4       0.000000000000
G05  24144035.082 6 126877753.725 6     -2345.525 6        37.812 6  24144036.785 3  98865786.759 3     -1827.646 3        18.161 3
G13  22871408.871 6 120190115.960 6     -2993.240 6        40.822 6  22871409.570 3  93654633.920 3     -2332.334 3        19.410 3
G15  20708727.578 6 108825464.498 6     -1649.080 6        39.188 6  20708728.621 5  84798770.087 5     -1284.736 5        30.017 5
G18  20473661.750 5 107589819.098 5       892.932 5        35.017 5                                                                
> 2020 08 27 08 57 56.0000000  0  4       0.000000000000
G05  24144481.801 6 126880100.476 6     -2346.863 6        37.737 6  24144483.246 2  98867615.383 2     -1828.838 2        17.649 2
G13  22871978.504 6 120193109.254 6     -2993.074 6        40.931 6  22871978.973 3  93656966.355 3     -2332.275 3        19.758 3
G15  20709041.363 6 108827113.930 6     -1648.543 6        39.188 6  20709042.605 5  84800055.354 5     -1285.596 5        30.111 5
G18  20473491.453 5 107588926.241 5       893.371 5        34.727 5                                                                
> 2020 08 27 08 57 57.0000000  0  4       0.000000000000
G05  24144927.766 6 126882447.222 6     -2346.682 6        37.662 6  24144929.727 2  98869444.032 2     -1829.410 2        17.069 2
G13  22872547.816 6 120196102.515 6     -2992.814 6        40.895 6  22872548.359 3  93659298.762 3     -2332.066 3        19.410 3
G15  20709355.254 6 108828763.557 6     -1649.904 6        39.134 6  20709356.602 5  84801340.792 5     -1286.598 5        30.465 5
G18  20473321.695 5 107588033.894 5       893.045 5        34.417 5                                                                
> 2020 08 27 08 57 58.0000000  0  4       0.000000000000
G05  24145374.527 6 126884794.058 6     -2346.572 6        37.737 6  24145376.414 2  98871272.713 2     -1828.840 2        17.069 2
G13  22873117.488 6 120199095.830 6     -2993.604 6        40.858 6  22873117.934 3  93661631.206 3     -2332.629 3        20.080 3
G15  20709668.652 6 108830413.389 6     -1650.029 6        39.241 6  20709670.586 5  84802626.306 5     -1285.461 5        30.494 5
G18  20473152.156 5 107587142.071 5       893.174 5        34.253 5                                                                
> 2020 08 27 08 57 59.0000000  0  4       0.000000000000
G05  24145821.320 6 126887141.159 6     -2346.016 6        37.812 6  24145823.164 2  98873101.577 2     -1827.770 2        16.400 2
G13  22873687.340 6 120202089.315 6     -2993.301 6        40.785 6  22873687.543 3  93663963.794 3     -2332.281 3        19.410 3
G15  20709982.941 6 108832063.624 6     -1650.352 6        39.597 6  20709984.633 5  84803912.278 5     -1287.047 5        30.845 5
G18  20472982.797 5 107586251.095 5       889.648 5        33.905 5                                                                
> 2020 08 27 08 58  0.0000000  0  4       0.000000000000
G05  24146267.871 6 126889488.444 6     -2347.418 6        37.956 6  24146269.848 2  98874930.629 2     -1828.922 2        16.400 2
G13  22874257.527 6 120205082.892 6     -2992.770 6        41.002 6  22874256.969 3  93666296.430 3     -2331.969 3        19.410 3
G15  20710296.707 6 108833714.138 6     -1650.445 6        39.645 6  20710298.695 5  84805198.385 5     -1286.715 5        30.897 5
G18  20472813.195 5 107585360.649 5       890.432 5        34.253 5                                                                
> 2020 08 27 08 58  1.0000000  0  4       0.000000000000
G05  24146714.887 6 126891836.188 6     -2347.461 6        38.027 6  24146716.590 2  98876760.092 2     -1829.328 2        17.069 2
G13  22874827.313 6 120208076.946 6     -2994.121 6        40.822 6  22874826.527 3  93668629.468 3     -2333.137 3        20.080 3
G15  20710611.219 6 108835365.341 6     -1651.855 6        39.498 6  20710612.934 5  84806484.987 5     -1286.320 5        31.024 5
G18  20472644.199 5 107584471.141 5       890.273 5        33.720 5                                                                
> 2020 08 27 08 58  2.0000000  0  4       0.000000000000
G05  24147161.176 6 126894183.853 6     -2347.643 6        37.885 6  24147163.293 2  98878589.369 2     -1827.975 2        15.608 2
G13  22875397.090 6 120211070.791 6     -2993.795 6        40.672 6  22875396.059 3  93670962.334 3     -2332.779 3        20.379 3
G15  20710925.719 6 108837016.488 6     -1650.982 6        39.548 6  20710927.094 5  84807771.612 5     -1286.803 5        31.313 5
G18  20472474.336 5 107583582.045 5       890.385 5        33.720 5                                                                
> 2020 08 27 08 58  3.0000000  0  4       0.000000000000
G05  24147607.816 6 126896531.798 6     -2347.953 6        37.662 6  24147610.148 2  98880418.983 2     -1829.389 2        15.608 2
G13  22875966.504 6 120214064.889 6     -2994.086 6        40.748 6  22875965.672 3  93673295.395 3     -2333.041 3        20.080 3
G15  20711240.570 6 108838668.140 6     -1651.684 6        39.448 6  20711241.457 5  84809058.594 5     -1286.576 5        31.406 5
G18  20472305.105 5 107582693.720 5       888.373 5        33.527 5                                                                
> 2020 08 27 08 58  4.0000000  0  4       0.000000000000
G05  24148054.563 6 126898880.052 6     -2348.287 6        37.585 6  24148057.125 2  98882248.772 2     -1829.789 2        16.400 2
G13  22876536.168 6 120217059.245 6     -2994.693 6        40.858 6  22876535.352 3  93675628.660 3     -2333.500 3        19.410 3
G15  20711554.531 6 108840320.204 6     -1651.939 6        39.134 6  20711555.832 5  84810345.936 5     -1287.582 5        31.267 5
G18  20472135.844 5 107581806.166 5       887.281 5        32.891 5                                                                
> 2020 08 27 08 58  5.0000000  0  4       0.000000000000
G05  24148502.477 6 126901228.309 6     -2348.248 6        37.507 6  24148504.008 2  98884078.601 2     -1830.121 2        15.608 2
G13  22877105.855 6 120220053.523 6     -2994.752 6        40.858 6  22877105.152 3  93677961.870 3     -2333.676 3        20.080 3
G15  20711869.227 6 108841972.400 6     -1653.148 6        39.134 6  20711870.199 5  84811633.376 5     -1288.598 5        30.974 5
G18  20471966.746 5 107580919.139 5       885.055 5        32.144 5                                                                
> 2020 08 27 08 58  6.0000000  0  4       0.000000000000
G05  24148948.395 6 126903576.664 6     -2347.965 6        37.346 6  24148950.898 2  98885908.512 2     -1831.553 2        14.639 2
G13  22877675.973 6 120223047.827 6     -2994.078 6        41.107 6  22877674.727 3  93680295.120 3     -2333.096 3        20.080 3
G15  20712183.926 6 108843624.818 6     -1652.359 6        39.024 6  20712184.598 5  84812920.975 5     -1288.154 5        30.713 5
G18  20471797.656 5 107580032.569 5       886.449 5        32.407 5                                                                
> 2020 08 27 08 58  7.0000000  0  4       0.000000000000
G05  24149395.688 6 126905925.264 6     -2348.957 6        37.737 6  24149397.777 2  98887738.570 2     -1829.768 2        14.639 2
G13  22878246.328 6 120226042.306 6     -2994.484 6        41.107 6  22878244.695 3  93682628.468 3     -2333.303 3        19.410 3
G15  20712498.574 6 108845277.605 6     -1652.863 6        39.294 6  20712499.219 5  84814208.869 5     -1288.107 5        30.793 5
G18  20471629.367 5 107579146.694 5       887.742 5        32.407 5                                                                
> 2020 08 27 08 58  8.0000000  0  4       0.000000000000
G05  24149843.016 6 126908273.988 6     -2348.715 6        37.179 6  24149844.762 2  98889568.714 2     -1829.648 2        13.390 2
G13  22878815.855 6 120229036.866 6     -2994.887 6        41.209 6  22878814.551 3  93684961.888 3     -2333.730 3        19.410 3
G15  20712812.254 6 108846930.678 6     -1653.383 6        39.346 6  20712813.828 5  84815496.965 5     -1288.105 5        30.740 5
G18  20471460.969 5 107578261.551 5       884.840 5        31.564 5                                                                
> 2020 08 27 08 58  9.0000000  0  4       0.000000000000
G05  24150289.629 6 126910623.041 6     -2349.863 6        37.093 6  24150291.777 2  98891399.162 2     -1830.986 2        13.390 2
G13  22879385.387 6 120232031.661 6     -2995.156 6        41.342 6  22879384.512 3  93687295.497 3     -2333.896 3        19.032 3
G15  20713126.797 6 108848584.167 6     -1653.652 6        39.645 6  20713128.398 5  84816785.400 5     -1288.389 5        30.845 5
G18  20471292.719 5 107577377.099 5       883.027 5        31.242 5                                                                
> 2020 08 27 08 58 10.0000000  0  4       0.000000000000
G05  24150737.313 6 126912972.005 6     -2348.326 6        37.179 6  24150739.059 2  98893229.501 2     -1828.602 2        15.608 2
G13  22879955.695 6 120235026.379 6     -2994.830 6        41.595 6  22879954.293 3  93689629.030 3     -2333.602 3        20.379 3
G15  20713441.402 6 108850237.769 6     -1653.443 6        39.548 6  20713443.020 5  84818073.943 5     -1289.031 5        30.974 5
G18  20471124.676 5 107576493.107 5       883.158 5        31.242 5                                                                
> 2020 08 27 08 58 11.0000000  0  4       0.000000000000
G05  24151184.340 6 126915321.120 6     -2348.934 6        37.346 6  24151186.043 2  98895059.988 2     -1830.004 2        16.400 2
G13  22880524.926 6 120238021.110 6     -2994.461 6        41.626 6  22880524.039 3  93691962.576 3     -2333.344 3        20.660 3
G15  20713756.641 6 108851891.599 6     -1653.523 6        39.788 6  20713757.559 5  84819362.589 5     -1288.715 5        31.049 5
G18  20470956.266 5 107575609.662 5       882.510 5        31.242 5                                                                
> 2020 08 27 08 58 12.0000000  0  4       0.000000000000
G05  24151630.836 6 126917670.493 6     -2349.754 6        37.093 6  24151633.199 2  98896890.703 2     -1831.301 2        16.400 2
G13  22881095.340 6 120241016.087 6     -2995.594 6        41.687 6  22881093.910 3  93694296.332 3     -2334.250 3        21.171 3
G15  20714071.781 6 108853545.856 6     -1654.109 6        39.880 6  20714072.496 5  84820651.621 5     -1289.426 5        31.219 5
G18  20470788.469 5 107574726.949 5       881.709 5        30.895 5                                                                
> 2020 08 27 08 58 13.0000000  0  4       0.000000000000
G05  24152078.094 6 126920019.819 6     -2349.359 6        37.427 6  24152080.238 2  98898721.328 2     -1831.369 2        17.069 2
G13  22881665.082 6 120244010.914 6     -2995.277 6        41.564 6  22881663.750 3  93696629.950 3     -2333.986 3        21.629 3
G15  20714387.105 6 108855200.222 6     -1654.965 6        39.926 6  20714387.262 5  84821940.755 5     -1289.709 5        31.073 5
G18  20470619.855 5 107573844.684 5       881.617 5        30.517 5                                                                
> 2020 08 27 08 58 14.0000000  0  3       0.000000000000
G05  24152525.488 6 126922369.292 6     -2349.484 6        36.915 6  24152527.465 2  98900552.055 2     -1831.275 2        17.649 2
G13  22882235.250 6 120247005.809 6     -2994.621 6        41.533 6  22882233.461 3  93698963.643 3     -2333.463 3        20.923 3
G15  20714701.281 6 108856854.817 6     -1654.797 6        40.103 6  20714702.012 5  84823230.077 5     -1290.064 5        31.267 5
> 2020 08 27 08 58 15.0000000  0  3       0.000000000000
G05  24152972.477 6 126924718.868 6     -2350.436 6        37.093 6  24152974.496 2  98902382.910 2     -1831.289 2        17.649 2
G13  22882805.156 6 120250000.785 6     -2995.104 6        41.687 6  22882803.352 3  93701297.390 3     -2333.867 3        20.660 3
G15  20715015.914 6 108858509.669 6     -1654.791 6        40.356 6  20715016.813 5  84824519.565 5     -1290.996 5        31.290 5
> 2020 08 27 08 58 16.0000000  0  3       0.000000000000
G05  24153419.875 6 126927068.572 6     -2349.977 6        36.824 6  24153421.750 3  98904213.834 3     -1831.643 3        18.618 3
G13  22883375.184 6 120252995.837 6     -2995.836 6        41.564 6  22883373.234 3  93703631.188 3     -2334.436 3        21.171 3
G15  20715331.234 6 108860164.800 6     -1655.445 6        40.477 6  20715331.734 5  84825809.265 5     -1290.432 5        31.451 5
> 2020 08 27 08 58 17.0000000  0  3       0.000000000000
G05  24153866.754 6 126929418.709 6     -2350.270 6        36.731 6  24153869.113 2  98906045.134 2     -1832.213 2        17.069 2
G13  22883944.547 6 120255991.230 6     -2995.855 6        41.717 6  22883943.258 3  93705965.255 3     -2334.479 3        20.923 3
G15  20715646.754 6 108861820.492 6     -1655.719 6        40.517 6  20715646.754 5  84827099.432 5     -1290.396 5        31.563 5
> 2020 08 27 08 58 18.0000000  0  3       0.000000000000
G05  24154314.320 6 126931768.809 6     -2350.512 6        36.824 6  24154316.398 2  98907876.323 2     -1831.037 2        17.069 2
G13  22884514.461 6 120258986.515 6     -2995.688 6        41.747 6  22884513.258 3  93708299.254 3     -2334.416 3        20.923 3
G15  20715961.391 6 108863476.243 6     -1655.297 6        40.822 6  20715961.938 5  84828389.612 5     -1290.256 5        31.563 5
> 2020 08 27 08 58 19.0000000  0  3       0.000000000000
G05  24154761.750 6 126934119.074 6     -2349.523 6        36.731 6  24154763.551 2  98909707.702 2     -1830.949 2        15.608 2
G13  22885085.090 6 120261981.928 6     -2995.637 6        41.776 6  22885083.344 3  93710633.319 3     -2334.152 3        20.923 3
G15  20716277.176 6 108865132.349 6     -1655.676 6        41.072 6  20716277.047 5  84829680.069 5     -1290.500 5        31.736 5
> 2020 08 27 08 58 20.0000000  0  3       0.000000000000
G05  24155209.531 6 126936469.520 6     -2350.875 6        36.824 6  24155210.891 2  98911539.191 2     -1831.352 2        15.608 2
G13  22885655.215 6 120264977.396 6     -2995.367 6        41.687 6  22885653.313 3  93712967.445 3     -2333.988 3        20.660 3
G15  20716592.023 6 108866788.744 6     -1657.576 6        41.002 6  20716592.266 5  84830970.751 5     -1290.941 5        31.383 5
> 2020 08 27 08 58 21.0000000  0  3       0.000000000000
G05  24155656.289 6 126938820.219 6     -2350.598 6        36.824 6  24155658.176 2  98913370.905 2     -1830.727 2        16.400 2
G13  22886225.461 6 120267973.132 6     -2996.006 6        41.806 6  22886223.371 3  93715301.781 3     -2334.652 3        21.171 3
G15  20716907.281 6 108868445.520 6     -1656.984 6        41.374 6  20716907.367 5  84832261.798 5     -1291.449 5        31.383 5
> 2020 08 27 08 58 22.0000000  0  3       0.000000000000
G05  24156103.965 6 126941170.876 6     -2350.760 6        36.731 6  24156105.496 2  98915202.560 2     -1830.764 2        14.639 2
G13  22886795.770 6 120270968.691 6     -2995.350 6        41.717 6  22886793.277 3  93717635.986 3     -2334.104 3        21.171 3
G15  20717222.883 6 108870102.347 6     -1656.971 6        41.342 6  20717222.570 5  84833552.809 5     -1291.447 5        31.474 5
> 2020 08 27 08 58 23.0000000  0  3       0.000000000000
G05  24156551.898 6 126943521.652 6     -2350.008 6        36.335 6  24156552.828 2  98917034.391 2     -1831.375 2        15.608 2
G13  22887365.328 6 120273964.366 6     -2995.457 6        41.717 6  22887363.285 3  93719970.277 3     -2334.148 3        21.629 3
G15  20717537.742 6 108871759.465 6     -1656.668 6        41.309 6  20717537.871 5  84834844.104 5     -1292.371 5        31.799 5
> 2020 08 27 08 58 24.0000000  0  3       0.000000000000
G05  24156999.555 6 126945872.939 6     -2350.445 6        36.538 6  24157000.211 2  98918866.577 2     -1832.125 2        14.639 2
G13  22887935.184 6 120276960.476 6     -2996.246 6        41.776 6  22887933.438 3  93722304.912 3     -2334.723 3        21.629 3
G15  20717853.320 6 108873417.248 6     -1657.906 6        41.276 6  20717853.438 5  84836135.838 5     -1292.145 5        31.736 5
> 2020 08 27 08 58 25.0000000  0  3       0.000000000000
G05  24157446.895 6 126948224.282 6     -2352.199 6        36.538 6  24157447.711 2  98920698.819 2     -1834.203 2        15.608 2
G13  22888505.012 6 120279956.542 6     -2996.633 6        41.626 6  22888503.637 3  93724639.518 3     -2335.023 3        22.236 3
G15  20718169.305 6 108875075.160 6     -1658.488 6        41.141 6  20718168.746 5  84837427.721 5     -1291.625 5        31.943 5
> 2020 08 27 08 58 26.0000000  0  3       0.000000000000
G05  24157893.453 6 126950575.483 6     -2351.686 6        36.635 6  24157895.098 2  98922530.890 2     -1833.229 2        13.390 2
G13  22889076.203 6 120282952.415 6     -2995.807 6        41.717 6  22889073.629 3  93726973.974 3     -2334.361 3        22.420 3
G15  20718484.504 6 108876733.095 6     -1658.326 6        41.209 6  20718484.133 5  84838719.612 5     -1291.217 5        31.820 5
> 2020 08 27 08 58 27.0000000  0  3       0.000000000000
G05  24158340.984 6 126952926.799 6     -2350.393 6        36.538 6  24158342.617 2  98924363.088 2     -1832.361 2        15.608 2
G13  22889645.938 6 120285948.385 6     -2995.373 6        41.595 6  22889643.688 3  93729308.486 3     -2334.119 3        21.841 3
G15  20718799.820 6 108878391.325 6     -1658.361 6        41.209 6  20718799.648 5  84840011.715 5     -1290.154 5        31.672 5
> 2020 08 27 08 58 28.0000000  0  3       0.000000000000
G05  24158787.883 6 126955278.329 6     -2351.441 6        36.438 6  24158790.188 2  98926195.408 2     -1832.531 2        16.400 2
G13  22890216.035 6 120288944.449 6     -2996.129 6        41.626 6  22890213.863 3  93731643.076 3     -2334.660 3        22.043 3
G15  20719114.930 6 108880049.804 6     -1658.395 6        41.002 6  20719115.273 5  84841304.092 5     -1291.965 5        31.474 5
> 2020 08 27 08 58 29.0000000  0  3       0.000000000000
G05  24159235.449 6 126957629.972 6     -2351.803 6        36.538 6  24159237.766 2  98928027.855 2     -1832.816 2        14.639 2
G13  22890785.945 6 120291940.604 6     -2996.061 6        41.656 6  22890783.871 3  93733977.745 3     -2334.613 3        22.043 3
G15  20719430.992 6 108881708.586 6     -1658.346 6        41.072 6  20719430.836 5  84842596.650 5     -1292.641 5        31.313 5
> 2020 08 27 08 58 30.0000000  0  3       0.000000000000
G05  24159683.223 6 126959981.582 6     -2351.486 6        36.335 6  24159685.469 2  98929860.297 2     -1832.615 2        13.390 2
G13  22891356.922 6 120294936.648 6     -2995.490 6        41.687 6  22891354.016 3  93736312.322 3     -2334.100 3        22.420 3
G15  20719746.551 6 108883367.487 6     -1658.283 6        41.037 6  20719746.465 5  84843889.281 5     -1290.838 5        31.219 5
> 2020 08 27 08 58 31.0000000  0  3       0.000000000000
G05  24160131.668 6 126962333.294 6     -2352.033 6        36.438 6  24160133.012 1  98931692.775 1     -1832.277 1        11.629 1
G13  22891926.996 6 120297932.720 6     -2995.646 6        41.835 6  22891924.063 3  93738646.917 3     -2334.289 3        22.236 3
G15  20720062.492 6 108885026.609 6     -1658.771 6        41.002 6  20720062.051 5  84845182.138 5     -1292.980 5        31.406 5
> 2020 08 27 08 58 32.0000000  0  3       0.000000000000
G05  24160578.422 6 126964685.309 6     -2351.188 6        36.231 6  24160580.539 2  98933525.554 2     -1833.705 2        13.390 2
G13  22892497.383 6 120300929.102 6     -2996.422 6        41.717 6  22892494.246 3  93740981.742 3     -2334.799 3        21.841 3
G15  20720377.746 6 108886686.201 6     -1659.742 6        41.037 6  20720377.574 5  84846475.296 5     -1292.670 5        31.406 5
> 2020 08 27 08 58 33.0000000  0  3       0.000000000000
G05  24161026.023 5 126967037.479 5     -2352.063 5        35.666 5  24161028.141 1  98935358.347 1     -1832.600 1        11.629 1
G13  22893067.039 6 120303925.478 6     -2995.617 6        41.776 6  22893064.332 3  93743316.586 3     -2334.240 3        21.629 3
G15  20720693.703 6 108888346.023 6     -1660.012 6        41.107 6  20720693.273 5  84847768.646 5     -1292.971 5        31.243 5
> 2020 08 27 08 58 34.0000000  0  3       0.000000000000
G05  24161473.676 5 126969389.967 5     -2353.078 5        35.785 5  24161475.879 2  98937191.479 2     -1832.445 2        13.390 2
G13  22893637.609 6 120306922.181 6     -2996.398 6        41.950 6  22893634.559 3  93745651.665 3     -2334.906 3        21.406 3
G15  20721009.426 6 108890006.315 6     -1659.934 6        40.785 6  20721009.152 5  84849062.436 5     -1293.695 5        30.999 5
> 2020 08 27 08 58 35.0000000  0  3       0.000000000000
G05  24161921.855 5 126971742.524 5     -2353.344 5        35.154 5  24161923.602 2  98939024.587 2     -1832.338 2        14.639 2
G13  22894207.559 6 120309918.836 6     -2997.152 6        41.717 6  22894204.867 3  93747986.722 3     -2335.424 3        21.406 3
G15  20721325.387 6 108891666.792 6     -1661.234 6        40.477 6  20721324.930 5  84850356.307 5     -1294.545 5        31.049 5
> 2020 08 27 08 58 36.0000000  0  3       0.000000000000
G05  24162369.574 5 126974095.234 5     -2352.240 5        35.666 5  24162371.379 2  98940857.912 2     -1833.875 2        15.608 2
G13  22894777.766 6 120312915.619 6     -2996.693 6        41.921 6  22894775.117 3  93750321.870 3     -2335.164 3        20.923 3
G15  20721641.750 6 108893327.590 6     -1660.580 6        40.437 6  20721640.848 5  84851650.449 5     -1293.875 5        30.767 5
> 2020 08 27 08 58 37.0000000  0  3       0.000000000000
G05  24162817.496 5 126976448.113 5     -2352.768 5        35.544 5  24162819.227 2  98942691.339 2     -1834.719 2        14.639 2
G13  22895348.316 7 120315912.488 7     -2996.479 7        42.171 7  22895345.566 3  93752657.086 3     -2334.934 3        21.629 3
G15  20721957.883 6 108894988.670 6     -1660.326 6        40.517 6  20721956.836 5  84852944.783 5     -1293.840 5        30.687 5
> 2020 08 27 08 58 38.0000000  0  3       0.000000000000
G05  24163264.680 5 126978801.290 5     -2354.160 5        35.288 5  24163267.027 2  98944524.967 2     -1834.268 2        14.639 2
G13  22895918.848 7 120318909.618 7     -2997.830 7        42.034 7  22895915.883 3  93754992.514 3     -2336.006 3        21.841 3
G15  20722274.281 6 108896650.204 6     -1662.012 6        40.273 6  20722272.852 5  84854239.498 5     -1295.088 5        30.713 5
> 2020 08 27 08 58 39.0000000  0  3       0.000000000000
G05  24163713.043 5 126981154.396 5     -2353.178 5        35.017 5  24163714.773 2  98946358.610 2     -1835.822 2        14.639 2
G13  22896488.547 7 120321906.635 7     -2997.650 7        42.034 7  22896486.188 3  93757327.848 3     -2335.842 3        21.841 3
G15  20722590.426 6 108898311.792 6     -1661.107 6        40.315 6  20722588.793 5  84855534.273 5     -1295.725 5        30.660 5
> 2020 08 27 08 58 40.0000000  0  3       0.000000000000
G05  24164160.758 5 126983507.750 5     -2352.908 5        35.017 5  24164162.461 1  98948192.312 1     -1833.635 1        11.629 1
G13  22897058.320 7 120324903.762 7     -2996.561 7        42.034 7  22897056.461 3  93759663.268 3     -2334.904 3        22.420 3
G15  20722906.496 6 108899973.760 6     -1662.205 6        40.146 6  20722904.863 5  84856829.237 5     -1294.260 5        30.437 5
> 2020 08 27 08 58 41.0000000  0  3       0.000000000000
G05  24164608.770 5 126985861.123 5     -2353.814 5        34.417 5  24164610.316 1  98950026.111 1     -1834.041 1        11.629 1
G13  22897629.250 7 120327900.843 7     -2996.996 7        42.062 7  22897626.848 3  93761998.659 3     -2335.271 3        22.236 3
G15  20723222.578 6 108901635.797 6     -1661.607 6        40.059 6  20723220.977 5  84858124.354 5     -1294.588 5        30.172 5
> 2020 08 27 08 58 42.0000000  0  3       0.000000000000
G05  24165056.340 5 126988214.729 5     -2354.385 5        33.720 5  24165058.371 1  98951860.051 1     -1832.256 1        11.629 1
G13  22898199.305 6 120330898.129 6     -2997.041 6        41.806 6  22898196.988 3  93764334.199 3     -2335.305 3        22.768 3
G15  20723538.789 6 108903298.298 6     -1662.314 6        39.926 6  20723537.188 5  84859419.837 5     -1296.025 5        30.262 5
> 2020 08 27 08 58 43.0000000  0  3       0.000000000000
G05  24165503.230 5 126990568.606 5     -2352.477 5        34.082 5  24165506.324 2  98953694.220 2     -1832.920 2        13.390 2
G13  22898769.688 6 120333895.619 6     -2996.793 6        41.806 6  22898767.340 3  93766669.911 3     -2335.186 3        22.932 3
G15  20723855.180 6 108904961.190 6     -1662.281 6        39.397 6  20723853.594 5  84860715.547 5     -1294.131 5        30.017 5
> 2020 08 27 08 58 44.0000000  0  3       0.000000000000
G05  24165951.184 5 126992922.461 5     -2352.145 5        33.720 5  24165954.289 1  98955528.435 1     -1832.912 1        11.629 1
G13  22899339.980 7 120336893.028 7     -2996.793 7        42.198 7  22899337.848 3  93769005.562 3     -2335.158 3        23.242 3
G15  20724171.773 6 108906624.195 6     -1662.789 6        39.548 6  20724169.828 5  84862011.406 5     -1295.764 5        30.017 5
> 2020 08 27 08 58 45.0000000  0  3       0.000000000000
G05  24166399.180 5 126995276.592 5     -2354.818 5        33.527 5  24166402.469 2  98957362.820 2     -1833.895 2        13.390 2
G13  22899911.324 7 120339890.631 7     -2997.709 7        42.407 7  22899908.445 3  93771341.354 3     -2335.945 3        23.933 3
G15  20724488.699 6 108908287.565 6     -1663.393 6        38.968 6  20724486.465 5  84863307.554 5     -1296.902 5        30.048 5
> 2020 08 27 08 58 46.0000000  0  3       0.000000000000
G05  24166846.934 5 126997630.740 5     -2353.826 5        33.325 5  24166850.496 2  98959197.219 2     -1833.844 2        13.390 2
G13  22900481.852 7 120342888.198 7     -2997.576 7        42.006 7  22900478.918 3  93773677.131 3     -2335.717 3        23.803 3
G15  20724804.664 6 108909951.146 6     -1663.592 6        38.491 6  20724802.977 5  84864603.862 5     -1297.164 5        30.232 5
> 2020 08 27 08 58 47.0000000  0  3       0.000000000000
G05  24167295.359 5 126999984.753 5     -2353.986 5        32.891 5  24167298.563 2  98961031.533 2     -1833.844 2        13.390 2
G13  22901051.473 7 120345885.567 7     -2997.697 7        42.171 7  22901049.473 3  93776012.727 3     -2335.777 3        22.768 3
G15  20725120.301 6 108911614.688 6     -1663.869 6        36.915 6  20725119.527 4  84865900.127 4     -1298.141 4        29.446 4
> 2020 08 27 08 58 48.0000000  0  3       0.000000000000
G05  24167742.770 5 127002339.008 5     -2355.176 5        33.325 5  24167746.492 2  98962865.976 2     -1833.957 2        15.608 2
G13  22901622.090 7 120348883.099 7     -2997.754 7        42.304 7  22901620.027 3  93778348.464 3     -2335.930 3        22.768 3
G15  20725436.641 6 108913278.566 6     -1664.727 6        37.662 6  20725436.082 4  84867196.639 4     -1297.609 4        29.225 4
> 2020 08 27 08 58 49.0000000  0  3       0.000000000000
G05  24168190.605 5 127004693.406 5     -2354.164 5        32.656 5  24168194.496 2  98964700.568 2     -1833.906 2        14.639 2
G13  22902192.410 7 120351880.685 7     -2997.094 7        42.304 7  22902190.422 3  93780684.238 3     -2335.391 3        23.090 3
G15  20725753.258 6 108914942.749 6     -1664.107 6        37.737 6  20725752.629 4  84868493.407 4     -1296.387 4        29.656 4
> 2020 08 27 08 58 50.0000000  0  3       0.000000000000
G05  24168638.461 5 127007048.007 5     -2355.291 5        33.905 5  24168642.684 2  98966535.367 2     -1834.615 2        14.639 2
G13  22902763.324 7 120354878.447 7     -2997.986 7        42.751 7  22902760.965 3  93783020.151 3     -2336.061 3        23.242 3
G15  20726070.617 6 108916607.284 6     -1665.035 6        37.956 6  20726069.328 4  84869790.440 4     -1298.404 4        29.690 4
> 2020 08 27 08 58 51.0000000  0  3       0.000000000000
G05  24169086.543 5 127009402.383 5     -2354.684 5        33.325 5  24169090.719 2  98968369.908 2     -1833.283 2        14.639 2
G13  22903333.320 7 120357875.924 7     -2997.203 7        42.533 7  22903331.418 3  93785355.828 3     -2335.451 3        23.670 3
G15  20726387.195 6 108918271.699 6     -1664.000 6        37.885 6  20726385.992 4  84871087.375 4     -1295.783 4        29.587 4
> 2020 08 27 08 58 52.0000000  0  3       0.000000000000
G05  24169534.383 5 127011756.952 5     -2353.818 5        32.144 5  24169538.832 2  98970204.792 2     -1835.939 2        13.390 2
G13  22903903.504 7 120360873.640 7     -2998.447 7        42.728 7  22903901.945 3  93787691.710 3     -2336.506 3        23.090 3
G15  20726703.820 6 108919936.592 6     -1665.244 6        37.737 6  20726702.676 4  84872384.752 4     -1298.381 4        29.622 4
> 2020 08 27 08 58 53.0000000  0  3       0.000000000000
G05  24169982.074 5 127014112.000 5     -2354.326 5        32.891 5  24169986.996 2  98972039.835 2     -1834.080 2        14.639 2
G13  22904474.684 7 120363871.569 7     -2998.076 7        42.936 7  22904472.352 3  93790027.748 3     -2336.150 3        22.598 3
G15  20727020.723 6 108921601.897 6     -1666.201 6        37.346 6  20727019.652 4  84873682.330 4     -1296.990 4        29.857 4
> 2020 08 27 08 58 54.0000000  0  3       0.000000000000
G05  24170429.816 5 127016467.243 5     -2355.326 5        32.656 5  24170435.309 2  98973875.114 2     -1836.727 2        16.400 2
G13  22905045.199 7 120366869.646 7     -2998.295 7        43.135 7  22905042.852 3  93792363.927 3     -2336.277 3        23.390 3
G15  20727338.254 6 108923267.506 6     -1665.385 6        37.005 6  20727336.508 4  84874980.229 4     -1298.445 4        29.824 4
> 2020 08 27 08 58 55.0000000  0  3       0.000000000000
G05  24170878.211 5 127018822.409 5     -2354.260 5        31.564 5  24170883.547 2  98975710.297 2     -1834.479 2        14.639 2
G13  22905615.938 7 120369867.641 7     -2997.424 7        42.959 7  22905613.262 3  93794700.041 3     -2335.689 3        23.390 3
G15  20727654.434 6 108924933.275 6     -1665.275 6        37.093 6  20727653.344 4  84876278.214 4     -1296.939 4        29.690 4
> 2020 08 27 08 58 56.0000000  0  3       0.000000000000
G05  24171326.629 5 127021177.676 5     -2354.895 5        32.891 5  24171332.035 2  98977545.578 2     -1835.693 2        14.639 2
G13  22906186.555 7 120372865.667 7     -2998.176 7        43.026 7  22906183.906 3  93797036.168 3     -2336.162 3        23.090 3
G15  20727971.633 6 108926599.231 6     -1665.832 6        36.824 6  20727970.344 4  84877576.354 4     -1297.588 4        29.622 4
> 2020 08 27 08 58 57.0000000  0  3       0.000000000000
G05  24171774.672 5 127023533.290 5     -2356.750 5        32.144 5  24171780.152 2  98979381.058 2     -1834.695 2        14.639 2
G13  22906756.801 7 120375863.918 7     -2998.664 7        43.003 7  22906754.613 3  93799372.456 3     -2336.570 3        23.532 3
G15  20728288.176 6 108928265.668 6     -1667.844 6        37.093 6  20728287.234 4  84878874.880 4     -1299.773 4        29.553 4
> 2020 08 27 08 58 58.0000000  0  3       0.000000000000
G05  24172222.289 5 127025888.911 5     -2354.979 5        33.113 5  24172228.516 2  98981216.670 2     -1835.934 2        13.390 2
G13  22907327.336 7 120378862.183 7     -2998.063 7        43.304 7  22907325.230 3  93801708.764 3     -2336.070 3        23.803 3
G15  20728606.012 6 108929932.249 6     -1666.443 6        37.179 6  20728604.277 4  84880173.524 4     -1299.041 4        29.857 4
> 2020 08 27 08 58 59.0000000  0  3       0.000000000000
G05  24172670.293 5 127028244.520 5     -2355.178 5        32.891 5  24172676.863 2  98983052.225 2     -1835.920 2        13.390 2
G13  22907897.395 7 120381860.402 7     -2998.225 7        43.135 7  22907895.734 3  93804045.027 3     -2336.232 3        23.390 3
G15  20728923.227 6 108931598.994 6     -1666.799 6        37.427 6  20728921.254 5  84881472.326 5     -1299.436 5        30.017 5
> 2020 08 27 08 59  0.0000000  0  3       0.000000000000
G05  24173118.898 5 127030600.383 5     -2355.650 5        32.891 5  24173125.223 2  98984887.935 2     -1835.971 2        14.639 2
G13  22908468.629 7 120384858.739 7     -2998.697 7        43.263 7  22908466.367 3  93806381.406 3     -2336.713 3        22.768 3
G15  20729240.902 6 108933266.029 6     -1667.467 6        37.662 6  20729238.426 4  84882771.276 4     -1299.799 4        29.922 4
> 2020 08 27 08 59  1.0000000  0  3       0.000000000000
G05  24173566.957 5 127032956.381 5     -2355.879 5        33.113 5  24173573.523 2  98986723.793 2     -1835.752 2        13.390 2
G13  22909039.316 7 120387857.182 7     -2998.691 7        43.178 7  22909036.957 3  93808717.854 3     -2336.689 3        22.598 3
G15  20729558.176 6 108934933.402 6     -1668.359 6        37.812 6  20729555.699 4  84884070.551 4     -1300.244 4        29.857 4
> 2020 08 27 08 59  2.0000000  0  3       0.000000000000
G05  24174015.598 5 127035312.413 5     -2355.619 5        33.325 5  24174021.980 2  98988559.685 2     -1836.959 2        13.390 2
G13  22909609.730 7 120390855.573 7     -2998.568 7        43.113 7  22909607.652 3  93811054.260 3     -2336.510 3        22.932 3
G15  20729875.742 6 108936600.872 6     -1667.475 6        37.662 6  20729872.840 4  84885369.867 4     -1299.479 4        29.690 4
> 2020 08 27 08 59  3.0000000  0  3       0.000000000000
G05  24174464.125 5 127037668.456 5     -2355.293 5        33.113 5  24174470.336 1  98990395.586 1     -1837.033 1        11.629 1
G13  22910180.742 7 120393853.964 7     -2998.379 7        43.092 7  22910178.324 3  93813390.665 3     -2336.428 3        23.670 3
G15  20730193.199 6 108938268.534 6     -1667.656 6        37.662 6  20730190.078 4  84886669.323 4     -1299.688 4        29.758 4
> 2020 08 27 08 59  4.0000000  0  3       0.000000000000
G05  24174912.418 5 127040024.797 5     -2356.992 5        33.527 5  24174918.715 2  98992231.684 2     -1837.453 2        13.390 2
G13  22910750.809 7 120396852.471 7     -2998.125 7        43.113 7  22910748.836 3  93815727.171 3     -2336.125 3        23.933 3
G15  20730511.137 6 108939936.581 6     -1668.555 6        38.096 6  20730507.504 4  84887969.085 4     -1299.953 4        29.922 4
> 2020 08 27 08 59  5.0000000  0  3       0.000000000000
G05  24175361.125 5 127042381.210 5     -2356.332 5        33.325 5  24175367.293 1  98994067.867 1     -1837.262 1        11.629 1
G13  22911320.855 7 120399851.079 7     -2998.891 7        42.891 7  22911319.582 4  93818063.751 4     -2336.773 4        24.181 4
G15  20730828.055 6 108941604.860 6     -1668.578 6        38.298 6  20730824.777 4  84889269.049 4     -1300.074 4        29.889 4
> 2020 08 27 08 59  6.0000000  0  3       0.000000000000
G05  24175809.582 5 127044737.974 5     -2357.658 5        33.113 5  24175815.949 2  98995904.274 2     -1836.439 2        14.639 2
G13  22911892.227 7 120402849.927 7     -2998.967 7        43.003 7  22911890.227 3  93820400.525 3     -2336.771 3        23.670 3
G15  20731145.152 6 108943273.609 6     -1669.064 6        38.364 6  20731142.234 4  84890569.396 4     -1301.420 4        29.954 4
> 2020 08 27 08 59  7.0000000  0  3       0.000000000000
G05  24176258.031 5 127047094.697 5     -2357.523 5        33.325 5  24176264.527 1  98997740.677 1     -1836.781 1        11.629 1
G13  22912463.023 7 120405848.671 7     -2998.813 7        43.003 7  22912460.879 3  93822737.224 3     -2336.762 3        23.390 3
G15  20731462.531 6 108944942.461 6     -1669.926 6        38.554 6  20731459.785 5  84891869.790 5     -1300.180 5        30.350 5
> 2020 08 27 08 59  8.0000000  0  3       0.000000000000
G05  24176706.535 5 127049451.465 5     -2355.965 5        34.082 5  24176713.090 1  98999577.105 1     -1835.264 1        11.629 1
G13  22913033.156 7 120408847.430 7     -2998.563 7        42.868 7  22913031.625 3  93825073.897 3     -2336.533 3        23.670 3
G15  20731780.820 6 108946611.458 6     -1667.879 6        38.736 6  20731777.285 5  84893170.324 5     -1300.225 5        30.232 5
> 2020 08 27 08 59  9.0000000  0  3       0.000000000000
G05  24177154.523 5 127051808.312 5     -2356.313 5        33.720 5                                                                
G13  22913604.059 7 120411846.111 7     -2998.793 7        42.728 7  22913602.313 3  93827410.542 3     -2336.777 3        23.090 3
G15  20732098.168 6 108948280.638 6     -1669.027 6        38.491 6  20732094.789 5  84894470.979 5     -1300.898 5        30.202 5
> 2020 08 27 08 59 10.0000000  0  3       0.000000000000
G05  24177602.684 5 127054165.429 5     -2357.666 5        33.905 5                                                                
G13  22914174.422 7 120414845.039 7     -2999.170 7        42.632 7  22914173.047 3  93829747.354 3     -2336.924 3        22.768 3
G15  20732415.828 6 108949950.264 6     -1669.580 6        38.364 6  20732412.293 5  84895771.999 5     -1301.008 5        30.111 5
> 2020 08 27 08 59 11.0000000  0  3       0.000000000000
G05  24178050.926 5 127056522.730 5     -2357.529 5        33.527 5  24178058.910 1  99005109.194 1     -1837.893 1        11.629 1
G13  22914745.148 7 120417844.073 7     -2999.170 7        42.583 7  22914743.891 3  93832084.269 3     -2336.896 3        23.242 3
G15  20732734.141 6 108951620.187 6     -1670.049 6        38.428 6  20732730.105 5  84897073.174 5     -1299.943 5        30.437 5
> 2020 08 27 08 59 12.0000000  0  3       0.000000000000
G05  24178499.465 5 127058879.896 5     -2358.035 5        34.253 5  24178507.434 1  99006945.931 1     -1836.523 1         8.618 1
G13  22915315.457 7 120420842.941 7     -2999.188 7        42.330 7  22915314.582 3  93834421.061 3     -2337.012 3        22.236 3
G15  20733051.035 6 108953290.149 6     -1671.023 6        38.554 6  20733047.785 5  84898374.479 5     -1302.012 5        30.522 5
> 2020 08 27 08 59 13.0000000  0  3       0.000000000000
G05  24178948.289 5 127061237.248 5     -2357.922 5        34.253 5  24178956.145 1  99008782.856 1     -1838.352 1        11.629 1
G13  22915886.480 7 120423841.909 7     -2999.895 7        42.607 7  22915885.336 3  93836757.905 3     -2337.590 3        21.841 3
G15  20733368.215 6 108954960.365 6     -1670.695 6        38.491 6  20733365.582 5  84899675.989 5     -1301.674 5        30.172 5
> 2020 08 27 08 59 14.0000000  0  3       0.000000000000
G05  24179397.305 5 127063594.788 5     -2357.977 5        33.325 5  24179404.902 2  99010619.817 2     -1836.324 2        13.390 2
G13  22916456.699 7 120426840.949 7     -2999.734 7        42.278 7  22916456.039 3  93839094.828 3     -2337.496 3        22.043 3
G15  20733686.730 6 108956630.949 6     -1671.551 6        38.554 6  20733683.539 4  84900977.723 4     -1302.203 4        29.690 4
> 2020 08 27 08 59 15.0000000  0  3       0.000000000000
G05  24179846.145 5 127065952.613 5     -2357.889 5        33.325 5  24179853.484 2  99012457.096 2     -1837.959 2        13.390 2
G13  22917027.020 6 120429840.221 6     -2998.670 6        41.978 6  22917026.793 3  93841431.918 3     -2336.650 3        21.841 3
G15  20734004.926 6 108958301.926 6     -1671.951 6        38.616 6  20734001.508 4  84902279.739 4     -1301.357 4        29.337 4
> 2020 08 27 08 59 16.0000000  0  3       0.000000000000
G05  24180294.684 5 127068310.448 5     -2357.230 5        33.720 5  24180302.223 2  99014294.434 2     -1836.826 2        13.390 2
G13  22917597.332 6 120432839.511 6     -2998.930 6        41.864 6  22917597.504 3  93843769.021 3     -2336.826 3        22.043 3
G15  20734323.254 6 108959973.093 6     -1671.254 6        38.232 6  20734319.477 4  84903581.995 4     -1301.553 4        29.410 4
> 2020 08 27 08 59 17.0000000  0  3       0.000000000000
G05  24180742.930 5 127070668.463 5     -2357.604 5        33.325 5  24180751.102 2  99016131.875 2     -1838.996 2        13.390 2
G13  22918168.781 6 120435838.840 6     -2998.912 6        41.893 6  22918168.293 3  93846106.170 3     -2336.867 3        22.420 3
G15  20734640.855 6 108961644.524 6     -1671.217 6        38.554 6  20734637.566 4  84904884.429 4     -1303.605 4        29.724 4
> 2020 08 27 08 59 18.0000000  0  3       0.000000000000
G05  24181191.367 5 127073026.783 5     -2358.766 5        33.325 5  24181199.867 1  99017969.376 1     -1836.859 1        11.629 1
G13  22918739.422 6 120438838.406 6     -2999.723 6        41.864 6  22918739.020 3  93848443.526 3     -2337.504 3        23.090 3
G15  20734958.797 6 108963316.397 6     -1672.301 6        38.854 6  20734955.691 4  84906187.160 4     -1303.969 4        29.889 4
> 2020 08 27 08 59 19.0000000  0  3       0.000000000000
G05  24181640.063 5 127075385.251 5     -2360.119 5        33.113 5                                                                
G13  22919310.602 6 120441838.070 6     -2999.982 6        41.533 6  22919309.898 3  93850780.928 3     -2337.643 3        23.090 3
G15  20735276.988 6 108964988.511 6     -1672.072 6        38.968 6  20735273.914 5  84907490.138 5     -1303.855 5        30.017 5
> 2020 08 27 08 59 20.0000000  0  3       0.000000000000
G05  24182088.699 5 127077743.712 5     -2356.732 5        33.113 5  24182097.570 1  99021647.958 1     -1836.734 1         8.618 1
G13  22919881.438 6 120444837.673 6     -2999.643 6        41.564 6  22919880.605 3  93853118.266 3     -2337.457 3        22.420 3
G15  20735595.270 6 108966660.771 6     -1671.439 6        38.968 6  20735592.191 4  84908793.194 4     -1303.004 4        29.824 4
> 2020 08 27 08 59 21.0000000  0  3       0.000000000000
G05  24182538.008 5 127080102.612 5     -2359.322 5        32.891 5                                                                
G13  22920452.375 6 120447837.560 6     -2999.283 6        41.406 6  22920451.445 3  93855455.844 3     -2337.180 3        21.841 3
G15  20735913.793 6 108968333.605 6     -1673.426 6        39.294 6  20735910.570 5  84910096.669 5     -1302.943 5        30.141 5
> 2020 08 27 08 59 22.0000000  0  3       0.000000000000
G05  24182986.910 5 127082461.469 5     -2358.311 5        32.891 5                                                                
G13  22921022.906 6 120450837.496 6     -3000.420 6        41.175 6  22921022.176 3  93857793.445 3     -2337.936 3        21.629 3
G15  20736233.055 6 108970006.537 6     -1672.002 6        39.397 6  20736229.031 5  84911400.275 5     -1303.639 5        30.202 5
> 2020 08 27 08 59 23.0000000  0  3       0.000000000000
G05  24183436.258 5 127084820.709 5     -2359.102 5        32.891 5  24183444.543 1  99027163.530 1     -1839.893 1        11.629 1
G13  22921593.309 6 120453837.600 6     -3000.195 6        41.107 6  22921592.965 3  93860131.188 3     -2337.842 3        20.923 3
G15  20736551.043 6 108971679.976 6     -1673.340 6        39.448 6  20736547.594 5  84912704.242 5     -1304.248 5        30.262 5
> 2020 08 27 08 59 24.0000000  0  3       0.000000000000
G05  24183885.191 5 127087180.003 5     -2358.973 5        32.891 5  24183893.633 2  99029001.911 2     -1838.682 2        14.639 2
G13  22922164.441 6 120456837.760 6     -3000.027 6        40.967 6  22922163.699 3  93862468.958 3     -2337.568 3        20.660 3
G15  20736869.188 6 108973353.580 6     -1673.484 6        39.346 6  20736866.070 5  84914008.325 5     -1303.916 5        30.202 5
> 2020 08 27 08 59 25.0000000  0  3       0.000000000000
G05  24184333.609 5 127089539.420 5     -2360.168 5        33.325 5  24184342.754 2  99030840.369 2     -1838.076 2        14.639 2
G13  22922735.492 6 120459837.955 6     -3000.559 6        41.072 6  22922734.633 3  93864806.761 3     -2338.115 3        20.923 3
G15  20737187.824 6 108975027.451 6     -1673.977 6        39.597 6  20737184.605 4  84915312.660 4     -1305.029 4        29.824 4
> 2020 08 27 08 59 26.0000000  0  3       0.000000000000
G05  24184783.180 5 127091898.689 5     -2360.016 5        32.891 5  24184791.848 1  99032678.780 1     -1838.891 1        11.629 1
G13  22923305.688 6 120462837.932 6     -3000.465 6        41.072 6  22923305.645 3  93867144.417 3     -2338.109 3        20.660 3
G15  20737506.895 6 108976701.294 6     -1674.547 6        39.834 6  20737503.230 5  84916616.931 5     -1303.441 5        30.017 5
> 2020 08 27 08 59 27.0000000  0  3       0.000000000000
G05  24185231.594 5 127094258.347 5     -2360.000 5        32.891 5  24185240.820 1  99034517.461 1     -1839.439 1         8.618 1
G13  22923876.301 6 120465838.250 6     -3000.604 6        41.072 6  22923876.730 3  93869482.340 3     -2338.111 3        21.629 3
G15  20737825.234 6 108978375.669 6     -1674.355 6        39.788 6  20737821.902 5  84917921.637 5     -1304.303 5        30.379 5
> 2020 08 27 08 59 28.0000000  0  3       0.000000000000
G05  24185681.152 5 127096618.340 5     -2358.367 5        32.891 5  24185689.910 1  99036356.444 1     -1838.811 1         8.618 1
G13  22924448.207 6 120468838.870 6     -3000.750 6        41.072 6  22924447.832 3  93871820.478 3     -2338.264 3        21.629 3
G15  20738144.297 6 108980050.553 6     -1675.184 6        39.926 6  20738140.891 5  84919226.755 5     -1304.279 5        30.321 5
> 2020 08 27 08 59 29.0000000  0  3       0.000000000000
G05  24186129.414 5 127098978.422 5     -2360.898 5        32.891 5  24186138.984 1  99038195.443 1     -1840.457 1        11.629 1
G13  22925019.094 6 120471839.401 6     -3000.293 6        41.072 6  22925018.820 3  93874158.545 3     -2337.879 3        21.629 3
G15  20738462.773 6 108981725.544 6     -1674.746 6        40.146 6  20738459.809 5  84920531.961 5     -1305.398 5        30.437 5
> 2020 08 27 08 59 30.0000000  0  3       0.000000000000
G05  24186578.656 5 127101338.620 5     -2360.270 5        32.656 5  24186588.328 1  99040034.523 1     -1838.805 1         8.618 1
G13  22925589.820 6 120474840.056 6     -3000.895 6        41.175 6  22925589.922 3  93876496.713 3     -2338.375 3        20.923 3
G15  20738781.516 6 108983400.838 6     -1675.543 6        40.189 6  20738778.609 5  84921837.400 5     -1305.719 5        30.465 5
> 2020 08 27 08 59 31.0000000  0  3       0.000000000000
G05  24187028.660 5 127103698.865 5     -2361.203 5        32.407 5  24187037.590 1  99041873.696 1     -1839.414 1         8.618 1
G13  22926161.168 6 120477840.663 6     -3001.008 6        41.175 6  22926160.941 3  93878834.840 3     -2338.477 3        21.629 3
G15  20739100.160 6 108985076.311 6     -1676.066 6        40.315 6  20739097.613 5  84923142.935 5     -1305.996 5        30.740 5
> 2020 08 27 08 59 32.0000000  0  3       0.000000000000
G05  24187478.070 5 127106059.212 5     -2360.115 5        32.891 5  24187486.742 1  99043713.028 1     -1840.967 1        11.629 1
G13  22926731.922 6 120480841.362 6     -3000.701 6        40.931 6  22926732.066 3  93881173.045 3     -2338.252 3        21.406 3
G15  20739419.359 6 108986752.068 6     -1676.033 6        40.556 6  20739416.711 5  84924448.743 5     -1306.182 5        30.767 5
> 2020 08 27 08 59 33.0000000  0  3       0.000000000000
G05  24187928.051 5 127108419.789 5     -2358.826 5        32.407 5                                                                
G13  22927303.242 6 120483842.196 6     -3000.604 6        41.002 6  22927303.043 3  93883511.372 3     -2338.096 3        21.406 3
G15  20739738.121 6 108988428.147 6     -1675.859 6        40.748 6  20739735.848 5  84925754.768 5     -1306.045 5        30.897 5
> 2020 08 27 08 59 34.0000000  0  3       0.000000000000
G05  24188377.027 5 127110780.736 5     -2363.205 5        32.656 5                                                                
G13  22927874.137 6 120486843.196 6     -3000.842 6        41.037 6  22927874.020 3  93885849.817 3     -2338.328 3        21.629 3
G15  20740057.602 6 108990104.574 6     -1675.764 6        40.556 6  20740054.914 5  84927061.105 5     -1307.039 5        30.522 5
> 2020 08 27 08 59 35.0000000  0  3       0.000000000000
G05  24188825.754 5 127113141.610 5     -2361.441 5        31.564 5  24188834.797 1  99049234.654 1     -1840.109 1         8.618 1
G13  22928445.348 6 120489844.180 6     -3000.621 6        40.748 6  22928445.133 3  93888188.244 3     -2338.215 3        20.660 3
G15  20740376.543 6 108991781.197 6     -1676.363 6        40.595 6  20740374.152 5  84928367.539 5     -1306.068 5        30.819 5
> 2020 08 27 08 59 36.0000000  0  3       0.000000000000
G05  24189274.695 5 127115502.393 5     -2360.881 5        31.864 5  24189284.082 1  99051074.262 1     -1839.605 1         8.618 1
G13  22929016.203 6 120492845.062 6     -3001.213 6        40.785 6  22929016.332 3  93890526.596 3     -2338.629 3        19.758 3
G15  20740695.273 6 108993457.906 6     -1676.936 6        40.437 6  20740693.285 5  84929674.084 5     -1306.383 5        30.687 5
> 2020 08 27 08 59 37.0000000  0  3       0.000000000000
G05  24189724.000 5 127117863.386 5     -2360.643 5        31.864 5                                                                
G13  22929586.707 6 120495845.963 6     -3000.096 6        40.556 6  22929587.438 3  93892864.954 3     -2337.789 3        20.660 3
G15  20741014.508 6 108995134.870 6     -1676.990 6        40.556 6  20741012.605 5  84930980.775 5     -1305.582 5        30.740 5
> 2020 08 27 08 59 38.0000000  0  3       0.000000000000
G05  24190173.223 5 127120224.665 5     -2361.969 5        32.144 5                                                                
G13  22930158.273 6 120498847.109 6     -3000.621 6        40.517 6  22930158.574 3  93895203.524 3     -2338.039 3        20.660 3
G15  20741333.656 6 108996812.262 6     -1677.672 6        40.556 6  20741331.926 5  84932287.819 5     -1305.910 5        30.767 5
> 2020 08 27 08 59 39.0000000  0  3       0.000000000000
G05  24190623.137 5 127122586.001 5     -2362.318 5        31.864 5                                                                
G13  22930729.387 6 120501848.231 6     -3000.580 6        40.634 6  22930729.645 3  93897542.060 3     -2338.148 3        21.406 3
G15  20741652.930 6 108998489.808 6     -1677.807 6        40.517 6  20741651.340 5  84933595.075 5     -1307.738 5        30.897 5
> 2020 08 27 08 59 40.0000000  0  3       0.000000000000
G05  24191072.199 5 127124947.435 5     -2361.795 5        31.564 5                                                                
G13  22931300.359 6 120504849.494 6     -3001.678 6        40.517 6  22931300.734 3  93899880.706 3     -2339.051 3        21.171 3
G15  20741972.063 6 109000167.647 6     -1677.615 6        40.397 6  20741970.773 5  84934902.462 5     -1307.527 5        31.123 5
> 2020 08 27 08 59 41.0000000  0  2       0.000000000000
G13  22931871.258 6 120507850.925 6     -3001.834 6        40.356 6  22931871.902 3  93902219.479 3     -2339.061 3        20.923 3
G15  20742291.406 6 109001845.938 6     -1679.041 6        40.437 6  20742290.332 5  84936210.214 5     -1308.846 5        30.974 5
> 2020 08 27 08 59 42.0000000  0  2       0.000000000000
G13  22932442.551 6 120510852.525 6     -3001.934 6        40.146 6  22932443.121 3  93904558.395 3     -2339.207 3        20.923 3
G15  20742611.141 6 109003524.534 6     -1678.904 6        40.397 6  20742609.840 5  84937518.218 5     -1308.465 5        30.740 5
> 2020 08 27 08 59 43.0000000  0  2       0.000000000000
G13  22933013.480 6 120513854.203 6     -3001.793 6        40.059 6  22933014.340 3  93906897.357 3     -2338.984 3        21.171 3
G15  20742930.516 6 109005203.412 6     -1678.590 6        40.059 6  20742929.297 5  84938826.436 5     -1307.871 5        31.073 5
> 2020 08 27 08 59 44.0000000  0  2       0.000000000000
G13  22933584.230 6 120516855.868 6     -3001.387 6        39.645 6  22933585.547 3  93909236.329 3     -2338.709 3        20.080 3
G15  20743249.566 6 109006882.485 6     -1678.262 6        39.926 6  20743249.008 5  84940134.833 5     -1308.924 5        31.243 5
> 2020 08 27 08 59 45.0000000  0  2       0.000000000000
G13  22934156.121 6 120519857.627 6     -3002.158 6        40.059 6  22934156.734 3  93911575.365 3     -2339.326 3        21.171 3
G15  20743568.758 6 109008561.871 6     -1679.834 6        39.548 6  20743568.957 5  84941443.391 5     -1307.920 5        30.767 5
> 2020 08 27 08 59 46.0000000  0  2       0.000000000000
G13  22934727.355 6 120522859.620 6     -3001.803 6        39.788 6  22934727.953 3  93913914.589 3     -2339.064 3        20.080 3
G15  20743888.578 6 109010241.685 6     -1679.557 6        39.597 6  20743888.676 5  84942752.370 5     -1309.475 5        30.740 5
> 2020 08 27 08 59 47.0000000  0  2       0.000000000000
G13  22935298.984 6 120525861.567 6     -3001.715 6        39.834 6  22935299.371 3  93916253.770 3     -2338.930 3        19.758 3
G15  20744208.512 6 109011921.653 6     -1679.742 6        39.188 6  20744208.367 5  84944061.433 5     -1309.320 5        31.049 5
> 2020 08 27 08 59 48.0000000  0  2       0.000000000000
G13  22935869.793 6 120528863.787 6     -3001.434 6        39.834 6  22935870.637 3  93918593.180 3     -2338.779 3        19.410 3
G15  20744528.191 6 109013602.097 6     -1680.125 6        39.079 6  20744528.320 5  84945370.875 5     -1308.389 5        31.290 5
> 2020 08 27 08 59 49.0000000  0  2       0.000000000000
G13  22936441.070 6 120531866.206 6     -3002.906 6        39.597 6  22936442.098 3  93920932.740 3     -2339.982 3        19.410 3
G15  20744847.195 6 109015282.916 6     -1680.777 6        38.911 6  20744848.355 5  84946680.592 5     -1309.221 5        31.243 5
> 2020 08 27 08 59 50.0000000  0  2       0.000000000000
G13  22937012.570 6 120534868.231 6     -3002.465 6        39.971 6  22937013.469 3  93923271.967 3     -2339.531 3        19.410 3
G15  20745167.426 6 109016963.549 6     -1680.709 6        38.364 6  20745168.313 5  84947990.154 5     -1309.063 5        31.337 5
> 2020 08 27 08 59 51.0000000  0  2       0.000000000000
G13  22937583.672 6 120537870.452 6     -3002.695 6        39.788 6  22937584.773 3  93925611.344 3     -2339.676 3        19.758 3
G15  20745486.973 6 109018644.599 6     -1681.230 6        38.428 6  20745488.348 5  84949300.088 5     -1309.520 5        31.243 5
> 2020 08 27 08 59 52.0000000  0  2       0.000000000000
G13  22938154.457 6 120540872.665 6     -3001.988 6        39.788 6  22938156.004 3  93927950.727 3     -2339.158 3        20.379 3
G15  20745806.777 6 109020325.840 6     -1682.008 6        38.364 6  20745808.363 5  84950610.130 5     -1309.900 5        31.243 5
> 2020 08 27 08 59 53.0000000  0  2       0.000000000000
G13  22938726.039 6 120543874.742 6     -3002.266 6        39.693 6  22938727.430 3  93930290.009 3     -2339.365 3        20.660 3
G15  20746126.945 6 109022007.085 6     -1681.230 6        38.165 6  20746128.406 5  84951920.225 5     -1310.496 5        31.406 5
> 2020 08 27 08 59 54.0000000  0  2       0.000000000000
G13  22939297.371 6 120546876.987 6     -3002.076 6        39.346 6  22939298.832 3  93932629.405 3     -2339.311 3        20.379 3
G15  20746447.008 6 109023688.694 6     -1680.297 6        38.232 6  20746448.453 5  84953230.601 5     -1311.068 5        31.541 5
> 2020 08 27 08 59 55.0000000  0  2       0.000000000000
G13  22939868.656 6 120549879.098 6     -3002.344 6        39.241 6  22939870.090 3  93934968.706 3     -2339.473 3        19.758 3
G15  20746766.883 6 109025370.465 6     -1683.166 6        37.737 6  20746768.484 5  84954541.003 5     -1310.566 5        31.541 5
> 2020 08 27 08 59 56.0000000  0  2       0.000000000000
G13  22940439.473 6 120552881.193 6     -3002.910 6        39.079 6  22940441.348 3  93937308.013 3     -2339.922 3        18.618 3
G15  20747087.145 6 109027052.340 6     -1682.988 6        38.027 6  20747088.645 5  84955851.566 5     -1311.074 5        31.693 5
> 2020 08 27 08 59 57.0000000  0  2       0.000000000000
G13  22941011.215 6 120555883.382 6     -3001.320 6        39.024 6  22941012.660 3  93939647.370 3     -2338.631 3        19.410 3
G15  20747406.328 6 109028734.483 6     -1682.277 6        37.956 6  20747408.945 5  84957162.349 5     -1310.799 5        31.383 5
> 2020 08 27 08 59 58.0000000  0  2       0.000000000000
G13  22941582.629 6 120558885.600 6     -3001.723 6        38.854 6  22941584.063 3  93941986.775 3     -2338.975 3        19.032 3
G15  20747727.047 6 109030416.914 6     -1681.900 6        38.027 6  20747729.164 5  84958473.307 5     -1310.146 5        31.474 5
> 2020 08 27 08 59 59.0000000  0  2       0.000000000000
G13  22942153.477 6 120561888.190 6     -3002.357 6        38.854 6  22942155.410 3  93944326.462 3     -2339.537 3        19.032 3
G15  20748047.625 6 109032099.905 6     -1683.314 6        38.298 6  20748049.559 5  84959784.752 5     -1312.174 5        31.451 5
> 2020 08 27 09 00  0.0000000  0  2       0.000000000000
G13  22942725.309 6 120564890.455 6     -3001.539 6        38.736 6  22942726.910 3  93946665.895 3     -2338.898 3        18.618 3
G15  20748367.758 6 109033782.709 6     -1682.184 6        38.232 6  20748370.047 5  84961096.016 5     -1311.164 5        31.171 5
> 2020 08 27 09 00  1.0000000  0  2       0.000000000000
G13  22943297.047 6 120567893.136 6     -3002.682 6        38.428 6  22943298.547 3  93949005.627 3     -2339.732 3        18.618 3
G15  20748688.227 6 109035466.201 6     -1684.732 6        38.096 6  20748690.715 5  84962407.798 5     -1312.018 5        31.360 5
> 2020 08 27 09 00  2.0000000  0  2       0.000000000000
G13  22943867.992 6 120570895.705 6     -3002.725 6        38.428 6  22943869.910 3  93951345.283 3     -2339.771 3        19.032 3
G15  20749008.477 6 109037149.690 6     -1683.154 6        38.165 6  20749011.254 5  84963719.607 5     -1310.240 5        31.757 5
> 2020 08 27 09 00  3.0000000  0  2       0.000000000000
G13  22944439.355 6 120573898.717 6     -3003.525 6        38.096 6  22944441.285 3  93953685.288 3     -2340.342 3        19.758 3
G15  20749329.570 6 109038833.898 6     -1685.068 6        38.232 6  20749331.930 5  84965031.980 5     -1312.646 5        31.943 5
> 2020 08 27 09 00  4.0000000  0  2       0.000000000000
G13  22945011.359 6 120576901.431 6     -3002.193 6        38.364 6  22945012.691 3  93956025.083 3     -2339.453 3        19.410 3
G15  20749650.020 6 109040517.986 6     -1683.717 6        38.968 6  20749652.609 5  84966344.278 5     -1313.242 5        32.179 5
> 2020 08 27 09 00  5.0000000  0  2       0.000000000000
G13  22945582.496 6 120579904.661 6     -3002.725 6        38.232 6  22945584.371 3  93958365.265 3     -2339.811 3        18.618 3
G15  20749970.457 6 109042202.782 6     -1684.912 6        38.968 6  20749973.320 5  84967657.065 5     -1312.545 5        32.101 5
> 2020 08 27 09 00  6.0000000  0  2       0.000000000000
G13  22946153.199 6 120582907.908 6     -3003.320 6        37.812 6  22946155.961 3  93960705.466 3     -2340.303 3        18.161 3
G15  20750291.180 6 109043887.772 6     -1684.727 6        39.448 6  20750293.941 5  84968970.071 5     -1313.389 5        31.799 5
> 2020 08 27 09 00  7.0000000  0  2       0.000000000000
G13  22946725.184 6 120585911.449 6     -3003.973 6        38.027 6  22946727.586 2  93963045.886 2     -2340.768 2        16.400 2
G15  20750612.609 6 109045573.294 6     -1685.828 6        39.693 6  20750614.727 5  84970283.431 5     -1313.326 5        31.715 5
> 2020 08 27 09 00  8.0000000  0  2       0.000000000000
G13  22947296.316 6 120588915.032 6     -3002.934 6        37.737 6  22947299.121 2  93965386.329 2     -2339.939 2        16.400 2
G15  20750932.762 6 109047259.035 6     -1685.727 6        39.741 6  20750935.652 5  84971597.027 5     -1314.217 5        31.629 5
> 2020 08 27 09 00  9.0000000  0  2       0.000000000000
G13  22947867.895 6 120591918.646 6     -3003.900 6        37.662 6  22947870.625 2  93967726.794 2     -2340.693 2        17.069 2
G15  20751253.926 6 109048944.988 6     -1686.322 6        40.103 6  20751256.516 5  84972910.770 5     -1314.658 5        31.496 5
> 2020 08 27 09 00 10.0000000  0  2       0.000000000000
G13  22948439.723 6 120594922.425 6     -3004.039 6        37.662 6  22948442.270 2  93970067.394 2     -2340.834 2        17.069 2
G15  20751575.059 6 109050631.281 6     -1685.719 6        40.231 6  20751577.418 5  84974224.748 5     -1314.311 5        31.429 5
> 2020 08 27 09 00 11.0000000  0  2       0.000000000000
G13  22949010.652 6 120597926.032 6     -3003.773 6        37.585 6  22949013.859 2  93972407.866 2     -2340.596 2        16.400 2
G15  20751895.723 6 109052317.667 6     -1686.195 6        40.231 6  20751898.297 5  84975538.851 5     -1315.400 5        31.693 5
> 2020 08 27 09 00 12.0000000  0  2       0.000000000000
G13  22949582.375 6 120600929.418 6     -3002.926 6        37.507 6  22949585.480 2  93974748.158 2     -2339.908 2        17.649 2
G15  20752216.891 6 109054003.996 6     -1686.754 6        40.397 6  20752219.293 5  84976852.840 5     -1314.186 5        31.563 5
> 2020 08 27 09 00 13.0000000  0  2       0.000000000000
G13  22950154.039 6 120603932.860 6     -3003.713 6        37.179 6  22950157.016 3  93977088.492 3     -2340.568 3        18.161 3
G15  20752538.000 6 109055690.584 6     -1686.857 6        40.477 6  20752540.203 5  84978167.057 5     -1315.100 5        31.778 5
> 2020 08 27 09 00 14.0000000  0  2       0.000000000000
G13  22950725.598 6 120606936.380 6     -3002.936 6        37.263 6  22950728.660 3  93979428.893 3     -2339.977 3        19.032 3
G15  20752858.859 6 109057377.457 6     -1686.939 6        40.858 6  20752861.094 5  84979481.474 5     -1313.883 5        31.902 5
> 2020 08 27 09 00 15.0000000  0  2       0.000000000000
G13  22951297.316 6 120609940.012 6     -3003.082 6        37.093 6  22951300.238 3  93981769.383 3     -2340.076 3        18.618 3
G15  20753179.883 6 109059064.577 6     -1686.791 6        40.895 6  20753182.145 5  84980796.122 5     -1313.533 5        31.943 5
> 2020 08 27 09 00 16.0000000  0  2       0.000000000000
G13  22951868.793 6 120612943.862 6     -3003.773 6        36.824 6  22951871.770 3  93984110.039 3     -2340.621 3        18.161 3
G15  20753501.090 6 109060752.150 6     -1687.855 6        41.002 6  20753503.250 5  84982111.126 5     -1315.074 5        31.799 5
> 2020 08 27 09 00 17.0000000  0  2       0.000000000000
G13  22952440.922 6 120615947.532 6     -3002.838 6        37.093 6  22952443.340 3  93986450.579 3     -2339.830 3        19.032 3
G15  20753822.094 6 109062439.747 6     -1687.215 6        41.141 6  20753824.426 5  84983426.150 5     -1314.969 5        31.820 5
> 2020 08 27 09 00 18.0000000  0  2       0.000000000000
G13  22953012.652 6 120618951.257 6     -3004.404 6        37.093 6  22953015.141 3  93988791.138 3     -2341.090 3        18.161 3
G15  20754143.129 6 109064127.599 6     -1687.861 6        41.276 6  20754145.574 5  84984741.343 5     -1315.816 5        31.778 5
> 2020 08 27 09 00 19.0000000  0  2       0.000000000000
G13  22953584.297 6 120621955.306 6     -3003.428 6        36.915 6  22953586.801 3  93991131.947 3     -2340.369 3        18.161 3
G15  20754464.648 6 109065815.975 6     -1688.896 6        41.342 6  20754466.750 5  84986056.954 5     -1315.330 5        31.902 5
> 2020 08 27 09 00 20.0000000  0  2       0.000000000000
G13  22954155.609 6 120624959.128 6     -3003.129 6        36.731 6  22954158.328 2  93993472.591 2     -2340.084 2        17.649 2
G15  20754785.977 6 109067504.261 6     -1687.896 6        41.470 6  20754788.125 5  84987372.522 5     -1315.338 5        31.963 5
> 2020 08 27 09 00 21.0000000  0  2       0.000000000000
G13  22954727.070 6 120627963.286 6     -3004.811 6        36.635 6  22954730.102 3  93995813.488 3     -2341.377 3        18.161 3
G15  20755107.602 6 109069193.148 6     -1689.516 6        41.502 6  20755109.461 5  84988688.542 5     -1316.650 5        32.329 5
> 2020 08 27 09 00 22.0000000  0  2       0.000000000000
G13  22955298.418 6 120630967.521 6     -3003.840 6        37.005 6  22955301.852 3  93998154.443 3     -2340.691 3        18.618 3
G15  20755428.824 6 109070882.270 6     -1689.016 6        41.806 6  20755430.695 5  84990004.720 5     -1315.791 5        32.580 5
> 2020 08 27 09 00 23.0000000  0  2       0.000000000000
G13  22955869.922 6 120633971.802 6     -3004.420 6        37.093 6  22955873.656 3  94000495.447 3     -2340.988 3        18.618 3
G15  20755750.203 6 109072571.639 6     -1689.576 6        41.687 6  20755752.234 5  84991321.145 5     -1316.398 5        32.492 5
> 2020 08 27 09 00 24.0000000  0  2       0.000000000000
G13  22956442.113 6 120636976.061 6     -3003.506 6        37.263 6  22956445.348 3  94002836.425 3     -2340.418 3        19.032 3
G15  20756072.270 6 109074261.234 6     -1689.520 6        41.806 6  20756073.555 5  84992637.699 5     -1316.629 5        32.236 5
> 2020 08 27 09 00 25.0000000  0  2       0.000000000000
G13  22957014.090 6 120639980.634 6     -3005.180 6        36.731 6  22957017.109 3  94005177.661 3     -2341.631 3        19.032 3
G15  20756393.977 6 109075951.270 6     -1690.043 6        41.502 6  20756394.922 5  84993954.613 5     -1316.572 5        32.310 5
> 2020 08 27 09 00 26.0000000  0  3       0.000000000000
G13  22957585.609 6 120642985.355 6     -3004.213 6        37.179 6  22957589.043 3  94007519.003 3     -2341.002 3        20.080 3
G15  20756716.230 6 109077641.675 6     -1689.799 6        41.374 6  20756716.418 5  84995271.865 5     -1317.975 5        32.217 5
G18  20449342.047 5 107462022.230 5       800.145 5        32.656 5                                                                
> 2020 08 27 09 00 27.0000000  0  3       0.000000000000
G13  22958157.727 6 120645990.022 6     -3003.852 6        37.263 6  22958160.891 3  94009860.287 3     -2340.580 3        20.080 3
G15  20757037.652 6 109079332.250 6     -1690.258 6        41.276 6  20757037.898 5  84996589.193 5     -1317.924 5        32.384 5
G18  20449189.551 5 107461222.123 5       800.896 5        33.113 5                                                                
> 2020 08 27 09 00 28.0000000  0  3       0.000000000000
G13  22958729.598 6 120648995.148 6     -3004.279 6        37.179 6  22958732.805 3  94012201.959 3     -2341.020 3        20.379 3
G15  20757359.113 6 109081023.470 6     -1691.760 6        41.141 6  20757359.598 5  84997907.000 5     -1318.109 5        32.273 5
G18  20449037.230 5 107460423.008 5       800.428 5        32.144 5                                                                
> 2020 08 27 09 00 29.0000000  0  3       0.000000000000
G13  22959301.254 6 120652000.327 6     -3005.098 6        37.507 6  22959304.887 3  94014543.638 3     -2341.580 3        19.032 3
G15  20757680.355 6 109082714.925 6     -1691.697 6        41.107 6  20757681.289 5  84999224.969 5     -1317.146 5        32.254 5
G18  20448884.984 5 107459624.579 5       797.287 5        32.144 5                                                                
> 2020 08 27 09 00 30.0000000  0  3       0.000000000000
G13  22959872.844 6 120655005.824 6     -3005.824 6        37.812 6  22959876.711 3  94016885.601 3     -2342.146 3        18.618 3
G15  20758002.539 6 109084406.868 6     -1691.430 6        40.748 6  20758003.055 5  85000543.423 5     -1319.002 5        32.062 5
G18  20448731.816 5 107458826.939 5       797.631 5        31.864 5                                                                
> 2020 08 27 09 00 31.0000000  0  3       0.000000000000
G13  22960445.141 6 120658011.241 6     -3005.172 6        37.885 6  22960448.703 2  94019227.478 2     -2341.633 2        17.069 2
G15  20758324.281 6 109086099.010 6     -1692.633 6        40.672 6  20758324.910 5  85001861.988 5     -1319.055 5        31.963 5
G18  20448578.777 5 107458029.849 5       797.014 5        31.242 5                                                                
> 2020 08 27 09 00 32.0000000  0  3       0.000000000000
G13  22961017.094 6 120661016.725 6     -3006.229 6        37.662 6  22961020.672 2  94021569.409 2     -2342.502 2        17.069 2
G15  20758645.824 6 109087791.346 6     -1693.453 6        40.634 6  20758646.695 5  85003180.637 5     -1318.713 5        32.254 5
G18  20448426.113 5 107457233.352 5       793.520 5        31.242 5                                                                
> 2020 08 27 09 00 33.0000000  0  3       0.000000000000
G13  22961588.945 6 120664022.211 6     -3006.725 6        37.507 6  22961592.609 3  94023911.350 3     -2342.938 3        18.161 3
G15  20758968.125 6 109089483.870 6     -1692.176 6        40.189 6  20758968.625 5  85004499.549 5     -1320.164 5        31.778 5
G18  20448274.922 5 107456437.330 5       795.344 5        31.242 5                                                                
> 2020 08 27 09 00 34.0000000  0  3       0.000000000000
G13  22962160.953 6 120667027.353 6     -3004.439 6        37.507 6  22962164.527 3  94026253.000 3     -2341.094 3        18.618 3
G15  20759289.863 6 109091176.329 6     -1692.291 6        40.273 6  20759290.648 5  85005818.352 5     -1321.699 5        31.650 5
G18  20448122.883 5 107455641.593 5       794.428 5        30.517 5                                                                
> 2020 08 27 09 00 35.0000000  0  2       0.000000000000
G13  22962732.836 6 120670032.349 6     -3004.205 6        37.885 6  22962736.398 2  94028594.540 2     -2341.012 2        17.069 2
G15  20759611.906 6 109092868.766 6     -1692.545 6        39.971 6  20759612.523 5  85007137.117 5     -1319.469 5        31.541 5
> 2020 08 27 09 00 36.0000000  0  2       0.000000000000
G13  22963304.035 6 120673037.520 6     -3005.016 6        38.027 6  22963308.227 2  94030936.254 2     -2341.619 2        17.649 2
G15  20759934.270 6 109094561.613 6     -1693.102 6        39.880 6  20759934.527 5  85008456.237 5     -1321.189 5        31.474 5
> 2020 08 27 09 00 37.0000000  0  2       0.000000000000
G13  22963877.367 6 120676042.708 6     -3004.811 6        38.165 6  22963880.301 3  94033277.938 3     -2341.439 3        18.161 3
G15  20760257.191 6 109096254.681 6     -1693.033 6        39.548 6  20760256.563 5  85009775.531 5     -1319.193 5        31.474 5
> 2020 08 27 09 00 38.0000000  0  2       0.000000000000
G13  22964448.863 6 120679047.985 6     -3005.904 6        37.956 6  22964452.254 3  94035619.718 3     -2342.264 3        19.410 3
G15  20760579.133 6 109097947.997 6     -1692.896 6        39.448 6  20760578.547 5  85011094.976 5     -1319.881 5        31.337 5
> 2020 08 27 09 00 39.0000000  0  2       0.000000000000
G13  22965020.457 6 120682053.266 6     -3005.529 6        37.885 6  22965024.191 3  94037961.495 3     -2341.957 3        19.032 3
G15  20760901.461 6 109099641.545 6     -1693.908 6        39.079 6  20760900.719 5  85012414.587 5     -1318.988 5        31.098 5
> 2020 08 27 09 00 40.0000000  0  2       0.000000000000
G13  22965591.887 6 120685058.571 6     -3005.143 6        38.165 6  22965596.125 3  94040303.313 3     -2341.590 3        19.758 3
G15  20761223.629 6 109101335.338 6     -1693.736 6        38.854 6  20761222.898 5  85013734.421 5     -1319.715 5        31.147 5
> 2020 08 27 09 00 41.0000000  0  2       0.000000000000
G13  22966164.242 6 120688063.956 6     -3004.600 6        38.165 6  22966168.117 3  94042645.163 3     -2341.262 3        19.410 3
G15  20761545.855 6 109103029.385 6     -1694.150 6        38.428 6  20761545.168 5  85015054.430 5     -1318.527 5        31.073 5
> 2020 08 27 09 00 42.0000000  0  2       0.000000000000
G13  22966736.059 6 120691069.516 6     -3006.166 6        38.428 6  22966740.066 3  94044987.172 3     -2342.441 3        19.758 3
G15  20761867.836 6 109104723.712 6     -1694.115 6        38.554 6  20761867.262 5  85016374.754 5     -1321.406 5        30.793 5
> 2020 08 27 09 00 43.0000000  0  2       0.000000000000
G13  22967307.961 6 120694075.067 6     -3006.453 6        38.554 6  22967312.082 3  94047329.163 3     -2342.736 3        20.080 3
G15  20762190.758 6 109106418.338 6     -1695.729 6        38.165 6  20762189.555 5  85017695.215 5     -1321.035 5        30.793 5
> 2020 08 27 09 00 44.0000000  0  2       0.000000000000
G13  22967879.598 6 120697080.626 6     -3006.791 6        38.491 6  22967883.988 3  94049671.146 3     -2342.904 3        20.080 3
G15  20762512.555 6 109108113.092 6     -1695.580 6        37.885 6  20762512.023 5  85019015.758 5     -1320.092 5        30.550 5
> 2020 08 27 09 00 45.0000000  0  2       0.000000000000
G13  22968451.867 6 120700086.164 6     -3005.031 6        38.298 6  22968456.047 3  94052013.114 3     -2341.557 3        19.758 3
G15  20762834.844 6 109109808.107 6     -1695.266 6        37.956 6  20762834.344 5  85020336.540 5     -1319.797 5        30.141 5
> 2020 08 27 09 00 46.0000000  0  2       0.000000000000
G13  22969023.598 6 120703091.729 6     -3005.809 6        38.232 6  22969028.035 3  94054355.121 3     -2342.156 3        20.660 3
G15  20763157.879 6 109111503.257 6     -1694.793 6        37.885 6  20763156.934 5  85021657.551 5     -1322.176 5        30.141 5
> 2020 08 27 09 00 47.0000000  0  2       0.000000000000
G13  22969595.188 6 120706097.340 6     -3005.748 6        38.096 6  22969600.098 3  94056697.147 3     -2342.158 3        20.660 3
G15  20763480.348 6 109113198.721 6     -1695.496 6        37.885 6  20763479.418 5  85022978.633 5     -1322.236 5        30.494 5
> 2020 08 27 09 00 48.0000000  0  2       0.000000000000
G13  22970167.609 6 120709102.983 6     -3005.480 6        38.298 6  22970172.074 3  94059039.212 3     -2341.984 3        20.379 3
G15  20763803.215 6 109114894.408 6     -1695.930 6        38.165 6  20763802.102 5  85024299.921 5     -1322.531 5        30.550 5
> 2020 08 27 09 00 49.0000000  0  2       0.000000000000
G13  22970739.664 6 120712108.711 6     -3004.848 6        37.885 6  22970744.039 3  94061381.352 3     -2341.551 3        19.758 3
G15  20764125.574 6 109116590.364 6     -1695.453 6        37.662 6  20764124.957 5  85025621.434 5     -1321.002 5        30.111 5
> 2020 08 27 09 00 50.0000000  0  2       0.000000000000
G13  22971311.574 6 120715114.667 6     -3005.994 6        37.812 6  22971315.969 3  94063723.658 3     -2342.311 3        19.032 3
G15  20764448.363 6 109118286.689 6     -1696.404 6        37.662 6  20764447.648 4  85026943.302 4     -1323.053 4        29.954 4
> 2020 08 27 09 00 51.0000000  0  2       0.000000000000
G13  22971883.277 6 120718120.488 6     -3005.879 6        38.027 6  22971887.914 3  94066065.870 3     -2342.328 3        19.410 3
G15  20764771.371 6 109119983.151 6     -1696.660 6        37.812 6  20764770.570 5  85028265.170 5     -1322.094 5        30.111 5
> 2020 08 27 09 00 52.0000000  0  2       0.000000000000
G13  22972455.449 6 120721126.581 6     -3006.711 6        37.812 6  22972460.043 3  94068408.283 3     -2342.877 3        19.410 3
G15  20765094.996 6 109121680.136 6     -1698.469 6        37.737 6  20765093.621 5  85029587.517 5     -1324.049 5        30.111 5
> 2020 08 27 09 00 53.0000000  0  2       0.000000000000
G13  22973027.332 6 120724132.596 6     -3006.154 6        37.885 6  22973031.941 3  94070750.653 3     -2342.570 3        18.618 3
G15  20765417.039 6 109123377.132 6     -1698.322 6        37.662 6  20765416.379 4  85030909.822 4     -1323.471 4        29.889 4
> 2020 08 27 09 00 54.0000000  0  2       0.000000000000
G13  22973599.926 6 120727138.872 6     -3005.957 6        37.885 6  22973603.934 3  94073093.214 3     -2342.422 3        18.618 3
G15  20765740.078 6 109125074.662 6     -1698.184 6        37.263 6  20765739.234 5  85032232.551 5     -1322.402 5        30.172 5
> 2020 08 27 09 00 55.0000000  0  2       0.000000000000
G13  22974172.105 6 120730145.136 6     -3006.664 6        37.956 6  22974176.168 2  94075435.737 2     -2342.721 2        17.649 2
G15  20766062.707 6 109126772.333 6     -1698.031 6        37.427 6  20766062.332 4  85033555.394 4     -1323.150 4        29.954 4
> 2020 08 27 09 00 56.0000000  0  2       0.000000000000
G13  22974744.414 6 120733151.403 6     -3006.033 6        38.298 6  22974748.262 3  94077778.286 3     -2342.354 3        18.618 3
G15  20766385.891 6 109128470.239 6     -1698.436 6        37.662 6  20766385.605 4  85034878.396 4     -1321.865 4        29.622 4
> 2020 08 27 09 00 57.0000000  0  2       0.000000000000
G13  22975316.141 6 120736158.046 6     -3006.479 6        38.165 6  22975320.504 3  94080121.110 3     -2342.754 3        18.618 3
G15  20766709.211 6 109130168.680 6     -1699.369 6        38.096 6  20766708.707 4  85036201.911 4     -1322.891 4        29.922 4
> 2020 08 27 09 00 58.0000000  0  2       0.000000000000
G13  22975888.016 6 120739164.313 6     -3006.426 6        38.027 6  22975892.637 3  94082463.659 3     -2342.648 3        18.161 3
G15  20767032.676 6 109131866.942 6     -1698.340 6        38.298 6  20767031.789 4  85037525.238 4     -1323.742 4        29.922 4
> 2020 08 27 09 00 59.0000000  0  2       0.000000000000
G13  22976460.336 6 120742170.880 6     -3007.234 6        37.812 6  22976464.875 3  94084806.431 3     -2343.279 3        18.161 3
G15  20767355.879 6 109133565.723 6     -1699.363 6        38.096 6  20767354.945 4  85038849.003 4     -1324.900 4        29.791 4
> 2020 08 27 09 01  0.0000000  0  2       0.000000000000
G13  22977032.570 6 120745177.585 6     -3007.053 6        37.427 6  22977037.336 3  94087149.316 3     -2343.195 3        19.032 3
G15  20767679.414 6 109135264.858 6     -1699.084 6        38.096 6  20767678.383 4  85040172.984 4     -1324.189 4        29.724 4
> 2020 08 27 09 01  1.0000000  0  2       0.000000000000
G13  22977604.797 6 120748184.335 6     -3006.447 6        37.737 6  22977609.676 3  94089492.240 3     -2342.656 3        18.618 3
G15  20768003.234 6 109136964.220 6     -1699.555 6        38.027 6  20768001.801 4  85041497.116 4     -1323.555 4        29.889 4
> 2020 08 27 09 01  2.0000000  0  2       0.000000000000
G13  22978176.531 6 120751191.016 6     -3006.809 6        37.662 6  22978181.895 3  94091835.124 3     -2343.029 3        19.410 3
G15  20768326.848 6 109138663.650 6     -1697.607 6        37.956 6  20768325.273 5  85042821.438 5     -1325.295 5        30.080 5
> 2020 08 27 09 01  3.0000000  0  2       0.000000000000
G13  22978749.469 6 120754197.892 6     -3006.504 6        37.263 6  22978754.117 3  94094178.149 3     -2342.680 3        19.032 3
G15  20768649.945 6 109140363.587 6     -1700.313 6        37.956 6  20768648.688 5  85044145.993 5     -1323.656 5        30.202 5
> 2020 08 27 09 01  4.0000000  0  2       0.000000000000
G13  22979321.129 6 120757204.771 6     -3006.875 6        37.507 6  22979326.539 2  94096521.167 2     -2342.982 2        17.649 2
G15  20768973.629 6 109142063.661 6     -1700.098 6        37.956 6  20768972.109 5  85045470.757 5     -1324.936 5        30.172 5
> 2020 08 27 09 01  5.0000000  0  2       0.000000000000
G13  22979893.609 6 120760211.761 6     -3007.293 6        37.662 6  22979898.746 3  94098864.268 3     -2343.357 3        19.032 3
G15  20769297.129 6 109143764.053 6     -1701.160 6        37.885 6  20769295.758 5  85046795.729 5     -1325.914 5        30.321 5
> 2020 08 27 09 01  6.0000000  0  2       0.000000000000
G13  22980465.813 6 120763218.598 6     -3007.186 6        37.737 6  22980470.906 3  94101207.279 3     -2343.281 3        18.161 3
G15  20769620.211 6 109145464.507 6     -1700.291 6        37.956 6  20769619.281 5  85048120.769 5     -1325.938 5        30.048 5
> 2020 08 27 09 01  7.0000000  0  2       0.000000000000
G13  22981037.914 6 120766225.472 6     -3007.111 6        37.737 6  22981043.164 3  94103550.292 3     -2343.248 3        18.618 3
G15  20769943.902 6 109147165.188 6     -1700.881 6        38.232 6  20769942.816 5  85049445.946 5     -1325.182 5        30.111 5
> 2020 08 27 09 01  8.0000000  0  2       0.000000000000
G13  22981609.977 6 120769232.753 6     -3007.336 6        37.737 6  22981615.414 3  94105893.635 3     -2343.410 3        19.758 3
G15  20770268.273 6 109148866.467 6     -1701.457 6        38.364 6  20770266.641 4  85050771.642 4     -1327.473 4        29.954 4
> 2020 08 27 09 01  9.0000000  0  2       0.000000000000
G13  22982182.488 6 120772239.756 6     -3006.799 6        37.737 6  22982187.684 3  94108236.739 3     -2342.936 3        19.758 3
G15  20770592.094 6 109150567.706 6     -1701.682 6        38.554 6  20770590.305 5  85052097.241 5     -1325.670 5        30.048 5
> 2020 08 27 09 01 10.0000000  0  2       0.000000000000
G13  22982754.391 6 120775246.839 6     -3006.354 6        37.737 6  22982759.859 2  94110579.917 2     -2342.613 2        17.649 2
G15  20770916.160 6 109152269.185 6     -1701.490 6        38.736 6  20770913.957 5  85053423.066 5     -1324.977 5        30.080 5
> 2020 08 27 09 01 11.0000000  0  2       0.000000000000
G13  22983326.191 6 120778254.166 6     -3007.551 6        37.812 6  22983332.215 3  94112923.282 3     -2343.600 3        19.032 3
G15  20771239.695 6 109153971.074 6     -1702.043 6        38.795 6  20771237.852 5  85054749.214 5     -1325.650 5        30.141 5
> 2020 08 27 09 01 12.0000000  0  2       0.000000000000
G13  22983897.941 6 120781261.283 6     -3007.240 6        38.027 6  22983904.523 3  94115266.487 3     -2343.297 3        18.618 3
G15  20771563.180 6 109155672.995 6     -1702.514 6        38.854 6  20771561.633 5  85056075.428 5     -1327.438 5        30.141 5
> 2020 08 27 09 01 13.0000000  0  2       0.000000000000
G13  22984470.543 6 120784268.616 6     -3007.371 6        37.885 6  22984476.766 3  94117609.888 3     -2343.441 3        19.758 3
G15  20771886.801 6 109157375.320 6     -1702.527 6        38.795 6  20771885.484 4  85057401.915 4     -1328.031 4        29.986 4
> 2020 08 27 09 01 14.0000000  0  2       0.000000000000
G13  22985043.336 6 120787276.029 6     -3007.807 6        37.956 6  22985049.219 3  94119953.324 3     -2343.828 3        20.080 3
G15  20772210.473 6 109159077.904 6     -1703.334 6        39.079 6  20772209.445 5  85058728.602 5     -1327.754 5        30.321 5
> 2020 08 27 09 01 15.0000000  0  2       0.000000000000
G13  22985615.852 6 120790283.640 6     -3007.793 6        37.737 6  22985621.676 3  94122296.923 3     -2343.787 3        19.758 3
G15  20772534.152 6 109160780.899 6     -1703.672 6        38.911 6  20772533.336 5  85060055.599 5     -1327.088 5        30.660 5
> 2020 08 27 09 01 16.0000000  0  2       0.000000000000
G13  22986187.934 6 120793291.049 6     -3006.406 6        37.662 6  22986194.000 3  94124640.361 3     -2342.590 3        18.618 3
G15  20772858.824 6 109162483.865 6     -1702.695 6        38.968 6  20772857.379 4  85061382.569 4     -1326.438 4        29.922 4
> 2020 08 27 09 01 17.0000000  0  2       0.000000000000
G13  22986759.859 6 120796298.552 6     -3006.977 6        37.585 6  22986766.445 3  94126983.866 3     -2343.078 3        19.032 3
G15  20773183.922 6 109164187.097 6     -1702.270 6        39.188 6  20773181.445 4  85062709.793 4     -1326.379 4        29.824 4
> 2020 08 27 09 01 18.0000000  0  2       0.000000000000
G13  22987332.164 6 120799306.340 6     -3007.705 6        37.737 6  22987338.961 3  94129327.603 3     -2343.697 3        19.032 3
G15  20773508.246 6 109165890.874 6     -1704.170 6        39.397 6  20773505.484 4  85064037.392 4     -1327.760 4        29.791 4
> 2020 08 27 09 01 19.0000000  0  2       0.000000000000
G13  22987904.652 6 120802314.198 6     -3008.926 6        37.662 6  22987911.336 3  94131671.388 3     -2344.676 3        18.161 3
G15  20773832.328 6 109167594.882 6     -1704.881 6        39.397 6  20773829.766 4  85065365.136 4     -1326.922 4        29.758 4
> 2020 08 27 09 01 20.0000000  0  3       0.000000000000
G05  24236152.082 5 127361837.448 5     -2376.641 5        35.154 5                                                                
G13  22988476.809 6 120805321.921 6     -3008.398 6        37.346 6  22988483.762 3  94134015.062 3     -2344.227 3        19.032 3
G15  20774156.648 6 109169298.968 6     -1704.395 6        39.597 6  20774153.727 4  85066693.060 4     -1328.172 4        29.622 4
> 2020 08 27 09 01 21.0000000  0  3       0.000000000000
G05  24236605.039 5 127364213.008 5     -2374.943 5        35.288 5                                                                
G13  22989049.816 6 120808329.869 6     -3008.674 6        37.427 6  22989056.199 2  94136358.915 2     -2344.430 2        17.649 2
G15  20774481.105 6 109171003.484 6     -1705.295 6        39.548 6  20774477.898 4  85068021.224 4     -1327.262 4        29.758 4
> 2020 08 27 09 01 22.0000000  0  3       0.000000000000
G05  24237057.180 5 127366588.600 5     -2375.908 5        34.874 5                                                                
G13  22989621.867 6 120811337.709 6     -3007.451 6        37.662 6  22989628.793 3  94138702.677 3     -2343.498 3        18.161 3
G15  20774805.465 6 109172708.079 6     -1704.734 6        39.645 6  20774802.117 5  85069349.491 5     -1328.146 5        30.141 5
> 2020 08 27 09 01 23.0000000  0  3       0.000000000000
G05  24237509.359 5 127368964.388 5     -2375.594 5        34.874 5                                                                
G13  22990194.531 6 120814345.680 6     -3007.313 6        37.737 6  22990201.242 2  94141046.549 2     -2343.369 2        17.649 2
G15  20775130.293 6 109174412.987 6     -1704.854 6        39.597 6  20775126.445 5  85070678.011 5     -1328.779 5        30.292 5
> 2020 08 27 09 01 24.0000000  0  3       0.000000000000
G05  24237961.977 5 127371340.438 5     -2376.236 5        34.874 5  24237961.105 1  99250399.042 1     -1851.572 1         8.618 1
G13  22990766.777 6 120817353.914 6     -3008.736 6        37.427 6  22990773.746 2  94143390.614 2     -2344.443 2        17.649 2
G15  20775454.844 6 109176118.349 6     -1705.885 6        39.693 6  20775450.723 5  85072006.832 5     -1329.131 5        30.202 5
> 2020 08 27 09 01 25.0000000  0  3       0.000000000000
G05  24238413.746 5 127373716.412 5     -2374.580 5        34.874 5                                                                
G13  22991339.316 6 120820361.932 6     -3007.471 6        37.093 6  22991346.258 2  94145734.532 2     -2343.430 2        17.069 2
G15  20775778.836 6 109177823.743 6     -1705.283 6        39.448 6  20775775.141 4  85073335.718 4     -1328.703 4        29.986 4
> 2020 08 27 09 01 26.0000000  0  4       0.000000000000
G05  24238865.688 5 127376092.764 5     -2376.061 5        35.017 5                                                                
G13  22991912.313 6 120823370.249 6     -3007.975 6        37.093 6  22991918.895 2  94148078.672 2     -2343.857 2        17.649 2
G15  20776103.707 6 109179529.581 6     -1705.240 6        39.834 6  20776099.688 5  85074664.988 5     -1329.658 5        30.232 5
G18  20440412.063 5 107415102.262 5       763.725 5        31.242 5                                                                
> 2020 08 27 09 01 27.0000000  0  4       0.000000000000
G05  24239318.004 5 127378469.223 5     -2376.613 5        35.154 5                                                                
G13  22992484.250 6 120826378.573 6     -3008.547 6        37.427 6  22992491.434 3  94150422.828 3     -2344.336 3        18.618 3
G15  20776428.098 6 109181235.672 6     -1706.066 6        39.693 6  20776424.051 5  85075994.348 5     -1329.258 5        30.111 5
G18  20440265.680 5 107414338.974 5       761.377 5        31.242 5                                                                
> 2020 08 27 09 01 28.0000000  0  4       0.000000000000
G05  24239769.594 5 127380845.684 5     -2376.506 5        35.154 5                                                                
G13  22993056.469 6 120829386.912 6     -3009.143 6        37.427 6  22993064.066 3  94152766.994 3     -2344.807 3        18.618 3
G15  20776752.625 6 109182941.880 6     -1705.588 6        39.971 6  20776748.746 5  85077323.914 5     -1329.709 5        30.321 5
G18  20440119.719 5 107413576.131 5       763.180 5        31.564 5                                                                
> 2020 08 27 09 01 29.0000000  0  4       0.000000000000
G05  24240222.586 5 127383222.265 5     -2376.070 5        34.874 5                                                                
G13  22993629.371 6 120832395.148 6     -3007.867 6        37.346 6  22993636.641 3  94155111.075 3     -2343.836 3        19.032 3
G15  20777077.836 6 109184648.359 6     -1707.125 6        40.146 6  20777073.371 5  85078653.548 5     -1329.168 5        30.048 5
G18  20439973.871 5 107412813.883 5       761.996 5        31.564 5                                                                
> 2020 08 27 09 01 30.0000000  0  4       0.000000000000
G05  24240673.961 5 127385599.019 5     -2376.404 5        35.017 5                                                                
G13  22994201.660 6 120835403.604 6     -3009.119 6        37.179 6  22994209.258 3  94157455.326 3     -2344.658 3        19.410 3
G15  20777402.285 6 109186355.107 6     -1707.225 6        40.273 6  20777397.965 5  85079983.519 5     -1329.893 5        30.262 5
G18  20439828.555 5 107412052.279 5       761.916 5        31.564 5                                                                
> 2020 08 27 09 01 31.0000000  0  4       0.000000000000
G05  24241126.105 5 127387975.921 5     -2376.453 5        34.874 5                                                                
G13  22994774.430 6 120838412.033 6     -3008.191 6        37.005 6  22994781.727 3  94159799.546 3     -2343.955 3        18.618 3
G15  20777726.938 6 109188062.121 6     -1707.117 6        40.356 6  20777722.828 5  85081313.684 5     -1331.357 5        30.292 5
G18  20439682.859 5 107411291.371 5       760.676 5        31.564 5                                                                
